{
  "id": 120,
  "name": "Arizona General Election",
  "updated_at": "2020-10-30T23:42:01.398591+00:00",
  "election_day": "2020-11-03",
  "polling_places": [
    {
      "zip": "86001",
      "city": "Flagstaff",
      "name": "Coconino Community College",
      "state": "AZ",
      "latitude": 35.1715662,
      "precinct": "AZ_COCONINO_023",
      "longitude": -111.6447002,
      "address_line_1": "2800 S Lonetree Rd",
      "address_line_2": null
    },
    {
      "zip": "86024",
      "city": "Happy Jack",
      "name": "Blue Ridge Community Church",
      "state": "AZ",
      "latitude": 34.6354184,
      "precinct": "AZ_COCONINO_041",
      "longitude": -111.1093332,
      "address_line_1": "5706 State Route 87",
      "address_line_2": null
    },
    {
      "zip": "86004",
      "city": "Flagstaff",
      "name": "Calvary Bible Church",
      "state": "AZ",
      "latitude": 35.2495919,
      "precinct": "AZ_COCONINO_050",
      "longitude": -111.5327167,
      "address_line_1": "6555 Townsend Winona Rd",
      "address_line_2": null
    },
    {
      "zip": "86004",
      "city": "Flagstaff",
      "name": "Summit Fire Station #33: Hwy 89",
      "state": "AZ",
      "latitude": 35.3111142,
      "precinct": "AZ_COCONINO_051",
      "longitude": -111.541967,
      "address_line_1": "6050 E Firehouse Ln",
      "address_line_2": null
    },
    {
      "zip": "86004",
      "city": "Flagstaff",
      "name": "Summit Fire Station #33: Hwy 89",
      "state": "AZ",
      "latitude": 35.3111142,
      "precinct": "AZ_COCONINO_052",
      "longitude": -111.541967,
      "address_line_1": "6050 E Firehouse Ln",
      "address_line_2": null
    },
    {
      "zip": "85931",
      "city": "Forest Lakes",
      "name": "Forest Lakes Home Owners Assoc.",
      "state": "AZ",
      "latitude": 34.3322857,
      "precinct": "AZ_COCONINO_053",
      "longitude": -110.7945693,
      "address_line_1": "1111 Merzville Rd",
      "address_line_2": null
    },
    {
      "zip": "86022",
      "city": "Fredonia",
      "name": "Fredonia Fire Station",
      "state": "AZ",
      "latitude": 36.9493426,
      "precinct": "AZ_COCONINO_058",
      "longitude": -112.5268421,
      "address_line_1": "20 W Brown St",
      "address_line_2": null
    },
    {
      "zip": "86001",
      "city": "Flagstaff",
      "name": "Highlands Fire Station",
      "state": "AZ",
      "latitude": 35.0938137,
      "precinct": "AZ_COCONINO_062",
      "longitude": -111.6790242,
      "address_line_1": "3350 Old Munds Park Hwy",
      "address_line_2": null
    },
    {
      "zip": "86320",
      "city": "Ash Fork",
      "name": "Kaibab Estates West Fire Station",
      "state": "AZ",
      "latitude": 35.2799152,
      "precinct": "AZ_COCONINO_064",
      "longitude": -112.471705,
      "address_line_1": "3905 N Double A Ranch Rd",
      "address_line_2": null
    },
    {
      "zip": "86320",
      "city": "Ash Fork",
      "name": "Kaibab Estates West Fire Station",
      "state": "AZ",
      "latitude": 35.2799152,
      "precinct": "AZ_COCONINO_066",
      "longitude": -112.471705,
      "address_line_1": "3905 N Double A Ranch Rd",
      "address_line_2": null
    },
    {
      "zip": "86017",
      "city": "Munds Park",
      "name": "Pinewood Fire Station",
      "state": "AZ",
      "latitude": 34.9400791,
      "precinct": "AZ_COCONINO_080",
      "longitude": -111.640982,
      "address_line_1": "475 E Pinewood Blvd",
      "address_line_2": null
    },
    {
      "zip": "86004",
      "city": "Flagstaff",
      "name": "Calvary Bible Church",
      "state": "AZ",
      "latitude": 35.2495919,
      "precinct": "AZ_COCONINO_086",
      "longitude": -111.5327167,
      "address_line_1": "6555 Townsend Winona Rd",
      "address_line_2": null
    },
    {
      "zip": "86047",
      "city": "Winslow",
      "name": "Tolani Lake Chapter House",
      "state": "AZ",
      "latitude": 35.4336517,
      "precinct": "AZ_COCONINO_088",
      "longitude": -110.8460024,
      "address_line_1": "Tolani Lake",
      "address_line_2": null
    },
    {
      "zip": "86023",
      "city": "Tusayan",
      "name": "Tusayan Town Hall",
      "state": "AZ",
      "latitude": 35.9735954,
      "precinct": "AZ_COCONINO_097",
      "longitude": -112.1265569,
      "address_line_1": "845 Mustang Drive",
      "address_line_2": null
    },
    {
      "zip": "85541",
      "city": "Gisela",
      "name": "Tonto Valley Bible Church",
      "state": "AZ",
      "latitude": 34.094613,
      "precinct": "AZ_GILA_305",
      "longitude": -111.2855385,
      "address_line_1": "526 S Valley View Dr.",
      "address_line_2": null
    },
    {
      "zip": "85920",
      "city": "Alpine",
      "name": "Alpine Community Center",
      "state": "AZ",
      "latitude": 33.8483212,
      "precinct": "AZ_APACHE_002",
      "longitude": -109.1432936,
      "address_line_1": "#12 County Road 2061",
      "address_line_2": null
    },
    {
      "zip": "86503",
      "city": "Chinle",
      "name": "Chinle Community Center",
      "state": "AZ",
      "latitude": 36.1639653,
      "precinct": "AZ_APACHE_003",
      "longitude": -109.58555,
      "address_line_1": "US HWY 191",
      "address_line_2": null
    },
    {
      "zip": "86503",
      "city": "Chinle",
      "name": "Chinle Community Center",
      "state": "AZ",
      "latitude": 36.1639653,
      "precinct": "AZ_APACHE_005",
      "longitude": -109.58555,
      "address_line_1": "US HWY 191",
      "address_line_2": null
    },
    {
      "zip": "85924",
      "city": "Concho",
      "name": "Concho Elementary School",
      "state": "AZ",
      "latitude": 34.4230855,
      "precinct": "AZ_APACHE_009",
      "longitude": -109.6400556,
      "address_line_1": "6 County Road 5101",
      "address_line_2": null
    },
    {
      "zip": "86505",
      "city": "Ganado",
      "name": "Cornfields Headstart Room",
      "state": "AZ",
      "latitude": 35.7095052,
      "precinct": "AZ_APACHE_010",
      "longitude": -109.5586838,
      "address_line_1": "8 mile South of Burnside Junction N15",
      "address_line_2": null
    },
    {
      "zip": "86503",
      "city": "Chinle",
      "name": "Cottonwood Senior Center",
      "state": "AZ",
      "latitude": 36.158612,
      "precinct": "AZ_APACHE_011",
      "longitude": -109.558325,
      "address_line_1": "Rt 4 Cottonwood Chapter premises",
      "address_line_2": null
    },
    {
      "zip": "85925",
      "city": "Eagar",
      "name": "Eagar Town Hall",
      "state": "AZ",
      "latitude": 34.1078496,
      "precinct": "AZ_APACHE_016",
      "longitude": -109.2921683,
      "address_line_1": "22 West 2ND Street",
      "address_line_2": null
    },
    {
      "zip": "85925",
      "city": "Eagar",
      "name": "Life In Christ Fellowship",
      "state": "AZ",
      "latitude": 34.110713,
      "precinct": "AZ_APACHE_017",
      "longitude": -109.2854298,
      "address_line_1": "11 South Hamblin St.",
      "address_line_2": null
    },
    {
      "zip": "86504",
      "city": "Ft. Defiance",
      "name": "Fort Defiance Chapter House",
      "state": "AZ",
      "latitude": 35.7462178,
      "precinct": "AZ_APACHE_019",
      "longitude": -109.0708415,
      "address_line_1": "Navajo Route 112",
      "address_line_2": null
    },
    {
      "zip": "85927",
      "city": "Greer",
      "name": "Greer Fire House Station",
      "state": "AZ",
      "latitude": 34.0219048,
      "precinct": "AZ_APACHE_025",
      "longitude": -109.4509866,
      "address_line_1": "38974 State Route 373",
      "address_line_2": null
    },
    {
      "zip": "86511",
      "city": "St. Michaels",
      "name": "Kin Dah Lichii Chapter House",
      "state": "AZ",
      "latitude": 35.6447402,
      "precinct": "AZ_APACHE_029",
      "longitude": -109.0956492,
      "address_line_1": "8 Miles E. of Ganado and 27 miles W. of W/R",
      "address_line_2": null
    },
    {
      "zip": "86507",
      "city": "Lukachukai",
      "name": "Lukachukai Chapter House",
      "state": "AZ",
      "latitude": 36.416946,
      "precinct": "AZ_APACHE_033",
      "longitude": -109.2287125,
      "address_line_1": "1/2 Mile S of N12 Mile Post 1",
      "address_line_2": null
    },
    {
      "zip": "86508",
      "city": "Lupton",
      "name": "Lupton Senior Center",
      "state": "AZ",
      "latitude": 35.3629829,
      "precinct": "AZ_APACHE_035",
      "longitude": -109.0482471,
      "address_line_1": "I-40 Exit 357 Navajo Rt 12",
      "address_line_2": null
    },
    {
      "zip": "86512",
      "city": "Sanders",
      "name": "Nahata Dziil Commission Governance",
      "state": "AZ",
      "latitude": 35.1952476,
      "precinct": "AZ_APACHE_048",
      "longitude": -109.3129898,
      "address_line_1": "Red Sand View Drive",
      "address_line_2": null
    },
    {
      "zip": "86514",
      "city": "Teec Nos Pos",
      "name": "Red Mesa School Conf. Rm",
      "state": "AZ",
      "latitude": 36.962466,
      "precinct": "AZ_APACHE_051",
      "longitude": -109.3811488,
      "address_line_1": "HWY 160 Mile Post 448",
      "address_line_2": null
    },
    {
      "zip": "86544",
      "city": "Red Valley",
      "name": "Red Valley Chapter House",
      "state": "AZ",
      "latitude": 36.6039938,
      "precinct": "AZ_APACHE_052",
      "longitude": -109.0603825,
      "address_line_1": "HWY 491 Route N13 Buffalo Dr. Bldg. R006-001",
      "address_line_2": null
    },
    {
      "zip": "86503",
      "city": "Chinle",
      "name": "Rough Rock Chapter House",
      "state": "AZ",
      "latitude": 36.1521319,
      "precinct": "AZ_APACHE_056",
      "longitude": -109.5471792,
      "address_line_1": "Hwy 8066",
      "address_line_2": null
    },
    {
      "zip": "86547",
      "city": "Round Rock",
      "name": "Round Rock Chapter House",
      "state": "AZ",
      "latitude": 36.5130564,
      "precinct": "AZ_APACHE_058",
      "longitude": -109.4734394,
      "address_line_1": "1/2 Mile E of Junction 191",
      "address_line_2": null
    },
    {
      "zip": "85925",
      "city": "Eagar",
      "name": "High School Auditorium",
      "state": "AZ",
      "latitude": 34.120784,
      "precinct": "AZ_APACHE_059",
      "longitude": -109.2870297,
      "address_line_1": "565 N. Butler St.",
      "address_line_2": null
    },
    {
      "zip": "86514",
      "city": "Teec Nos Pos",
      "name": "Sweetwater Chapter House",
      "state": "AZ",
      "latitude": 36.962466,
      "precinct": "AZ_APACHE_076",
      "longitude": -109.3811488,
      "address_line_1": "14 Miles S of Red Mesa Store",
      "address_line_2": null
    },
    {
      "zip": "86514",
      "city": "Teec Nos Pos",
      "name": "Teec Nos Pos Road Yard",
      "state": "AZ",
      "latitude": 36.9211097,
      "precinct": "AZ_APACHE_080",
      "longitude": -109.0856582,
      "address_line_1": "HWY 160 Bia School RD # N 5114",
      "address_line_2": null
    },
    {
      "zip": "86502",
      "city": "Chambers",
      "name": "Wide Ruins Chapter House",
      "state": "AZ",
      "latitude": 35.212004,
      "precinct": "AZ_APACHE_086",
      "longitude": -109.5211063,
      "address_line_1": "N 9345 Loop Road",
      "address_line_2": null
    },
    {
      "zip": "86001",
      "city": "Flagstaff",
      "name": "Flagstaff Bible Church",
      "state": "AZ",
      "latitude": 35.1989385,
      "precinct": "AZ_COCONINO_001",
      "longitude": -111.6358427,
      "address_line_1": "520 N Switzer Canyon Dr",
      "address_line_2": null
    },
    {
      "zip": "86001",
      "city": "Flagstaff",
      "name": "Flagstaff High School",
      "state": "AZ",
      "latitude": 35.205348,
      "precinct": "AZ_COCONINO_003",
      "longitude": -111.650743,
      "address_line_1": "400 W Elm Ave",
      "address_line_2": null
    },
    {
      "zip": "86001",
      "city": "Flagstaff",
      "name": "Flagstaff High School",
      "state": "AZ",
      "latitude": 35.205348,
      "precinct": "AZ_COCONINO_004",
      "longitude": -111.650743,
      "address_line_1": "400 W Elm Ave",
      "address_line_2": null
    },
    {
      "zip": "86001",
      "city": "Flagstaff",
      "name": "Northland Christian Assembly",
      "state": "AZ",
      "latitude": 35.182714,
      "precinct": "AZ_COCONINO_007",
      "longitude": -111.676171,
      "address_line_1": "1715 W University Ave",
      "address_line_2": null
    },
    {
      "zip": "86004",
      "city": "Flagstaff",
      "name": "Puente De Hozho Elementary",
      "state": "AZ",
      "latitude": 35.2197277,
      "precinct": "AZ_COCONINO_008",
      "longitude": -111.6152325,
      "address_line_1": "3401 N Fourth St",
      "address_line_2": null
    },
    {
      "zip": "86001",
      "city": "Flagstaff",
      "name": "Flagstaff High School",
      "state": "AZ",
      "latitude": 35.205348,
      "precinct": "AZ_COCONINO_009",
      "longitude": -111.650743,
      "address_line_1": "400 W Elm Ave",
      "address_line_2": null
    },
    {
      "zip": "86004",
      "city": "Flagstaff",
      "name": "Coconino High School",
      "state": "AZ",
      "latitude": 35.2167863,
      "precinct": "AZ_COCONINO_011",
      "longitude": -111.6250829,
      "address_line_1": "2801 N Izabel St",
      "address_line_2": null
    },
    {
      "zip": "86001",
      "city": "Flagstaff",
      "name": "Murdoch Community Center",
      "state": "AZ",
      "latitude": 35.1932682,
      "precinct": "AZ_COCONINO_012",
      "longitude": -111.6481163,
      "address_line_1": "203 E Brannen Ave",
      "address_line_2": null
    },
    {
      "zip": "86004",
      "city": "Flagstaff",
      "name": "Coconino High School",
      "state": "AZ",
      "latitude": 35.2167863,
      "precinct": "AZ_COCONINO_015",
      "longitude": -111.6250829,
      "address_line_1": "2801 N Izabel St",
      "address_line_2": null
    },
    {
      "zip": "86004",
      "city": "Flagstaff",
      "name": "Puente De Hozho Elementary",
      "state": "AZ",
      "latitude": 35.2197277,
      "precinct": "AZ_COCONINO_016",
      "longitude": -111.6152325,
      "address_line_1": "3401 N Fourth St",
      "address_line_2": null
    },
    {
      "zip": "86004",
      "city": "Flagstaff",
      "name": "Knoles Elementary School",
      "state": "AZ",
      "latitude": 35.1932217,
      "precinct": "AZ_COCONINO_024",
      "longitude": -111.6000234,
      "address_line_1": "4005 E Butler Ave",
      "address_line_2": null
    },
    {
      "zip": "86004",
      "city": "Flagstaff",
      "name": "Knoles Elementary School",
      "state": "AZ",
      "latitude": 35.1932217,
      "precinct": "AZ_COCONINO_025",
      "longitude": -111.6000234,
      "address_line_1": "4005 E Butler Ave",
      "address_line_2": null
    },
    {
      "zip": null,
      "city": "Cameron",
      "name": "Dzil Libei Elementary School",
      "state": "AZ",
      "latitude": 35.8756335,
      "precinct": "AZ_COCONINO_043",
      "longitude": -111.4119307,
      "address_line_1": "86020 US-89",
      "address_line_2": null
    },
    {
      "zip": "86435",
      "city": "Supai Village",
      "name": "Havasupai Tribe New Building",
      "state": "AZ",
      "latitude": 36.2369265,
      "precinct": "AZ_COCONINO_060",
      "longitude": -112.6890791,
      "address_line_1": "Supai Village",
      "address_line_2": null
    },
    {
      "zip": "86044",
      "city": "Tonalea",
      "name": "Ts'ah Bii Kin Community Church (formerly Inscription House)",
      "state": "AZ",
      "latitude": 36.3224923,
      "precinct": "AZ_COCONINO_061",
      "longitude": -110.9634781,
      "address_line_1": "Tonalea",
      "address_line_2": null
    },
    {
      "zip": null,
      "city": "Leupp",
      "name": "Leupp Public Elementary School",
      "state": "AZ",
      "latitude": 35.2980659,
      "precinct": "AZ_COCONINO_069",
      "longitude": -111.0062528,
      "address_line_1": "Leupp",
      "address_line_2": null
    },
    {
      "zip": "86045",
      "city": "Upper Moenkopi Village",
      "name": "Upper Moenkopi Community Center",
      "state": "AZ",
      "latitude": 36.1139304,
      "precinct": "AZ_COCONINO_070",
      "longitude": -111.2259962,
      "address_line_1": "Upper Moenkopi Village",
      "address_line_2": null
    },
    {
      "zip": "86040",
      "city": "Page",
      "name": "Page High School",
      "state": "AZ",
      "latitude": 36.9119105,
      "precinct": "AZ_COCONINO_072",
      "longitude": -111.4566181,
      "address_line_1": "434 S Lake Powell Blvd",
      "address_line_2": null
    },
    {
      "zip": "86040",
      "city": "Page",
      "name": "Page City Hall",
      "state": "AZ",
      "latitude": 36.9191512,
      "precinct": "AZ_COCONINO_073",
      "longitude": -111.461223,
      "address_line_1": "697 Vista Ave",
      "address_line_2": null
    },
    {
      "zip": "86040",
      "city": "Page",
      "name": "Page High School",
      "state": "AZ",
      "latitude": 36.9119105,
      "precinct": "AZ_COCONINO_074",
      "longitude": -111.4566181,
      "address_line_1": "434 S Lake Powell Blvd",
      "address_line_2": null
    },
    {
      "zip": "86040",
      "city": "Page",
      "name": "Page City Hall",
      "state": "AZ",
      "latitude": 36.9191512,
      "precinct": "AZ_COCONINO_075",
      "longitude": -111.461223,
      "address_line_1": "697 Vista Ave",
      "address_line_2": null
    },
    {
      "zip": "86018",
      "city": "Parks",
      "name": "Maine Consolidated School",
      "state": "AZ",
      "latitude": 35.2621964,
      "precinct": "AZ_COCONINO_079",
      "longitude": -111.9497971,
      "address_line_1": "10 N Spring Valley Rd",
      "address_line_2": null
    },
    {
      "zip": "86336",
      "city": "Sedona",
      "name": "Christ Lutheran Church",
      "state": "AZ",
      "latitude": 34.8324853,
      "precinct": "AZ_COCONINO_082",
      "longitude": -111.7764178,
      "address_line_1": "25 Chapel Rd",
      "address_line_2": null
    },
    {
      "zip": "86336",
      "city": "Sedona",
      "name": "Christ Lutheran Church",
      "state": "AZ",
      "latitude": 34.8324853,
      "precinct": "AZ_COCONINO_083",
      "longitude": -111.7764178,
      "address_line_1": "25 Chapel Rd",
      "address_line_2": null
    },
    {
      "zip": "86004",
      "city": "Flagstaff",
      "name": "Cromer Elementary School",
      "state": "AZ",
      "latitude": 35.2686559,
      "precinct": "AZ_COCONINO_085",
      "longitude": -111.521957,
      "address_line_1": "7150 Silver Saddle Rd",
      "address_line_2": null
    },
    {
      "zip": "86044",
      "city": "Tonalea",
      "name": "Tonalea Senior Citizen Center",
      "state": "AZ",
      "latitude": 36.3224923,
      "precinct": "AZ_COCONINO_090",
      "longitude": -110.9634781,
      "address_line_1": "Tonalea",
      "address_line_2": null
    },
    {
      "zip": "86004",
      "city": "Flagstaff",
      "name": "Summit Fire Station #31: Cosnino Rd",
      "state": "AZ",
      "latitude": 35.2307402,
      "precinct": "AZ_COCONINO_092",
      "longitude": -111.4654591,
      "address_line_1": "6425 N Cosnino Rd",
      "address_line_2": null
    },
    {
      "zip": "86046",
      "city": "Williams",
      "name": "Grand Canyon Railway Hotel",
      "state": "AZ",
      "latitude": 35.2520488,
      "precinct": "AZ_COCONINO_098",
      "longitude": -112.1914662,
      "address_line_1": "235 N Grand Canyon Blvd",
      "address_line_2": null
    },
    {
      "zip": "86046",
      "city": "Williams",
      "name": "St Johns Episcopal-Lutheran Church",
      "state": "AZ",
      "latitude": 35.2495918,
      "precinct": "AZ_COCONINO_099",
      "longitude": -112.188337,
      "address_line_1": "202 W Grant Ave",
      "address_line_2": null
    },
    {
      "zip": null,
      "city": "Young",
      "name": "Pleasant Valley Community Center",
      "state": "AZ",
      "latitude": 34.1011699,
      "precinct": "AZ_GILA_340",
      "longitude": -110.9633795,
      "address_line_1": "HWY 288",
      "address_line_2": null
    },
    {
      "zip": "85550",
      "city": "San Carlos",
      "name": "Rice Gym",
      "state": "AZ",
      "latitude": 33.3568879,
      "precinct": "AZ_GILA_410",
      "longitude": -110.4512784,
      "address_line_1": "Mohave Avenue & Yavapai St",
      "address_line_2": null
    },
    {
      "zip": null,
      "city": "Clifton",
      "name": "Upper Eagle Creek School Building",
      "state": "AZ",
      "latitude": 33.073315,
      "precinct": "AZ_GREENLEE_001",
      "longitude": -109.384349,
      "address_line_1": "Upper Eagle Creek Road",
      "address_line_2": null
    },
    {
      "zip": "85922",
      "city": "Blue",
      "name": "Blue School Building",
      "state": "AZ",
      "latitude": 33.6362866,
      "precinct": "AZ_GREENLEE_002",
      "longitude": -109.0932507,
      "address_line_1": "Blue River Road",
      "address_line_2": null
    },
    {
      "zip": "85542",
      "city": "Peridot",
      "name": "San Carlos Housing Authority",
      "state": "AZ",
      "latitude": 33.2938008,
      "precinct": "AZ_GRAHAM_016",
      "longitude": -110.4333742,
      "address_line_1": "Moonbase Rd.",
      "address_line_2": null
    },
    {
      "zip": "86431",
      "city": "Chloride",
      "name": "Chloride Town Hall",
      "state": "AZ",
      "latitude": 35.4139585,
      "precinct": "AZ_MOHAVE_204",
      "longitude": -114.1985922,
      "address_line_1": "4990 Payroll Ave",
      "address_line_2": null
    },
    {
      "zip": "86404",
      "city": "Lake Havasu City",
      "name": "Desert Hills Fire Station",
      "state": "AZ",
      "latitude": 34.5462518,
      "precinct": "AZ_MOHAVE_207",
      "longitude": -114.36743,
      "address_line_1": "3983 London Bridge Rd",
      "address_line_2": null
    },
    {
      "zip": "86409",
      "city": "Kingman",
      "name": "College Park Community Church",
      "state": "AZ",
      "latitude": 35.267415,
      "precinct": "AZ_MOHAVE_216",
      "longitude": -114.029746,
      "address_line_1": "1990 Jagerson Ave",
      "address_line_2": null
    },
    {
      "zip": "86436",
      "city": "Topock",
      "name": "Golden Shores Fire Dept.",
      "state": "AZ",
      "latitude": 34.7801563,
      "precinct": "AZ_MOHAVE_222",
      "longitude": -114.4804087,
      "address_line_1": "12950 Oatman-Topock Hwy",
      "address_line_2": null
    },
    {
      "zip": "86434",
      "city": "Peach Springs",
      "name": "Peach Springs Elementary School",
      "state": "AZ",
      "latitude": 35.5343441,
      "precinct": "AZ_MOHAVE_224",
      "longitude": -113.4256931,
      "address_line_1": "403 Diamond Creek",
      "address_line_2": null
    },
    {
      "zip": "85713",
      "city": "Tucson",
      "name": "Luz Y Vida Para La Familia (break Room)",
      "state": "AZ",
      "latitude": 32.1774516,
      "precinct": "AZ_PIMA_244",
      "longitude": -110.9720515,
      "address_line_1": "225 W AJO WAY",
      "address_line_2": null
    },
    {
      "zip": "85713",
      "city": "Tucson",
      "name": "Pima County Department Of Transportation (safety Training Conference Room)",
      "state": "AZ",
      "latitude": 32.2025011,
      "precinct": "AZ_PIMA_245",
      "longitude": -110.9950915,
      "address_line_1": "1313 S MISSION ROAD",
      "address_line_2": null
    },
    {
      "zip": "85713",
      "city": "Tucson",
      "name": "Pima County Department Of Transportation (safety Training Conference Room)",
      "state": "AZ",
      "latitude": 32.2025011,
      "precinct": "AZ_PIMA_247",
      "longitude": -110.9950915,
      "address_line_1": "1313 S MISSION ROAD",
      "address_line_2": null
    },
    {
      "zip": "85706",
      "city": "Tucson",
      "name": "Valencia Branch Public Library (large Meeting Room)",
      "state": "AZ",
      "latitude": 32.1345574,
      "precinct": "AZ_PIMA_248",
      "longitude": -110.9725514,
      "address_line_1": "202 W VALENCIA ROAD",
      "address_line_2": null
    },
    {
      "zip": "85137",
      "city": "KEARNY",
      "name": "Town Of Kearny Constitution Hall Building C",
      "state": "AZ",
      "latitude": 33.0545432,
      "precinct": "AZ_PINAL_001",
      "longitude": -110.9142142,
      "address_line_1": "912 C TILBURY DR",
      "address_line_2": null
    },
    {
      "zip": "85192",
      "city": "DUDLEYVILLE",
      "name": "Dudleyville Multi-generational Center",
      "state": "AZ",
      "latitude": 32.908856,
      "precinct": "AZ_PINAL_004",
      "longitude": -110.719687,
      "address_line_1": "4004 N DUDLEYVILLE RD",
      "address_line_2": null
    },
    {
      "zip": "85631",
      "city": "SAN MANUEL",
      "name": "San Manuel Community Center",
      "state": "AZ",
      "latitude": 32.6089269,
      "precinct": "AZ_PINAL_005",
      "longitude": -110.6336448,
      "address_line_1": "111 W 5TH AVENUE",
      "address_line_2": null
    },
    {
      "zip": "85618",
      "city": "MAMMOTH",
      "name": "Mammoth Community Center",
      "state": "AZ",
      "latitude": 32.7162243,
      "precinct": "AZ_PINAL_006",
      "longitude": -110.6436688,
      "address_line_1": "101 W 5TH ST",
      "address_line_2": null
    },
    {
      "zip": "85623",
      "city": "ORACLE",
      "name": "Pinal County Administration Building",
      "state": "AZ",
      "latitude": 32.6139827,
      "precinct": "AZ_PINAL_007",
      "longitude": -110.7642307,
      "address_line_1": "1470 JUSTICE DRIVE",
      "address_line_2": null
    },
    {
      "zip": "85739",
      "city": "TUCSON",
      "name": "Mountainview Country Club",
      "state": "AZ",
      "latitude": 32.5262126,
      "precinct": "AZ_PINAL_008",
      "longitude": -110.8995992,
      "address_line_1": "38735 S MOUNTAINVIEW BLVD",
      "address_line_2": null
    },
    {
      "zip": "85123",
      "city": "ARIZONA CITY",
      "name": "Arizona City Fire Station",
      "state": "AZ",
      "latitude": 32.7526408,
      "precinct": "AZ_PINAL_009",
      "longitude": -111.6717551,
      "address_line_1": "14022 S SUNLAND GIN RD",
      "address_line_2": null
    },
    {
      "zip": "85123",
      "city": "ARIZONA CITY",
      "name": "Freedom Family Church",
      "state": "AZ",
      "latitude": 32.759316,
      "precinct": "AZ_PINAL_010",
      "longitude": -111.657828,
      "address_line_1": "13325 S TACNA RD",
      "address_line_2": null
    },
    {
      "zip": "85141",
      "city": "PICACHO",
      "name": "Picacho Elementary School Multi Purpose Building",
      "state": "AZ",
      "latitude": 32.717483,
      "precinct": "AZ_PINAL_011",
      "longitude": -111.497643,
      "address_line_1": "17865 S VAIL RD",
      "address_line_2": null
    },
    {
      "zip": "85131",
      "city": "ELOY",
      "name": "Eloy City Hall",
      "state": "AZ",
      "latitude": 32.7552993,
      "precinct": "AZ_PINAL_012",
      "longitude": -111.5537704,
      "address_line_1": "595 NORTH C STREET",
      "address_line_2": null
    },
    {
      "zip": "85131",
      "city": "ELOY",
      "name": "Toltec Community/senior Center",
      "state": "AZ",
      "latitude": 32.791673,
      "precinct": "AZ_PINAL_013",
      "longitude": -111.6146298,
      "address_line_1": "3655 W SHEDD RD",
      "address_line_2": null
    },
    {
      "zip": "85131",
      "city": "ELOY",
      "name": "Eloy Public Library",
      "state": "AZ",
      "latitude": 32.7592523,
      "precinct": "AZ_PINAL_014",
      "longitude": -111.5554209,
      "address_line_1": "1000 N MAIN STREET",
      "address_line_2": null
    },
    {
      "zip": "85739",
      "city": "TUCSON",
      "name": "Saddlebrooke One",
      "state": "AZ",
      "latitude": 32.5343242,
      "precinct": "AZ_PINAL_015",
      "longitude": -110.877158,
      "address_line_1": "64500 E SADDLEBROOKE BLVD",
      "address_line_2": null
    },
    {
      "zip": "85145",
      "city": "RED ROCK",
      "name": "Avra Valley Fire District 194",
      "state": "AZ",
      "latitude": 32.5684021,
      "precinct": "AZ_PINAL_016",
      "longitude": -111.3434225,
      "address_line_1": "21021 E HOMESTEAD DR",
      "address_line_2": null
    },
    {
      "zip": "85128",
      "city": "COOLIDGE",
      "name": "Coolidge Women's Club",
      "state": "AZ",
      "latitude": 32.9790265,
      "precinct": "AZ_PINAL_017",
      "longitude": -111.5187663,
      "address_line_1": "240 W PINKLEY AVE",
      "address_line_2": null
    },
    {
      "zip": "85128",
      "city": "COOLIDGE",
      "name": "Coolidge Lds Meetinghouse",
      "state": "AZ",
      "latitude": 32.9833283,
      "precinct": "AZ_PINAL_018",
      "longitude": -111.5331825,
      "address_line_1": "580 9TH STREET",
      "address_line_2": null
    },
    {
      "zip": "85128",
      "city": "COOLIDGE",
      "name": "City Of Coolidge Council Chambers",
      "state": "AZ",
      "latitude": 32.9686342,
      "precinct": "AZ_PINAL_019",
      "longitude": -111.5232612,
      "address_line_1": "911 S ARIZONA BLVD",
      "address_line_2": null
    },
    {
      "zip": "85128",
      "city": "COOLIDGE",
      "name": "St Paul Church Of God In Christ All Purpose Building",
      "state": "AZ",
      "latitude": 32.9122043,
      "precinct": "AZ_PINAL_020",
      "longitude": -111.5150546,
      "address_line_1": "3627 E BELL AVE",
      "address_line_2": null
    },
    {
      "zip": "85128",
      "city": "COOLIDGE",
      "name": "Central Arizona College Coolidge Campus Resident Tower Building A Room",
      "state": "AZ",
      "latitude": 32.9574297,
      "precinct": "AZ_PINAL_021",
      "longitude": -111.6521054,
      "address_line_1": "8470 N OVERFIELD RD",
      "address_line_2": null
    },
    {
      "zip": "85194",
      "city": "CASA GRANDE",
      "name": "Pinal County Fairgrounds Building 3",
      "state": "AZ",
      "latitude": 32.8843314,
      "precinct": "AZ_PINAL_022",
      "longitude": -111.5673625,
      "address_line_1": "512 S ELEVEN MILE CORNER RD",
      "address_line_2": null
    },
    {
      "zip": "85132",
      "city": "FLORENCE",
      "name": "Florence Town Hall Council Chambers",
      "state": "AZ",
      "latitude": 33.0388489,
      "precinct": "AZ_PINAL_023",
      "longitude": -111.3872521,
      "address_line_1": "775 N MAIN ST",
      "address_line_2": null
    },
    {
      "zip": "85132",
      "city": "FLORENCE",
      "name": "Fusd Administrative Building Florence",
      "state": "AZ",
      "latitude": 33.0225785,
      "precinct": "AZ_PINAL_024",
      "longitude": -111.389581,
      "address_line_1": "1000 S MAIN ST",
      "address_line_2": null
    },
    {
      "zip": "85143",
      "city": "SAN TAN VALLEY",
      "name": "Community Education Cafeteria Fusd",
      "state": "AZ",
      "latitude": 33.151053,
      "precinct": "AZ_PINAL_026",
      "longitude": -111.556068,
      "address_line_1": "29895 N DESERT WILLOW BLVD",
      "address_line_2": null
    },
    {
      "zip": "85132",
      "city": "FLORENCE",
      "name": "Anthem K-8 Fusd",
      "state": "AZ",
      "latitude": 33.0579519,
      "precinct": "AZ_PINAL_027",
      "longitude": -111.4751919,
      "address_line_1": "2700 N ANTHEM WAY",
      "address_line_2": null
    },
    {
      "zip": "85140",
      "city": "SAN TAN VALLEY",
      "name": "Combs Middle School",
      "state": "AZ",
      "latitude": 33.2209412,
      "precinct": "AZ_PINAL_028",
      "longitude": -111.547948,
      "address_line_1": "37611 N PECAN CREEK DR",
      "address_line_2": null
    },
    {
      "zip": "85147",
      "city": "SACATON",
      "name": "Sacaton District 3 Service Center",
      "state": "AZ",
      "latitude": 33.0793969,
      "precinct": "AZ_PINAL_029",
      "longitude": -111.741524,
      "address_line_1": "31 N CHURCH ST",
      "address_line_2": null
    },
    {
      "zip": "85138",
      "city": "MARICOPA",
      "name": "Desert Wind Middle School",
      "state": "AZ",
      "latitude": 33.0503084,
      "precinct": "AZ_PINAL_030",
      "longitude": -111.9504205,
      "address_line_1": "35565 W HONEYCUTT",
      "address_line_2": null
    },
    {
      "zip": "85172",
      "city": "STANFIELD",
      "name": "First Baptist Church",
      "state": "AZ",
      "latitude": 32.874609,
      "precinct": "AZ_PINAL_031",
      "longitude": -111.962597,
      "address_line_1": "615 S STANFIELD RD",
      "address_line_2": null
    },
    {
      "zip": "85122",
      "city": "CASA GRANDE",
      "name": "First Presbyterian Church",
      "state": "AZ",
      "latitude": 32.8955353,
      "precinct": "AZ_PINAL_032",
      "longitude": -111.743673,
      "address_line_1": "702 E COTTONWOOD LANE",
      "address_line_2": null
    },
    {
      "zip": "85122",
      "city": "CASA GRANDE",
      "name": "United Methodist Church Of Casa Grande",
      "state": "AZ",
      "latitude": 32.890727,
      "precinct": "AZ_PINAL_033",
      "longitude": -111.7408317,
      "address_line_1": "1515 N TREKELL RD",
      "address_line_2": null
    },
    {
      "zip": "85122",
      "city": "CASA GRANDE",
      "name": "Trinity Southern Baptist Church",
      "state": "AZ",
      "latitude": 32.8844988,
      "precinct": "AZ_PINAL_034",
      "longitude": -111.7392247,
      "address_line_1": "1100 E TRINITY PLACE",
      "address_line_2": null
    },
    {
      "zip": "85122",
      "city": "CASA GRANDE",
      "name": "Casa Grande Community Recreation Center",
      "state": "AZ",
      "latitude": 32.9055334,
      "precinct": "AZ_PINAL_035",
      "longitude": -111.7232715,
      "address_line_1": "1905 N PEART AVE",
      "address_line_2": null
    },
    {
      "zip": "85122",
      "city": "CASA GRANDE",
      "name": "Trinity Southern Baptist Church",
      "state": "AZ",
      "latitude": 32.8844988,
      "precinct": "AZ_PINAL_036",
      "longitude": -111.7392247,
      "address_line_1": "1100 E TRINITY PLACE",
      "address_line_2": null
    },
    {
      "zip": "85122",
      "city": "CASA GRANDE",
      "name": "Passion Church",
      "state": "AZ",
      "latitude": 32.9083389,
      "precinct": "AZ_PINAL_037",
      "longitude": -111.7481912,
      "address_line_1": "501 E KORTSEN RD",
      "address_line_2": null
    },
    {
      "zip": "85122",
      "city": "CASA GRANDE",
      "name": "Calvary Chapel",
      "state": "AZ",
      "latitude": 32.8799319,
      "precinct": "AZ_PINAL_038",
      "longitude": -111.7725052,
      "address_line_1": "962 W GILA BEND HWY",
      "address_line_2": null
    },
    {
      "zip": "85122",
      "city": "CASA GRANDE",
      "name": "Villago Middle School",
      "state": "AZ",
      "latitude": 32.9435879,
      "precinct": "AZ_PINAL_039",
      "longitude": -111.7447443,
      "address_line_1": "574 E LAKESIDE PKWY",
      "address_line_2": null
    },
    {
      "zip": "85120",
      "city": "APACHE JUNCTION",
      "name": "Cactus Canyon Jr High School",
      "state": "AZ",
      "latitude": 33.391516,
      "precinct": "AZ_PINAL_040",
      "longitude": -111.556885,
      "address_line_1": "801 W SOUTHERN AVE",
      "address_line_2": null
    },
    {
      "zip": "85122",
      "city": "CASA GRANDE",
      "name": "Heritage Casa Grande Funeral Chapel",
      "state": "AZ",
      "latitude": 32.8786685,
      "precinct": "AZ_PINAL_041",
      "longitude": -111.7194986,
      "address_line_1": "1575 E FLORENCE BLVD",
      "address_line_2": null
    },
    {
      "zip": "85120",
      "city": "APACHE JUNCTION",
      "name": "Superstition Mountain Elementary",
      "state": "AZ",
      "latitude": 33.4088847,
      "precinct": "AZ_PINAL_042",
      "longitude": -111.5644884,
      "address_line_1": "550 S IRONWOOD DR",
      "address_line_2": null
    },
    {
      "zip": "85120",
      "city": "APACHE JUNCTION",
      "name": "Apache Junction Sda Church Social Hall",
      "state": "AZ",
      "latitude": 33.400254,
      "precinct": "AZ_PINAL_043",
      "longitude": -111.5637383,
      "address_line_1": "1650 S IRONWOOD DR",
      "address_line_2": null
    },
    {
      "zip": "85120",
      "city": "APACHE JUNCTION",
      "name": "Moose Lodge 2039",
      "state": "AZ",
      "latitude": 33.401355,
      "precinct": "AZ_PINAL_044",
      "longitude": -111.5496249,
      "address_line_1": "350 W 16TH AVE",
      "address_line_2": null
    },
    {
      "zip": "85119",
      "city": "APACHE JUNCTION",
      "name": "Four Peaks Elementary School",
      "state": "AZ",
      "latitude": 33.4313304,
      "precinct": "AZ_PINAL_045",
      "longitude": -111.544952,
      "address_line_1": "1785 N IDAHO RD",
      "address_line_2": null
    },
    {
      "zip": "85119",
      "city": "APACHE JUNCTION",
      "name": "Desert Vista Elementary School",
      "state": "AZ",
      "latitude": 33.4064524,
      "precinct": "AZ_PINAL_046",
      "longitude": -111.5063065,
      "address_line_1": "3701 E BROADWAY AVE",
      "address_line_2": null
    },
    {
      "zip": "85119",
      "city": "APACHE JUNCTION",
      "name": "Central Arizona College Superstition Mountain Campus Building D Room D",
      "state": "AZ",
      "latitude": 33.4090537,
      "precinct": "AZ_PINAL_047",
      "longitude": -111.5434933,
      "address_line_1": "805 S IDAHO RD",
      "address_line_2": null
    },
    {
      "zip": "85118",
      "city": "GOLD CANYON",
      "name": "Gold Canyon United Methodist Church",
      "state": "AZ",
      "latitude": 33.354552,
      "precinct": "AZ_PINAL_048",
      "longitude": -111.4560016,
      "address_line_1": "6640 S KINGS RANCH RD",
      "address_line_2": null
    },
    {
      "zip": "85118",
      "city": "QUEEN VALLEY",
      "name": "Queen Valley Homeowners Association Hall",
      "state": "AZ",
      "latitude": 33.2997463,
      "precinct": "AZ_PINAL_049",
      "longitude": -111.2878227,
      "address_line_1": "1478 QUEEN VALLEY DR",
      "address_line_2": null
    },
    {
      "zip": "85173",
      "city": "SUPERIOR",
      "name": "St. Mary's Center",
      "state": "AZ",
      "latitude": 33.2805849,
      "precinct": "AZ_PINAL_050",
      "longitude": -111.1049334,
      "address_line_1": "100 SUNSET DR",
      "address_line_2": null
    },
    {
      "zip": "85173",
      "city": "SUPERIOR",
      "name": "St. Mary's Center",
      "state": "AZ",
      "latitude": 33.2805849,
      "precinct": "AZ_PINAL_051",
      "longitude": -111.1049334,
      "address_line_1": "100 SUNSET DR",
      "address_line_2": null
    },
    {
      "zip": "85539",
      "city": "MIAMI",
      "name": "Spirit Of Truth Baptist Church",
      "state": "AZ",
      "latitude": 33.341199,
      "precinct": "AZ_PINAL_052",
      "longitude": -111.00354,
      "address_line_1": "51345 N APPLE VALLEY RD",
      "address_line_2": null
    },
    {
      "zip": "85139",
      "city": "MARICOPA",
      "name": "Thunderbird Fire Department Community Building",
      "state": "AZ",
      "latitude": 32.9922478,
      "precinct": "AZ_PINAL_054",
      "longitude": -112.1169453,
      "address_line_1": "12356 N RALSTON RD",
      "address_line_2": null
    },
    {
      "zip": "85122",
      "city": "CASA GRANDE",
      "name": "Pinal County Cowboy Church West Building",
      "state": "AZ",
      "latitude": 32.9738731,
      "precinct": "AZ_PINAL_055",
      "longitude": -111.7635388,
      "address_line_1": "18251 W HOPI DR",
      "address_line_2": null
    },
    {
      "zip": "85120",
      "city": "APACHE JUNCTION",
      "name": "Happy Days Rv Park Main Hall",
      "state": "AZ",
      "latitude": 33.4205221,
      "precinct": "AZ_PINAL_056",
      "longitude": -111.5792491,
      "address_line_1": "451 N MERIDIAN DR",
      "address_line_2": null
    },
    {
      "zip": "85119",
      "city": "APACHE JUNCTION",
      "name": "Elks Lodge 2349",
      "state": "AZ",
      "latitude": 33.4376218,
      "precinct": "AZ_PINAL_057",
      "longitude": -111.5190277,
      "address_line_1": "2455 N APACHE TRAIL",
      "address_line_2": null
    },
    {
      "zip": "85119",
      "city": "APACHE JUNCTION",
      "name": "Roy W Hudson County Complex Building Suite 800",
      "state": "AZ",
      "latitude": 33.420939,
      "precinct": "AZ_PINAL_058",
      "longitude": -111.5445392,
      "address_line_1": "575 N IDAHO RD",
      "address_line_2": null
    },
    {
      "zip": "85119",
      "city": "APACHE JUNCTION",
      "name": "Mountain View Lutheran Church Family Life Center",
      "state": "AZ",
      "latitude": 33.3949156,
      "precinct": "AZ_PINAL_059",
      "longitude": -111.511896,
      "address_line_1": "2122 S GOLDFIELD RD",
      "address_line_2": null
    },
    {
      "zip": "85128",
      "city": "COOLIDGE",
      "name": "Blackwater District 1 Service Center",
      "state": "AZ",
      "latitude": 33.0253515,
      "precinct": "AZ_PINAL_060",
      "longitude": -111.5704402,
      "address_line_1": "15747 N SHEGOI RD",
      "address_line_2": null
    },
    {
      "zip": "85121",
      "city": "BAPCHULE",
      "name": "Veterans Memorial Building",
      "state": "AZ",
      "latitude": 33.1177692,
      "precinct": "AZ_PINAL_062",
      "longitude": -111.8859897,
      "address_line_1": "3496 W CASA BLANCA",
      "address_line_2": null
    },
    {
      "zip": "85120",
      "city": "APACHE JUNCTION",
      "name": "First Baptist Church Of Apache Junction",
      "state": "AZ",
      "latitude": 33.4128167,
      "precinct": "AZ_PINAL_063",
      "longitude": -111.5571607,
      "address_line_1": "235 S THUNDERBIRD DR",
      "address_line_2": null
    },
    {
      "zip": "85118",
      "city": "GOLD CANYON",
      "name": "Superstition Foothills Baptist Church",
      "state": "AZ",
      "latitude": 33.3576814,
      "precinct": "AZ_PINAL_064",
      "longitude": -111.4527877,
      "address_line_1": "6338 S KINGS RANCH RD",
      "address_line_2": null
    },
    {
      "zip": "85118",
      "city": "GOLD CANYON",
      "name": "Gold Canyon United Methodist Church",
      "state": "AZ",
      "latitude": 33.354552,
      "precinct": "AZ_PINAL_066",
      "longitude": -111.4560016,
      "address_line_1": "6640 S KINGS RANCH RD",
      "address_line_2": null
    },
    {
      "zip": "85138",
      "city": "MARICOPA",
      "name": "Pinal County Public Works",
      "state": "AZ",
      "latitude": 32.881156,
      "precinct": "AZ_PINAL_067",
      "longitude": -112.038557,
      "address_line_1": "43910 W MEADOWVIEW RD",
      "address_line_2": null
    },
    {
      "zip": "85142",
      "city": "QUEEN CREEK",
      "name": "Mountain Vista Academy Fusd Gym",
      "state": "AZ",
      "latitude": 33.183345,
      "precinct": "AZ_PINAL_068",
      "longitude": -111.605704,
      "address_line_1": "33622 N MOUNTAIN VISTA BLVD",
      "address_line_2": null
    },
    {
      "zip": "85143",
      "city": "QUEEN CREEK",
      "name": "Bella Vista Church Of Jesus Christ Of Latter Day Saints",
      "state": "AZ",
      "latitude": 33.160392,
      "precinct": "AZ_PINAL_069",
      "longitude": -111.550849,
      "address_line_1": "1521 E BELLA VISTA RD",
      "address_line_2": null
    },
    {
      "zip": "85143",
      "city": "SAN TAN VALLEY",
      "name": "Copper Basin K-8 School Fusd",
      "state": "AZ",
      "latitude": 33.137929,
      "precinct": "AZ_PINAL_070",
      "longitude": -111.5274973,
      "address_line_1": "28682 N MAIN ST",
      "address_line_2": null
    },
    {
      "zip": "85140",
      "city": "SAN TAN VALLEY",
      "name": "Simonton Elementary School",
      "state": "AZ",
      "latitude": 33.2447989,
      "precinct": "AZ_PINAL_071",
      "longitude": -111.5214045,
      "address_line_1": "40300 N SIMONTON BLVD",
      "address_line_2": null
    },
    {
      "zip": "85118",
      "city": "GOLD CANYON",
      "name": "Peralta Trail Elementary School",
      "state": "AZ",
      "latitude": 33.3423044,
      "precinct": "AZ_PINAL_072",
      "longitude": -111.4279614,
      "address_line_1": "10965 E PERALTA RD",
      "address_line_2": null
    },
    {
      "zip": "85138",
      "city": "MARICOPA",
      "name": "Santa Rosa Elementary School",
      "state": "AZ",
      "latitude": 33.0736971,
      "precinct": "AZ_PINAL_073",
      "longitude": -112.0286562,
      "address_line_1": "21400 N SANTA ROSA DR",
      "address_line_2": null
    },
    {
      "zip": "85138",
      "city": "MARICOPA",
      "name": "Pima Butte Elementary School",
      "state": "AZ",
      "latitude": 33.0863266,
      "precinct": "AZ_PINAL_074",
      "longitude": -112.0210424,
      "address_line_1": "42202 W RANCHO EL DORADO PKWY",
      "address_line_2": null
    },
    {
      "zip": "85143",
      "city": "SAN TAN VALLEY",
      "name": "Desert Willow Church Of Jesus Christ Of Latter Day Saints",
      "state": "AZ",
      "latitude": 33.146527,
      "precinct": "AZ_PINAL_075",
      "longitude": -111.554488,
      "address_line_1": "29419 S DESERT WILLOW BLVD",
      "address_line_2": null
    },
    {
      "zip": "85140",
      "city": "SAN TAN VALLEY",
      "name": "Ocotillo Road Church Of Jesus Christ Of Latter Day Saints",
      "state": "AZ",
      "latitude": 33.2484471,
      "precinct": "AZ_PINAL_076",
      "longitude": -111.5365787,
      "address_line_1": "2715 E OCOTILLO RD",
      "address_line_2": null
    },
    {
      "zip": "85139",
      "city": "MARICOPA",
      "name": "Ak Chin Service Center",
      "state": "AZ",
      "latitude": 33.0289469,
      "precinct": "AZ_PINAL_077",
      "longitude": -112.0850602,
      "address_line_1": "48227 W FARRELL RD",
      "address_line_2": null
    },
    {
      "zip": "85139",
      "city": "MARICOPA",
      "name": "Maricopa Community Church",
      "state": "AZ",
      "latitude": 33.0623669,
      "precinct": "AZ_PINAL_078",
      "longitude": -112.0510137,
      "address_line_1": "44977 W HATHAWAY AVE",
      "address_line_2": null
    },
    {
      "zip": "85139",
      "city": "MARICOPA",
      "name": "Maricopa Community Church",
      "state": "AZ",
      "latitude": 33.0623669,
      "precinct": "AZ_PINAL_079",
      "longitude": -112.0510137,
      "address_line_1": "44977 W HATHAWAY AVE",
      "address_line_2": null
    },
    {
      "zip": "85138",
      "city": "MARICOPA",
      "name": "Global Water Center",
      "state": "AZ",
      "latitude": 33.0845569,
      "precinct": "AZ_PINAL_080",
      "longitude": -112.0103421,
      "address_line_1": "22590 N POWERS PKWY",
      "address_line_2": null
    },
    {
      "zip": "85122",
      "city": "CASA GRANDE",
      "name": "Mission Heights Preparatory High School",
      "state": "AZ",
      "latitude": 32.8948251,
      "precinct": "AZ_PINAL_081",
      "longitude": -111.7279759,
      "address_line_1": "1376 E COTTONWOOD LANE",
      "address_line_2": null
    },
    {
      "zip": "85122",
      "city": "CASA GRANDE",
      "name": "Sonland Lutheran Church",
      "state": "AZ",
      "latitude": 32.890779,
      "precinct": "AZ_PINAL_082",
      "longitude": -111.75875,
      "address_line_1": "432 W OCOTILLO ST",
      "address_line_2": null
    },
    {
      "zip": "85122",
      "city": "CASA GRANDE",
      "name": "Casa Grande Baptist Church",
      "state": "AZ",
      "latitude": 32.9269015,
      "precinct": "AZ_PINAL_083",
      "longitude": -111.7391316,
      "address_line_1": "2492 N TREKELL RD",
      "address_line_2": null
    },
    {
      "zip": "85118",
      "city": "GOLD CANYON",
      "name": "Superstition Foothills Baptist Church",
      "state": "AZ",
      "latitude": 33.3576814,
      "precinct": "AZ_PINAL_084",
      "longitude": -111.4527877,
      "address_line_1": "6338 S KINGS RANCH RD",
      "address_line_2": null
    },
    {
      "zip": "85142",
      "city": "SAN TAN VALLEY",
      "name": "San Tan Heights K-8 School Fusd",
      "state": "AZ",
      "latitude": 33.1786448,
      "precinct": "AZ_PINAL_085",
      "longitude": -111.5931522,
      "address_line_1": "2500 W SAN TAN HEIGHTS BLVD",
      "address_line_2": null
    },
    {
      "zip": "85143",
      "city": "QUEEN CREEK",
      "name": "Circle Cross Ranch K-8 Stem Academy Fusd",
      "state": "AZ",
      "latitude": 33.2041916,
      "precinct": "AZ_PINAL_086",
      "longitude": -111.5708961,
      "address_line_1": "35900 N CHARBRAY DR",
      "address_line_2": null
    },
    {
      "zip": "85143",
      "city": "QUEEN CREEK",
      "name": "Bella Vista Church Of Jesus Christ Of Latter Day Saints",
      "state": "AZ",
      "latitude": 33.160392,
      "precinct": "AZ_PINAL_087",
      "longitude": -111.550849,
      "address_line_1": "1521 E BELLA VISTA RD",
      "address_line_2": null
    },
    {
      "zip": "85140",
      "city": "SAN TAN VALLEY",
      "name": "Ranch Elementary School",
      "state": "AZ",
      "latitude": 33.2742761,
      "precinct": "AZ_PINAL_088",
      "longitude": -111.5448738,
      "address_line_1": "43521 N KENWORTHY RD",
      "address_line_2": null
    },
    {
      "zip": "85140",
      "city": "SAN TAN VALLEY",
      "name": "Combs Road Church Of Jesus Christ Of Latter Day Saints",
      "state": "AZ",
      "latitude": 33.2194481,
      "precinct": "AZ_PINAL_089",
      "longitude": -111.5381665,
      "address_line_1": "2559 E COMBS RD",
      "address_line_2": null
    },
    {
      "zip": "85138",
      "city": "MARICOPA",
      "name": "Maricopa Unified School District Office",
      "state": "AZ",
      "latitude": 33.0548611,
      "precinct": "AZ_PINAL_090",
      "longitude": -112.0417685,
      "address_line_1": "44150 W MARICOPA CASA GRANDE HWY",
      "address_line_2": null
    },
    {
      "zip": "85123",
      "city": "ARIZONA CITY",
      "name": "Central Lutheran Church",
      "state": "AZ",
      "latitude": 32.7629413,
      "precinct": "AZ_PINAL_091",
      "longitude": -111.6709039,
      "address_line_1": "12921 S SUNLAND GIN RD",
      "address_line_2": null
    },
    {
      "zip": "85739",
      "city": "TUCSON",
      "name": "Desert View Theater Mariposa Room",
      "state": "AZ",
      "latitude": 32.514247,
      "precinct": "AZ_PINAL_092",
      "longitude": -110.903244,
      "address_line_1": "39900 S CLUB HOUSE DR",
      "address_line_2": null
    },
    {
      "zip": "85623",
      "city": "ORACLE",
      "name": "Oracle Community Center",
      "state": "AZ",
      "latitude": 32.6094054,
      "precinct": "AZ_PINAL_093",
      "longitude": -110.7674503,
      "address_line_1": "685 E AMERICAN AVE",
      "address_line_2": null
    },
    {
      "zip": "85143",
      "city": "SAN TAN VALLEY",
      "name": "Skyline Ranch Elementary School Fusd Band Rooms",
      "state": "AZ",
      "latitude": 33.1855968,
      "precinct": "AZ_PINAL_094",
      "longitude": -111.578307,
      "address_line_1": "1084 W SAN TAN HILLS DR",
      "address_line_2": null
    },
    {
      "zip": "85142",
      "city": "QUEEN CREEK",
      "name": "Mountain Vista Academy Fusd Gym",
      "state": "AZ",
      "latitude": 33.183345,
      "precinct": "AZ_PINAL_095",
      "longitude": -111.605704,
      "address_line_1": "33622 N MOUNTAIN VISTA BLVD",
      "address_line_2": null
    },
    {
      "zip": "85142",
      "city": "SAN TAN VALLEY",
      "name": "San Tan Heights K-8 School Fusd",
      "state": "AZ",
      "latitude": 33.1786448,
      "precinct": "AZ_PINAL_096",
      "longitude": -111.5931522,
      "address_line_1": "2500 W SAN TAN HEIGHTS BLVD",
      "address_line_2": null
    },
    {
      "zip": "85143",
      "city": "SAN TAN VALLEY",
      "name": "Lifepoint Church",
      "state": "AZ",
      "latitude": 33.137823,
      "precinct": "AZ_PINAL_097",
      "longitude": -111.525896,
      "address_line_1": "28479 N MAIN STREET",
      "address_line_2": null
    },
    {
      "zip": "85140",
      "city": "SAN TAN VALLEY",
      "name": "Harmon Elementary School",
      "state": "AZ",
      "latitude": 33.2375959,
      "precinct": "AZ_PINAL_098",
      "longitude": -111.5546088,
      "address_line_1": "39315 N CORTONA DR",
      "address_line_2": null
    },
    {
      "zip": "85122",
      "city": "CASA GRANDE",
      "name": "Passion Church",
      "state": "AZ",
      "latitude": 32.9083389,
      "precinct": "AZ_PINAL_099",
      "longitude": -111.7481912,
      "address_line_1": "501 E KORTSEN RD",
      "address_line_2": null
    },
    {
      "zip": "85139",
      "city": "MARICOPA",
      "name": "First Baptist Church Of Maricopa",
      "state": "AZ",
      "latitude": 33.0498125,
      "precinct": "AZ_PINAL_100",
      "longitude": -112.048066,
      "address_line_1": "18705 N JOHN WAYNE PARKWAY",
      "address_line_2": null
    },
    {
      "zip": "85139",
      "city": "MARICOPA",
      "name": "Maricopa Wells Middle School",
      "state": "AZ",
      "latitude": 33.0523496,
      "precinct": "AZ_PINAL_101",
      "longitude": -112.0600726,
      "address_line_1": "45725 W HONEYCUTT AVE",
      "address_line_2": null
    },
    {
      "zip": "85138",
      "city": "MARICOPA",
      "name": "Central Arizona College Maricopa Campus Building A Room A101",
      "state": "AZ",
      "latitude": 33.0428763,
      "precinct": "AZ_PINAL_102",
      "longitude": -112.0046633,
      "address_line_1": "17945 N REGENT DR",
      "address_line_2": null
    },
    {
      "zip": "85192",
      "city": "DUDLEYVILLE",
      "name": "Dudleyville Multi-generational Center",
      "state": "AZ",
      "latitude": 32.908856,
      "precinct": "AZ_PINAL_103",
      "longitude": -110.719687,
      "address_line_1": "4004 N DUDLEYVILLE RD",
      "address_line_2": null
    },
    {
      "zip": "85141",
      "city": "PICACHO",
      "name": "Picacho Elementary School Multi Purpose Building",
      "state": "AZ",
      "latitude": 32.717483,
      "precinct": "AZ_PINAL_104",
      "longitude": -111.497643,
      "address_line_1": "17865 S VAIL RD",
      "address_line_2": null
    },
    {
      "zip": "85131",
      "city": "ELOY",
      "name": "Toltec Community/senior Center",
      "state": "AZ",
      "latitude": 32.791673,
      "precinct": "AZ_PINAL_105",
      "longitude": -111.6146298,
      "address_line_1": "3655 W SHEDD RD",
      "address_line_2": null
    },
    {
      "zip": "85611",
      "city": "Elgin",
      "name": "Elgin Community Hall",
      "state": "AZ",
      "latitude": 31.6596917,
      "precinct": "AZ_SANTA CRUZ_006",
      "longitude": -110.5256892,
      "address_line_1": "475 Elgin Road",
      "address_line_2": null
    },
    {
      "zip": "85646",
      "city": "Tubac",
      "name": "Santa Cruz County North Facility",
      "state": "AZ",
      "latitude": 31.617535,
      "precinct": "AZ_SANTA CRUZ_011",
      "longitude": -111.043648,
      "address_line_1": "50 Bridge Road",
      "address_line_2": null
    },
    {
      "zip": "85545",
      "city": "Roosevelt",
      "name": "Roosevelt Baptist Church",
      "state": "AZ",
      "latitude": 33.6018067,
      "precinct": "AZ_GILA_320",
      "longitude": -111.0050216,
      "address_line_1": "18659 Hwy 188",
      "address_line_2": null
    },
    {
      "zip": "85545",
      "city": "Roosevelt",
      "name": "Roosevelt Baptist Church",
      "state": "AZ",
      "latitude": 33.6018067,
      "precinct": "AZ_GILA_325",
      "longitude": -111.0050216,
      "address_line_1": "18659 Hwy 188",
      "address_line_2": null
    },
    {
      "zip": "85541",
      "city": "Christopher Creek",
      "name": "Christopher Creek Bible Fellowship Church",
      "state": "AZ",
      "latitude": 34.316806,
      "precinct": "AZ_GILA_345",
      "longitude": -111.016937,
      "address_line_1": "1036 E Christopher Creek Loop",
      "address_line_2": null
    },
    {
      "zip": "85941",
      "city": "Canyon Day",
      "name": "Canyon Day Jr. High School",
      "state": "AZ",
      "latitude": 33.7780385,
      "precinct": "AZ_GILA_400",
      "longitude": -110.0303223,
      "address_line_1": "4621 S 9th Street",
      "address_line_2": null
    },
    {
      "zip": "85530",
      "city": "Bylas",
      "name": "Robert Olivar Sr. Learning Center",
      "state": "AZ",
      "latitude": 33.1198483,
      "precinct": "AZ_GRAHAM_011",
      "longitude": -110.1092472,
      "address_line_1": "297 E. US HWY 70",
      "address_line_2": null
    },
    {
      "zip": "85643",
      "city": "Bonita",
      "name": "Bonita School",
      "state": "AZ",
      "latitude": 32.5868085,
      "precinct": "AZ_GRAHAM_012",
      "longitude": -109.9740398,
      "address_line_1": "18008 S. Ft Grant Rd.",
      "address_line_2": null
    },
    {
      "zip": "85643",
      "city": "Bonita",
      "name": "Bonita School",
      "state": "AZ",
      "latitude": 32.5868085,
      "precinct": "AZ_GRAHAM_013",
      "longitude": -109.9740398,
      "address_line_1": "18008 S. Ft Grant Rd.",
      "address_line_2": null
    },
    {
      "zip": "85360",
      "city": "Wikieup",
      "name": "Owens Elementary School",
      "state": "AZ",
      "latitude": 34.705614,
      "precinct": "AZ_MOHAVE_201",
      "longitude": -113.614846,
      "address_line_1": "14109 E Chicken Springs Rd",
      "address_line_2": null
    },
    {
      "zip": "86445",
      "city": "White Hills",
      "name": "White Hills Community Center",
      "state": "AZ",
      "latitude": 35.7335721,
      "precinct": "AZ_MOHAVE_202",
      "longitude": -114.3293272,
      "address_line_1": "8541 W White Hills Blvd",
      "address_line_2": null
    },
    {
      "zip": "86438",
      "city": "Yucca",
      "name": "Yucca Fire District Station",
      "state": "AZ",
      "latitude": 34.8698863,
      "precinct": "AZ_MOHAVE_203",
      "longitude": -114.1488757,
      "address_line_1": "12349 S Frontage Rd",
      "address_line_2": null
    },
    {
      "zip": "86021",
      "city": "Colorado City",
      "name": "Mohave Community College Bldg. 500",
      "state": "AZ",
      "latitude": 36.9817006,
      "precinct": "AZ_MOHAVE_205",
      "longitude": -112.9729661,
      "address_line_1": "480 South Central",
      "address_line_2": null
    },
    {
      "zip": "86444",
      "city": "Meadview",
      "name": "Meadview Civic Assoc. Inc.",
      "state": "AZ",
      "latitude": 36.002856,
      "precinct": "AZ_MOHAVE_208",
      "longitude": -114.065681,
      "address_line_1": "247 East Meadview Blvd",
      "address_line_2": null
    },
    {
      "zip": "86441",
      "city": "Dolan Springs",
      "name": "Dolan Springs Community Council Bldg.",
      "state": "AZ",
      "latitude": 35.5660089,
      "precinct": "AZ_MOHAVE_209",
      "longitude": -114.3098379,
      "address_line_1": "15195 North Pierce Ferry Rd",
      "address_line_2": null
    },
    {
      "zip": "86413",
      "city": "Golden Valley",
      "name": "Golden Valley Fire Dist. Training Center",
      "state": "AZ",
      "latitude": 35.2166489,
      "precinct": "AZ_MOHAVE_210",
      "longitude": -114.23836,
      "address_line_1": "423 S. Colorado",
      "address_line_2": null
    },
    {
      "zip": "86401",
      "city": "Valle Vista",
      "name": "Valle Vista Community Church",
      "state": "AZ",
      "latitude": 35.3765902,
      "precinct": "AZ_MOHAVE_213",
      "longitude": -113.8587384,
      "address_line_1": "8620 Cortez Dr",
      "address_line_2": null
    },
    {
      "zip": "86434",
      "city": "Truxton",
      "name": "Music Mountain Bible Chapel",
      "state": "AZ",
      "latitude": 35.4870291,
      "precinct": "AZ_MOHAVE_214",
      "longitude": -113.5676653,
      "address_line_1": "12476 N. Byers St.",
      "address_line_2": null
    },
    {
      "zip": "86432",
      "city": "Beaver Dam",
      "name": "Littlefield Unified School Dist.#9 Governing Board Bldg",
      "state": "AZ",
      "latitude": 36.9041663,
      "precinct": "AZ_MOHAVE_221",
      "longitude": -113.9285827,
      "address_line_1": "3490 E Rio Virgin Rd",
      "address_line_2": null
    },
    {
      "zip": "85321",
      "city": "Ajo",
      "name": "Ajo Federated Church (social Hall)",
      "state": "AZ",
      "latitude": 32.3723426,
      "precinct": "AZ_PIMA_001",
      "longitude": -112.862988,
      "address_line_1": "101 W LOMITA AVENUE",
      "address_line_2": null
    },
    {
      "zip": "85653",
      "city": "Marana",
      "name": "Musd - Roadrunner Elementary School (am Stage)",
      "state": "AZ",
      "latitude": 32.4139884,
      "precinct": "AZ_PIMA_005",
      "longitude": -111.3236272,
      "address_line_1": "16651 W CALLE CARMELA",
      "address_line_2": null
    },
    {
      "zip": "85653",
      "city": "Marana",
      "name": "Marana Municipal Complex (marana Police Dept. Community Room)",
      "state": "AZ",
      "latitude": 32.4475558,
      "precinct": "AZ_PIMA_006",
      "longitude": -111.2111918,
      "address_line_1": "11555 W CIVIC CENTER",
      "address_line_2": null
    },
    {
      "zip": "85020",
      "city": "Phoenix",
      "name": "Arivaca Old School Building (old School House) (corner Of 4th St And 4th Ave)",
      "state": "AZ",
      "latitude": 33.5756692,
      "precinct": "AZ_PIMA_008",
      "longitude": -112.0685145,
      "address_line_1": "17180 W 4TH ST",
      "address_line_2": null
    },
    {
      "zip": "85715",
      "city": "Tucson",
      "name": "Morris K Udall Recreation Center (senior Center Building)",
      "state": "AZ",
      "latitude": 32.2492884,
      "precinct": "AZ_PIMA_009",
      "longitude": -110.839047,
      "address_line_1": "7200 E TANQUE VERDE ROAD",
      "address_line_2": null
    },
    {
      "zip": "85614",
      "city": "Green Valley",
      "name": "East Social Center (auditorium)",
      "state": "AZ",
      "latitude": 31.870131,
      "precinct": "AZ_PIMA_010",
      "longitude": -110.987908,
      "address_line_1": "7 S ABREGO DRIVE",
      "address_line_2": null
    },
    {
      "zip": "85641",
      "city": "Corona de Tucson",
      "name": "American Legion Post 109 (dining Room)",
      "state": "AZ",
      "latitude": 31.9663085,
      "precinct": "AZ_PIMA_011",
      "longitude": -110.7716606,
      "address_line_1": "15921 S HOUGHTON ROAD",
      "address_line_2": null
    },
    {
      "zip": "85704",
      "city": "Oro Valley",
      "name": "Canyon Del Oro Baptist Church (chapel Hall)",
      "state": "AZ",
      "latitude": 32.3744726,
      "precinct": "AZ_PIMA_012",
      "longitude": -110.9647276,
      "address_line_1": "9200 N ORACLE ROAD",
      "address_line_2": null
    },
    {
      "zip": "85704",
      "city": "Oro Valley",
      "name": "Oro Valley Church Of The Nazarene (fellowship Hall)",
      "state": "AZ",
      "latitude": 32.3744795,
      "precinct": "AZ_PIMA_013",
      "longitude": -110.9778604,
      "address_line_1": "500 W CALLE CONCORDIA",
      "address_line_2": null
    },
    {
      "zip": "85743",
      "city": "Tucson",
      "name": "Wheeler Taft Abbett Sr. Branch Library (meeting Room)",
      "state": "AZ",
      "latitude": 32.3489307,
      "precinct": "AZ_PIMA_014",
      "longitude": -111.0951283,
      "address_line_1": "7800 N SCHISLER DRIVE",
      "address_line_2": null
    },
    {
      "zip": "85741",
      "city": "Tucson",
      "name": "Musd - Early Learning And Resource Center (library (media Center))",
      "state": "AZ",
      "latitude": 32.3458412,
      "precinct": "AZ_PIMA_015",
      "longitude": -111.056566,
      "address_line_1": "7651 N OLDFATHER ROAD",
      "address_line_2": null
    },
    {
      "zip": "85745",
      "city": "Tucson",
      "name": "Church Of The Painted Hills (sanctuary)",
      "state": "AZ",
      "latitude": 32.2356293,
      "precinct": "AZ_PIMA_016",
      "longitude": -111.0366567,
      "address_line_1": "3295 W SPEEDWAY BOULEVARD",
      "address_line_2": null
    },
    {
      "zip": "85745",
      "city": "Tucson",
      "name": "Gates Pass Community Church (fellowship Hall)",
      "state": "AZ",
      "latitude": 32.234604,
      "precinct": "AZ_PIMA_017",
      "longitude": -111.007091,
      "address_line_1": "1895 W SPEEDWAY BOULEVARD",
      "address_line_2": null
    },
    {
      "zip": "85745",
      "city": "Tucson",
      "name": "St. Margaret Mary's Church (classroom #3)",
      "state": "AZ",
      "latitude": 32.2330444,
      "precinct": "AZ_PIMA_018",
      "longitude": -110.9903413,
      "address_line_1": "801 N GRANDE AVENUE",
      "address_line_2": null
    },
    {
      "zip": "85756",
      "city": "Tucson",
      "name": "Littletown Community Center (multipurpose Room)",
      "state": "AZ",
      "latitude": 32.1350776,
      "precinct": "AZ_PIMA_019",
      "longitude": -110.8735462,
      "address_line_1": "6465 S CRAYCROFT ROAD",
      "address_line_2": null
    },
    {
      "zip": "85713",
      "city": "Tucson",
      "name": "Mission Branch Public Library (meeting Room)",
      "state": "AZ",
      "latitude": 32.1784109,
      "precinct": "AZ_PIMA_020",
      "longitude": -111.0043592,
      "address_line_1": "3770 S MISSION ROAD",
      "address_line_2": null
    },
    {
      "zip": "85713",
      "city": "Tucson",
      "name": "Tucson Estates (multipurpose Hall)",
      "state": "AZ",
      "latitude": 32.1877754,
      "precinct": "AZ_PIMA_021",
      "longitude": -111.0915636,
      "address_line_1": "5900 W WESTERN WAY CIRCLE",
      "address_line_2": null
    },
    {
      "zip": "85746",
      "city": "Tucson",
      "name": "Drexel Heights Community Center (recreation Room)",
      "state": "AZ",
      "latitude": 32.156617,
      "precinct": "AZ_PIMA_022",
      "longitude": -111.0182563,
      "address_line_1": "5220 S SAN JOAQUIN AVE",
      "address_line_2": null
    },
    {
      "zip": "85746",
      "city": "Tucson",
      "name": "Our Lady Of Fatima Parish (fellowship)",
      "state": "AZ",
      "latitude": 32.1639956,
      "precinct": "AZ_PIMA_023",
      "longitude": -111.0081032,
      "address_line_1": "1950 W IRVINGTON PLACE",
      "address_line_2": null
    },
    {
      "zip": "85739",
      "city": "Tucson",
      "name": "Catalina Community Center (recreation Room)",
      "state": "AZ",
      "latitude": 32.5069645,
      "precinct": "AZ_PIMA_024",
      "longitude": -110.9251902,
      "address_line_1": "16562 N ORACLE ROAD",
      "address_line_2": null
    },
    {
      "zip": "85714",
      "city": "Tucson",
      "name": "American Legion Sahuaro Post #68 (legion Main Ballroom)",
      "state": "AZ",
      "latitude": 32.1662972,
      "precinct": "AZ_PIMA_025",
      "longitude": -110.977907,
      "address_line_1": "4724 S 12TH AVENUE",
      "address_line_2": null
    },
    {
      "zip": "85706",
      "city": "Tucson",
      "name": "Vida Nueva Church Of God (youth Center)",
      "state": "AZ",
      "latitude": 32.1562666,
      "precinct": "AZ_PIMA_026",
      "longitude": -110.9761373,
      "address_line_1": "504 W NEBRASKA STREET",
      "address_line_2": null
    },
    {
      "zip": "85756",
      "city": "Tucson",
      "name": "New Hope United Methodist Church (sanctuary)",
      "state": "AZ",
      "latitude": 32.1295811,
      "precinct": "AZ_PIMA_028",
      "longitude": -110.9824821,
      "address_line_1": "6740 S SANTA CLARA AVENUE",
      "address_line_2": null
    },
    {
      "zip": "85704",
      "city": "Tucson",
      "name": "St. Odilia Catholic Church (parish Hall)",
      "state": "AZ",
      "latitude": 32.3433114,
      "precinct": "AZ_PIMA_029",
      "longitude": -110.9817092,
      "address_line_1": "7570 N PASEO DEL NORTE",
      "address_line_2": null
    },
    {
      "zip": "85705",
      "city": "Tucson",
      "name": "Ellie Towne Flowing Wells Community Center (multipurpose Room 2 & 3)",
      "state": "AZ",
      "latitude": 32.2880902,
      "precinct": "AZ_PIMA_031",
      "longitude": -111.001658,
      "address_line_1": "1660 W RUTHRAUFF ROAD",
      "address_line_2": null
    },
    {
      "zip": "85705",
      "city": "Tucson",
      "name": "Ellie Towne Flowing Wells Community Center (multipurpose Room 1)",
      "state": "AZ",
      "latitude": 32.2880902,
      "precinct": "AZ_PIMA_032",
      "longitude": -111.001658,
      "address_line_1": "1660 W RUTHRAUFF ROAD",
      "address_line_2": null
    },
    {
      "zip": "85745",
      "city": "Tucson",
      "name": "Tusd - Tolson Elementary School (multipurpose Room)",
      "state": "AZ",
      "latitude": 32.2099404,
      "precinct": "AZ_PIMA_033",
      "longitude": -111.0210782,
      "address_line_1": "1000 S GREASEWOOD ROAD",
      "address_line_2": null
    },
    {
      "zip": "85705",
      "city": "Tucson",
      "name": "Connection Pointe Church (fellowship Hall)",
      "state": "AZ",
      "latitude": 32.2864095,
      "precinct": "AZ_PIMA_034",
      "longitude": -111.0030552,
      "address_line_1": "4314 N ROMERO ROAD",
      "address_line_2": null
    },
    {
      "zip": "85743",
      "city": "Tucson",
      "name": "Lord Of Grace Lutheran Church (meeting Room)",
      "state": "AZ",
      "latitude": 32.3381052,
      "precinct": "AZ_PIMA_035",
      "longitude": -111.1060548,
      "address_line_1": "7250 N CORTARO ROAD",
      "address_line_2": null
    },
    {
      "zip": "85705",
      "city": "Tucson",
      "name": "Flowing Wells Assembly Of God Church (fellowship Hall)",
      "state": "AZ",
      "latitude": 32.264164,
      "precinct": "AZ_PIMA_036",
      "longitude": -110.9944396,
      "address_line_1": "3198 N FLOWING WELLS ROAD",
      "address_line_2": null
    },
    {
      "zip": "85745",
      "city": "Tucson",
      "name": "El Rio Neighborhood Center/building E (sun Room And Moon Room (bldg E))",
      "state": "AZ",
      "latitude": 32.2359765,
      "precinct": "AZ_PIMA_037",
      "longitude": -110.994556,
      "address_line_1": "1390 W SPEEDWAY BOULEVARD",
      "address_line_2": null
    },
    {
      "zip": "85719",
      "city": "Tucson",
      "name": "Woods Memorial Library (meeting Room)",
      "state": "AZ",
      "latitude": 32.2698206,
      "precinct": "AZ_PIMA_038",
      "longitude": -110.9615143,
      "address_line_1": "3455 N FIRST AVE",
      "address_line_2": null
    },
    {
      "zip": "85742",
      "city": "Tucson",
      "name": "Countryside Community Club (recreation Room)",
      "state": "AZ",
      "latitude": 32.3726642,
      "precinct": "AZ_PIMA_040",
      "longitude": -111.0697768,
      "address_line_1": "9151 N BALD EAGLE AVENUE",
      "address_line_2": null
    },
    {
      "zip": "85735",
      "city": "Tucson",
      "name": "Tucson Mountain Baptist Church (room 108)",
      "state": "AZ",
      "latitude": 32.1665713,
      "precinct": "AZ_PIMA_041",
      "longitude": -111.0867917,
      "address_line_1": "5757 W AJO HIGHWAY",
      "address_line_2": null
    },
    {
      "zip": "85705",
      "city": "Tucson",
      "name": "Donna R Liggins Neighborhood Center (multipurpose Room)",
      "state": "AZ",
      "latitude": 32.2472115,
      "precinct": "AZ_PIMA_042",
      "longitude": -110.9677081,
      "address_line_1": "2160 N 6TH AVENUE",
      "address_line_2": null
    },
    {
      "zip": "85705",
      "city": "Tucson",
      "name": "Pascua Neighborhood Center (building #1)",
      "state": "AZ",
      "latitude": 32.2486368,
      "precinct": "AZ_PIMA_043",
      "longitude": -110.9842639,
      "address_line_1": "785 W SAHUARO STREET",
      "address_line_2": null
    },
    {
      "zip": "85705",
      "city": "Tucson",
      "name": "First Southern Baptist Church (chapel Hall)",
      "state": "AZ",
      "latitude": 32.2363564,
      "precinct": "AZ_PIMA_044",
      "longitude": -110.9645879,
      "address_line_1": "445 E SPEEDWAY BLVD",
      "address_line_2": null
    },
    {
      "zip": "85701",
      "city": "Tucson",
      "name": "Armory Park Center (quiet Room)",
      "state": "AZ",
      "latitude": 32.2191918,
      "precinct": "AZ_PIMA_045",
      "longitude": -110.9673821,
      "address_line_1": "220 S 5TH AVENUE",
      "address_line_2": null
    },
    {
      "zip": "85748",
      "city": "Tucson",
      "name": "Desert Gardens Cumberland Presbyterian Church (sanctuary)",
      "state": "AZ",
      "latitude": 32.192023,
      "precinct": "AZ_PIMA_046",
      "longitude": -110.761874,
      "address_line_1": "10851 E OLD SPANISH TRAIL",
      "address_line_2": null
    },
    {
      "zip": "85706",
      "city": "Tucson",
      "name": "Quality Inn Airport (meeting Room)",
      "state": "AZ",
      "latitude": 32.1350468,
      "precinct": "AZ_PIMA_048",
      "longitude": -110.9296608,
      "address_line_1": "2803 E VALENCIA ROAD",
      "address_line_2": null
    },
    {
      "zip": "85747",
      "city": "Tucson",
      "name": "Vusd - Desert Sky Middle School (gym Foyer)",
      "state": "AZ",
      "latitude": 32.1067212,
      "precinct": "AZ_PIMA_049",
      "longitude": -110.7817939,
      "address_line_1": "9850 E RANKIN LOOP",
      "address_line_2": null
    },
    {
      "zip": "85706",
      "city": "Tucson",
      "name": "Agape Christian Fellowship (sanctuary)",
      "state": "AZ",
      "latitude": 32.1532725,
      "precinct": "AZ_PIMA_050",
      "longitude": -110.9566711,
      "address_line_1": "5450 S PARK AVENUE",
      "address_line_2": null
    },
    {
      "zip": "85706",
      "city": "Tucson",
      "name": "Holy Trinity Lutheran Church (fellowship Hall)",
      "state": "AZ",
      "latitude": 32.1441057,
      "precinct": "AZ_PIMA_051",
      "longitude": -110.9768825,
      "address_line_1": "5951 S 12TH AVENUE",
      "address_line_2": null
    },
    {
      "zip": "85706",
      "city": "Tucson",
      "name": "Valencia Branch Public Library (large Meeting Room)",
      "state": "AZ",
      "latitude": 32.1345574,
      "precinct": "AZ_PIMA_052",
      "longitude": -110.9725514,
      "address_line_1": "202 W VALENCIA ROAD",
      "address_line_2": null
    },
    {
      "zip": "85706",
      "city": "Tucson",
      "name": "Sunnyside School District Administration Office (board Room)",
      "state": "AZ",
      "latitude": 32.136805,
      "precinct": "AZ_PIMA_053",
      "longitude": -110.9379036,
      "address_line_1": "2238 E GINTER ROAD",
      "address_line_2": null
    },
    {
      "zip": "85756",
      "city": "Tucson",
      "name": "Hilton Garden Inn (santa Rita D)",
      "state": "AZ",
      "latitude": 32.1328937,
      "precinct": "AZ_PIMA_054",
      "longitude": -110.9249159,
      "address_line_1": "6575 S COUNTRY CLUB ROAD",
      "address_line_2": null
    },
    {
      "zip": "85704",
      "city": "Tucson",
      "name": "Dove Of Peace Lutheran Church (all Saints Hall)",
      "state": "AZ",
      "latitude": 32.3091485,
      "precinct": "AZ_PIMA_055",
      "longitude": -110.9802355,
      "address_line_1": "665 W ROLLER COASTER ROAD",
      "address_line_2": null
    },
    {
      "zip": "85704",
      "city": "Tucson",
      "name": "St. Odilia Catholic Church (parish Hall)",
      "state": "AZ",
      "latitude": 32.3433114,
      "precinct": "AZ_PIMA_056",
      "longitude": -110.9817092,
      "address_line_1": "7570 N PASEO DEL NORTE",
      "address_line_2": null
    },
    {
      "zip": "85719",
      "city": "Tucson",
      "name": "Monte Vista Christian Union Church (fellowship Hall)",
      "state": "AZ",
      "latitude": 32.2791343,
      "precinct": "AZ_PIMA_057",
      "longitude": -110.9541563,
      "address_line_1": "1140 E ROGER ROAD",
      "address_line_2": null
    },
    {
      "zip": "85719",
      "city": "Tucson",
      "name": "St. Demetrios Greek Orthodox Church (hellenic Center)",
      "state": "AZ",
      "latitude": 32.2654401,
      "precinct": "AZ_PIMA_058",
      "longitude": -110.9541566,
      "address_line_1": "1145 E FORT LOWELL ROAD",
      "address_line_2": null
    },
    {
      "zip": "85746",
      "city": "Tucson",
      "name": "Desert Dove Christian Church (worship Building)",
      "state": "AZ",
      "latitude": 32.139377,
      "precinct": "AZ_PIMA_059",
      "longitude": -110.99782,
      "address_line_1": "6163 S MIDVALE PARK ROAD",
      "address_line_2": null
    },
    {
      "zip": "85718",
      "city": "Tucson",
      "name": "Lutheran Church Of The Foothills (activities Room)",
      "state": "AZ",
      "latitude": 32.2990536,
      "precinct": "AZ_PIMA_061",
      "longitude": -110.8748547,
      "address_line_1": "5102 N CRAYCROFT ROAD",
      "address_line_2": null
    },
    {
      "zip": "85719",
      "city": "Tucson",
      "name": "First United Methodist Church (arizona Room)",
      "state": "AZ",
      "latitude": 32.230719,
      "precinct": "AZ_PIMA_062",
      "longitude": -110.9572765,
      "address_line_1": "915 E 4TH STREET",
      "address_line_2": null
    },
    {
      "zip": "85716",
      "city": "Tucson",
      "name": "Temple Emanu-el (sy Juster Social Hall)",
      "state": "AZ",
      "latitude": 32.2237617,
      "precinct": "AZ_PIMA_063",
      "longitude": -110.927162,
      "address_line_1": "225 N COUNTRY CLUB ROAD",
      "address_line_2": null
    },
    {
      "zip": "85748",
      "city": "Tucson",
      "name": "Desert Gardens Cumberland Presbyterian Church (sanctuary)",
      "state": "AZ",
      "latitude": 32.192023,
      "precinct": "AZ_PIMA_065",
      "longitude": -110.761874,
      "address_line_1": "10851 E OLD SPANISH TRAIL",
      "address_line_2": null
    },
    {
      "zip": "85713",
      "city": "Tucson",
      "name": "Gideon Missionary Baptist Church (fellowship Hall)",
      "state": "AZ",
      "latitude": 32.187191,
      "precinct": "AZ_PIMA_066",
      "longitude": -110.943004,
      "address_line_1": "3085 S CAMPBELL AVENUE",
      "address_line_2": null
    },
    {
      "zip": "85716",
      "city": "Tucson",
      "name": "St. Frances Cabrini Church (hall)",
      "state": "AZ",
      "latitude": 32.2634578,
      "precinct": "AZ_PIMA_067",
      "longitude": -110.924352,
      "address_line_1": "3201 E PRESIDIO ROAD",
      "address_line_2": null
    },
    {
      "zip": "85719",
      "city": "Tucson",
      "name": "St. James United Methodist Church (the Tatom Room)",
      "state": "AZ",
      "latitude": 32.2664341,
      "precinct": "AZ_PIMA_068",
      "longitude": -110.9443767,
      "address_line_1": "3255 N CAMPBELL AVENUE",
      "address_line_2": null
    },
    {
      "zip": "85743",
      "city": "Tucson",
      "name": "Picture Rocks Community Center (multipurpose Room)",
      "state": "AZ",
      "latitude": 32.3096435,
      "precinct": "AZ_PIMA_070",
      "longitude": -111.2360432,
      "address_line_1": "5615 N SANDERS ROAD",
      "address_line_2": null
    },
    {
      "zip": "85716",
      "city": "Tucson",
      "name": "St. Frances Cabrini Church (hall)",
      "state": "AZ",
      "latitude": 32.2634578,
      "precinct": "AZ_PIMA_072",
      "longitude": -110.924352,
      "address_line_1": "3201 E PRESIDIO ROAD",
      "address_line_2": null
    },
    {
      "zip": "85705",
      "city": "Tucson",
      "name": "Donna R Liggins Neighborhood Center (multipurpose Room 1-2-3)",
      "state": "AZ",
      "latitude": 32.2472115,
      "precinct": "AZ_PIMA_073",
      "longitude": -110.9677081,
      "address_line_1": "2160 N 6TH AVENUE",
      "address_line_2": null
    },
    {
      "zip": "85622",
      "city": "Green Valley",
      "name": "Desert Hills Social Center (room A)",
      "state": "AZ",
      "latitude": 31.8286083,
      "precinct": "AZ_PIMA_074",
      "longitude": -111.0141857,
      "address_line_1": "2980 S CAMINO DEL SOL",
      "address_line_2": null
    },
    {
      "zip": "85712",
      "city": "Tucson",
      "name": "Emmanuel Baptist Church (preschool C)",
      "state": "AZ",
      "latitude": 32.2448487,
      "precinct": "AZ_PIMA_075",
      "longitude": -110.9101253,
      "address_line_1": "1825 N ALVERNON WAY",
      "address_line_2": null
    },
    {
      "zip": "85742",
      "city": "Tucson",
      "name": "Ausd - Richard B. Wilson K-8 School (library)",
      "state": "AZ",
      "latitude": 32.417139,
      "precinct": "AZ_PIMA_077",
      "longitude": -111.019421,
      "address_line_1": "2330 W GLOVER RD",
      "address_line_2": null
    },
    {
      "zip": "85716",
      "city": "Tucson",
      "name": "Himmel Park Branch Library (meeting Room)",
      "state": "AZ",
      "latitude": 32.2345996,
      "precinct": "AZ_PIMA_078",
      "longitude": -110.9316167,
      "address_line_1": "1035 N TREAT AVENUE",
      "address_line_2": null
    },
    {
      "zip": "85742",
      "city": "Tucson",
      "name": "Desert Springs Baptist Church (multipurpose Room)",
      "state": "AZ",
      "latitude": 32.3959712,
      "precinct": "AZ_PIMA_079",
      "longitude": -111.0475776,
      "address_line_1": "10425 N THORNYDALE ROAD",
      "address_line_2": null
    },
    {
      "zip": "85741",
      "city": "Tucson",
      "name": "Beautiful Savior Lutheran Church (fellowship Hall)",
      "state": "AZ",
      "latitude": 32.3442853,
      "precinct": "AZ_PIMA_081",
      "longitude": -111.0462787,
      "address_line_1": "7570 N THORNYDALE ROAD",
      "address_line_2": null
    },
    {
      "zip": "85716",
      "city": "Tucson",
      "name": "Sabbar Shrine Temple (large Banquet Room)",
      "state": "AZ",
      "latitude": 32.2164962,
      "precinct": "AZ_PIMA_082",
      "longitude": -110.9356682,
      "address_line_1": "450 S TUCSON BOULEVARD",
      "address_line_2": null
    },
    {
      "zip": "85614",
      "city": "Green Valley",
      "name": "East Social Center (auditorium)",
      "state": "AZ",
      "latitude": 31.870131,
      "precinct": "AZ_PIMA_084",
      "longitude": -110.987908,
      "address_line_1": "7 S ABREGO DRIVE",
      "address_line_2": null
    },
    {
      "zip": "85704",
      "city": "Tucson",
      "name": "Dove Of Peace Lutheran Church (library)",
      "state": "AZ",
      "latitude": 32.3091485,
      "precinct": "AZ_PIMA_085",
      "longitude": -110.9802355,
      "address_line_1": "665 W ROLLER COASTER ROAD",
      "address_line_2": null
    },
    {
      "zip": "85713",
      "city": "Tucson",
      "name": "Passion Church (fellowship Hall)",
      "state": "AZ",
      "latitude": 32.2064852,
      "precinct": "AZ_PIMA_086",
      "longitude": -110.9178323,
      "address_line_1": "1212 S PALO VERDE AVENUE",
      "address_line_2": null
    },
    {
      "zip": "85719",
      "city": "Tucson",
      "name": "Ausd - Rio Vista Elementary School (gym)",
      "state": "AZ",
      "latitude": 32.2834777,
      "precinct": "AZ_PIMA_087",
      "longitude": -110.951432,
      "address_line_1": "1351 E LIMBERLOST DRIVE",
      "address_line_2": null
    },
    {
      "zip": "85718",
      "city": "Tucson",
      "name": "St. Thomas The Apostle Catholic Church (o'leary Hall)",
      "state": "AZ",
      "latitude": 32.3003056,
      "precinct": "AZ_PIMA_088",
      "longitude": -110.897482,
      "address_line_1": "5150 N VALLEY VIEW ROAD",
      "address_line_2": null
    },
    {
      "zip": "85712",
      "city": "Tucson",
      "name": "Tusd - Davidson Elementary School (library)",
      "state": "AZ",
      "latitude": 32.2697594,
      "precinct": "AZ_PIMA_089",
      "longitude": -110.9081927,
      "address_line_1": "3950 E PARADISE FALLS DR",
      "address_line_2": null
    },
    {
      "zip": "85747",
      "city": "Tucson",
      "name": "Vusd - Cottonwood Elementary School (library)",
      "state": "AZ",
      "latitude": 32.0943428,
      "precinct": "AZ_PIMA_090",
      "longitude": -110.7793437,
      "address_line_1": "9950 E REES LOOP",
      "address_line_2": null
    },
    {
      "zip": "85712",
      "city": "Tucson",
      "name": "Living Faith Christian Center (fellowship Hall)",
      "state": "AZ",
      "latitude": 32.249175,
      "precinct": "AZ_PIMA_091",
      "longitude": -110.9055383,
      "address_line_1": "4108 E NORTH STREET",
      "address_line_2": null
    },
    {
      "zip": "85712",
      "city": "Tucson",
      "name": "Martha Cooper Library (meeting Room)",
      "state": "AZ",
      "latitude": 32.2392678,
      "precinct": "AZ_PIMA_093",
      "longitude": -110.8994763,
      "address_line_1": "1377 N CATALINA AVENUE",
      "address_line_2": null
    },
    {
      "zip": "85711",
      "city": "Tucson",
      "name": "First Brethren Church Of Tucson (fellowship Hall)",
      "state": "AZ",
      "latitude": 32.2248963,
      "precinct": "AZ_PIMA_094",
      "longitude": -110.9014403,
      "address_line_1": "201 N COLUMBUS BOULEVARD",
      "address_line_2": null
    },
    {
      "zip": "85747",
      "city": "Tucson",
      "name": "Vusd - Mesquite Elementary School (library)",
      "state": "AZ",
      "latitude": 32.1160053,
      "precinct": "AZ_PIMA_095",
      "longitude": -110.7908451,
      "address_line_1": "9455 E RITA ROAD",
      "address_line_2": null
    },
    {
      "zip": "85711",
      "city": "Tucson",
      "name": "Central Church Of The Nazarene (fellowship Hall)",
      "state": "AZ",
      "latitude": 32.2157478,
      "precinct": "AZ_PIMA_096",
      "longitude": -110.9014403,
      "address_line_1": "404 S COLUMBUS BOULEVARD",
      "address_line_2": null
    },
    {
      "zip": "85745",
      "city": "Tucson",
      "name": "Most Holy Trinity Parish (guadalupe Hall)",
      "state": "AZ",
      "latitude": 32.2378162,
      "precinct": "AZ_PIMA_097",
      "longitude": -111.0197277,
      "address_line_1": "1300 N GREASEWOOD ROAD",
      "address_line_2": null
    },
    {
      "zip": "85711",
      "city": "Tucson",
      "name": "Eckstrom-columbus Library (meeting Room)",
      "state": "AZ",
      "latitude": 32.2065369,
      "precinct": "AZ_PIMA_098",
      "longitude": -110.9003226,
      "address_line_1": "4350 E 22ND STREET",
      "address_line_2": null
    },
    {
      "zip": "85712",
      "city": "Tucson",
      "name": "New Testament Baptist Church (fellowship Hall)",
      "state": "AZ",
      "latitude": 32.2588865,
      "precinct": "AZ_PIMA_099",
      "longitude": -110.8762005,
      "address_line_1": "2855 N CRAYCROFT ROAD",
      "address_line_2": null
    },
    {
      "zip": "85712",
      "city": "Tucson",
      "name": "Streams In The Desert Lutheran Church (fellowship Hall)",
      "state": "AZ",
      "latitude": 32.2430131,
      "precinct": "AZ_PIMA_100",
      "longitude": -110.8780693,
      "address_line_1": "5360 E PIMA STREET",
      "address_line_2": null
    },
    {
      "zip": "85713",
      "city": "Tucson",
      "name": "Tucson Estates (multipurpose Hall)",
      "state": "AZ",
      "latitude": 32.1877754,
      "precinct": "AZ_PIMA_101",
      "longitude": -111.0915636,
      "address_line_1": "5900 W WESTERN WAY CIRCLE",
      "address_line_2": null
    },
    {
      "zip": "85746",
      "city": "Tucson",
      "name": "Tusd - Maldonado Elementary School (library)",
      "state": "AZ",
      "latitude": 32.1162014,
      "precinct": "AZ_PIMA_102",
      "longitude": -111.0419424,
      "address_line_1": "3535 W MESSALA WAY",
      "address_line_2": null
    },
    {
      "zip": "85711",
      "city": "Tucson",
      "name": "Christ Church United Methodist (social Hall)",
      "state": "AZ",
      "latitude": 32.2302972,
      "precinct": "AZ_PIMA_103",
      "longitude": -110.8767128,
      "address_line_1": "655 N CRAYCROFT ROAD",
      "address_line_2": null
    },
    {
      "zip": "85743",
      "city": "Tucson",
      "name": "Redeemer Evangelical Lutheran Church & School (ministry Center)",
      "state": "AZ",
      "latitude": 32.3671097,
      "precinct": "AZ_PIMA_104",
      "longitude": -111.1328529,
      "address_line_1": "8845 N SILVERBELL ROAD",
      "address_line_2": null
    },
    {
      "zip": "85711",
      "city": "Tucson",
      "name": "Tusd - Myers-ganoung Elementary School (multipurpose Hall)",
      "state": "AZ",
      "latitude": 32.2023173,
      "precinct": "AZ_PIMA_105",
      "longitude": -110.8847224,
      "address_line_1": "5000 E ANDREW STREET",
      "address_line_2": null
    },
    {
      "zip": "85715",
      "city": "Tucson",
      "name": "Comfort Suites Hotel (conference Room)",
      "state": "AZ",
      "latitude": 32.251776,
      "precinct": "AZ_PIMA_106",
      "longitude": -110.843256,
      "address_line_1": "7007 E TANQUE VERDE ROAD",
      "address_line_2": null
    },
    {
      "zip": "85712",
      "city": "Tucson",
      "name": "Tucson Arizona Boys Chorus (east Rehearsal Room)",
      "state": "AZ",
      "latitude": 32.2430488,
      "precinct": "AZ_PIMA_107",
      "longitude": -110.8693086,
      "address_line_1": "5770 E PIMA STREET",
      "address_line_2": null
    },
    {
      "zip": "85712",
      "city": "Tucson",
      "name": "Valley Christian Church (sanctuary)",
      "state": "AZ",
      "latitude": 32.2394337,
      "precinct": "AZ_PIMA_108",
      "longitude": -110.8652107,
      "address_line_1": "5968 E FAIRMOUNT STREET",
      "address_line_2": null
    },
    {
      "zip": "85641",
      "city": "Vail",
      "name": "Vusd - Cienega High School (library)",
      "state": "AZ",
      "latitude": 32.0574081,
      "precinct": "AZ_PIMA_109",
      "longitude": -110.7219516,
      "address_line_1": "12775 E MARY ANN CLEVELAND WAY",
      "address_line_2": null
    },
    {
      "zip": "85711",
      "city": "Tucson",
      "name": "St. Joseph's Roman Catholic Church (building #2- St. Francis Room)",
      "state": "AZ",
      "latitude": 32.2194307,
      "precinct": "AZ_PIMA_111",
      "longitude": -110.8743844,
      "address_line_1": "215 S CRAYCROFT ROAD",
      "address_line_2": null
    },
    {
      "zip": "85750",
      "city": "Tucson",
      "name": "St.alban's Episcopal Church (parish Hall)",
      "state": "AZ",
      "latitude": 32.2754314,
      "precinct": "AZ_PIMA_112",
      "longitude": -110.8381089,
      "address_line_1": "3738 N. OLD SABINO CANYON RD",
      "address_line_2": null
    },
    {
      "zip": "85711",
      "city": "Tucson",
      "name": "Eastside Assembly Of God Church (activity Center)",
      "state": "AZ",
      "latitude": 32.1993419,
      "precinct": "AZ_PIMA_113",
      "longitude": -110.8584119,
      "address_line_1": "1930 S WILMOT ROAD",
      "address_line_2": null
    },
    {
      "zip": "85711",
      "city": "Tucson",
      "name": "Unitarian Universalist Church (goddard Hall)",
      "state": "AZ",
      "latitude": 32.2079367,
      "precinct": "AZ_PIMA_114",
      "longitude": -110.8892395,
      "address_line_1": "4831 E 22ND STREET",
      "address_line_2": null
    },
    {
      "zip": "85743",
      "city": "Tucson",
      "name": "Continental Ranch Community Center (community Center)",
      "state": "AZ",
      "latitude": 32.3674975,
      "precinct": "AZ_PIMA_115",
      "longitude": -111.1226533,
      "address_line_1": "8881 N COACHLINE BOULEVARD",
      "address_line_2": null
    },
    {
      "zip": "85710",
      "city": "Tucson",
      "name": "St. Paul's United Methodist Church (brummett Hall)",
      "state": "AZ",
      "latitude": 32.2221374,
      "precinct": "AZ_PIMA_116",
      "longitude": -110.8206467,
      "address_line_1": "8051 E BROADWAY BOULEVARD",
      "address_line_2": null
    },
    {
      "zip": "85710",
      "city": "Tucson",
      "name": "Fellowship Bible Church (youth Building)",
      "state": "AZ",
      "latitude": 32.2201606,
      "precinct": "AZ_PIMA_117",
      "longitude": -110.8491917,
      "address_line_1": "6700 E BROADWAY BOULEVARD",
      "address_line_2": null
    },
    {
      "zip": "85715",
      "city": "Tucson",
      "name": "Morris K Udall Recreation Center (senior Center Building)",
      "state": "AZ",
      "latitude": 32.2492884,
      "precinct": "AZ_PIMA_118",
      "longitude": -110.839047,
      "address_line_1": "7200 E TANQUE VERDE ROAD",
      "address_line_2": null
    },
    {
      "zip": "85710",
      "city": "Tucson",
      "name": "Fountain Of Life Lutheran Church (fellowship Hall - Room 10)",
      "state": "AZ",
      "latitude": 32.2123283,
      "precinct": "AZ_PIMA_119",
      "longitude": -110.8422533,
      "address_line_1": "710 S KOLB ROAD",
      "address_line_2": null
    },
    {
      "zip": "85710",
      "city": "Tucson",
      "name": "Abounding Grace Lutheran Church (fellowship Hall)",
      "state": "AZ",
      "latitude": 32.1942891,
      "precinct": "AZ_PIMA_120",
      "longitude": -110.8416945,
      "address_line_1": "2450 S KOLB ROAD",
      "address_line_2": null
    },
    {
      "zip": "85715",
      "city": "Tucson",
      "name": "Sunrise Chapel (friendship Hall)",
      "state": "AZ",
      "latitude": 32.2494406,
      "precinct": "AZ_PIMA_121",
      "longitude": -110.8128703,
      "address_line_1": "8421 E WRIGHTSTOWN ROAD",
      "address_line_2": null
    },
    {
      "zip": "85710",
      "city": "Tucson",
      "name": "Tucson Reformed Baptist Church (main Auditorium)",
      "state": "AZ",
      "latitude": 32.2024273,
      "precinct": "AZ_PIMA_122",
      "longitude": -110.8256293,
      "address_line_1": "1603 S. EASTSIDE LOOP #209",
      "address_line_2": null
    },
    {
      "zip": "85730",
      "city": "Tucson",
      "name": "Eastgate Ministries Tucson (meeting Room)",
      "state": "AZ",
      "latitude": 32.1711719,
      "precinct": "AZ_PIMA_123",
      "longitude": -110.8308808,
      "address_line_1": "7555 E DOGWOOD STREET",
      "address_line_2": null
    },
    {
      "zip": "85730",
      "city": "Tucson",
      "name": "Ambassador Event Center (hall)",
      "state": "AZ",
      "latitude": 32.181661,
      "precinct": "AZ_PIMA_124",
      "longitude": -110.8565027,
      "address_line_1": "3455 S WILMOT RD",
      "address_line_2": null
    },
    {
      "zip": "85715",
      "city": "Tucson",
      "name": "Sabino Road Baptist Church (fellowship Building)",
      "state": "AZ",
      "latitude": 32.2568583,
      "precinct": "AZ_PIMA_125",
      "longitude": -110.8407166,
      "address_line_1": "2710 N SABINO CANYON ROAD",
      "address_line_2": null
    },
    {
      "zip": "85749",
      "city": "Tucson",
      "name": "Tanque Verde Lutheran Church (linder Hall/multipurpose Room)",
      "state": "AZ",
      "latitude": 32.2590058,
      "precinct": "AZ_PIMA_126",
      "longitude": -110.8072359,
      "address_line_1": "8625 E TANQUE VERDE ROAD",
      "address_line_2": null
    },
    {
      "zip": "85742",
      "city": "Tucson",
      "name": "Ausd - Richard B. Wilson K-8 School (library)",
      "state": "AZ",
      "latitude": 32.417139,
      "precinct": "AZ_PIMA_127",
      "longitude": -111.019421,
      "address_line_1": "2330 W GLOVER RD",
      "address_line_2": null
    },
    {
      "zip": "85710",
      "city": "Tucson",
      "name": "East Tucson Baptist Church (fellowship Hall)",
      "state": "AZ",
      "latitude": 32.2350475,
      "precinct": "AZ_PIMA_128",
      "longitude": -110.7977367,
      "address_line_1": "9100 E SPEEDWAY BOULEVARD",
      "address_line_2": null
    },
    {
      "zip": "85710",
      "city": "Tucson",
      "name": "Pantano Baptist Church (fellowship Hall)",
      "state": "AZ",
      "latitude": 32.2181839,
      "precinct": "AZ_PIMA_129",
      "longitude": -110.8231588,
      "address_line_1": "225 S PANTANO ROAD",
      "address_line_2": null
    },
    {
      "zip": "85710",
      "city": "Tucson",
      "name": "New Spirit Lutheran Church (fellowship Hall)",
      "state": "AZ",
      "latitude": 32.2164699,
      "precinct": "AZ_PIMA_130",
      "longitude": -110.805513,
      "address_line_1": "8701 E OLD SPANISH TRAIL",
      "address_line_2": null
    },
    {
      "zip": "85748",
      "city": "Tucson",
      "name": "Mount Olive Lutheran Church (fellowship Hall)",
      "state": "AZ",
      "latitude": 32.197677,
      "precinct": "AZ_PIMA_131",
      "longitude": -110.7717072,
      "address_line_1": "2005 S HOUGHTON ROAD",
      "address_line_2": null
    },
    {
      "zip": "85730",
      "city": "Tucson",
      "name": "Miller - Golf Links Library (meeting Room)",
      "state": "AZ",
      "latitude": 32.1907833,
      "precinct": "AZ_PIMA_132",
      "longitude": -110.7862352,
      "address_line_1": "9640 E GOLF LINKS ROAD",
      "address_line_2": null
    },
    {
      "zip": "85730",
      "city": "Tucson",
      "name": "Clements Regional Center (multipurpose Room)",
      "state": "AZ",
      "latitude": 32.1684794,
      "precinct": "AZ_PIMA_133",
      "longitude": -110.8184582,
      "address_line_1": "8155 E POINCIANA DRIVE",
      "address_line_2": null
    },
    {
      "zip": "85741",
      "city": "Tucson",
      "name": "Beautiful Savior Lutheran Church (fellowship Hall)",
      "state": "AZ",
      "latitude": 32.3442853,
      "precinct": "AZ_PIMA_134",
      "longitude": -111.0462787,
      "address_line_1": "7570 N THORNYDALE ROAD",
      "address_line_2": null
    },
    {
      "zip": "85645",
      "city": "Amado",
      "name": "Susd - Sopori Elementary School (gymnasium)",
      "state": "AZ",
      "latitude": 31.730105,
      "precinct": "AZ_PIMA_139",
      "longitude": -111.071207,
      "address_line_1": "5000 W ARIVACA ROAD",
      "address_line_2": null
    },
    {
      "zip": "85629",
      "city": "Sahuarita",
      "name": "Sahuarita Baptist Church (classroom)",
      "state": "AZ",
      "latitude": 31.958737,
      "precinct": "AZ_PIMA_140",
      "longitude": -110.930275,
      "address_line_1": "2875 E SAHUARITA ROAD",
      "address_line_2": null
    },
    {
      "zip": "85614",
      "city": "Green Valley",
      "name": "Casa Paloma I Recreation Center (recreation Room)",
      "state": "AZ",
      "latitude": 31.8737123,
      "precinct": "AZ_PIMA_141",
      "longitude": -110.9970272,
      "address_line_1": "400 W CIRCULO DEL PALADIN",
      "address_line_2": null
    },
    {
      "zip": "85742",
      "city": "Tucson",
      "name": "Foothills Community Church (fellowship Center)",
      "state": "AZ",
      "latitude": 32.3731362,
      "precinct": "AZ_PIMA_142",
      "longitude": -111.0391481,
      "address_line_1": "3301 W OVERTON ROAD",
      "address_line_2": null
    },
    {
      "zip": "85741",
      "city": "Tucson",
      "name": "Nanini Branch Public Library (large Meeting Room)",
      "state": "AZ",
      "latitude": 32.3398223,
      "precinct": "AZ_PIMA_146",
      "longitude": -111.0282037,
      "address_line_1": "7300 N SHANNON ROAD",
      "address_line_2": null
    },
    {
      "zip": "85741",
      "city": "Tucson",
      "name": "Orange Grove Mobile Estates (clubhouse)",
      "state": "AZ",
      "latitude": 32.3217492,
      "precinct": "AZ_PIMA_150",
      "longitude": -111.0422917,
      "address_line_1": "3635 W MANGO DRIVE",
      "address_line_2": null
    },
    {
      "zip": "85745",
      "city": "Tucson",
      "name": "Church Of The Painted Hills (sanctuary)",
      "state": "AZ",
      "latitude": 32.2356293,
      "precinct": "AZ_PIMA_151",
      "longitude": -111.0366567,
      "address_line_1": "3295 W SPEEDWAY BOULEVARD",
      "address_line_2": null
    },
    {
      "zip": "85746",
      "city": "Tucson",
      "name": "Santa Cruz Lutheran Church (fellowship Hall)",
      "state": "AZ",
      "latitude": 32.1283481,
      "precinct": "AZ_PIMA_152",
      "longitude": -111.0279475,
      "address_line_1": "6809 S CARDINAL AVENUE",
      "address_line_2": null
    },
    {
      "zip": "85745",
      "city": "Tucson",
      "name": "Faith Christian Fellowship (foyer)",
      "state": "AZ",
      "latitude": 32.2500721,
      "precinct": "AZ_PIMA_153",
      "longitude": -111.0339786,
      "address_line_1": "3141 W IRONWOOD HILLS DRIVE",
      "address_line_2": null
    },
    {
      "zip": "85705",
      "city": "Tucson",
      "name": "Sacred Heart Catholic Church (immaculata Hall)",
      "state": "AZ",
      "latitude": 32.2652618,
      "precinct": "AZ_PIMA_154",
      "longitude": -110.9629114,
      "address_line_1": "601 E FORT LOWELL ROAD",
      "address_line_2": null
    },
    {
      "zip": "85756",
      "city": "Tucson",
      "name": "Susd-summit View Elementary School (cafeteria)",
      "state": "AZ",
      "latitude": 32.0665992,
      "precinct": "AZ_PIMA_155",
      "longitude": -110.9443301,
      "address_line_1": "1900 E. SUMMIT STREET",
      "address_line_2": null
    },
    {
      "zip": "85710",
      "city": "Tucson",
      "name": "Faith Community Church East (fellowship Hall)",
      "state": "AZ",
      "latitude": 32.1925291,
      "precinct": "AZ_PIMA_156",
      "longitude": -110.8129169,
      "address_line_1": "8455 E GOLFLINKS ROAD",
      "address_line_2": null
    },
    {
      "zip": "85746",
      "city": "Tucson",
      "name": "Drexel Heights Community Center (recreation Room)",
      "state": "AZ",
      "latitude": 32.156617,
      "precinct": "AZ_PIMA_157",
      "longitude": -111.0182563,
      "address_line_1": "5220 S SAN JOAQUIN AVE",
      "address_line_2": null
    },
    {
      "zip": "85718",
      "city": "Tucson",
      "name": "Embassy Suites Tucson-paloma Village (la Paloma)",
      "state": "AZ",
      "latitude": 32.3216815,
      "precinct": "AZ_PIMA_158",
      "longitude": -110.9268667,
      "address_line_1": "3110 E SKYLINE DRIVE",
      "address_line_2": null
    },
    {
      "zip": "85706",
      "city": "Tucson",
      "name": "Calvary Evangelistic Center (educational Building)",
      "state": "AZ",
      "latitude": 32.1583332,
      "precinct": "AZ_PIMA_159",
      "longitude": -110.9310113,
      "address_line_1": "5160 S TREAT AVENUE",
      "address_line_2": null
    },
    {
      "zip": "85714",
      "city": "Tucson",
      "name": "El Pueblo Senior Center (senior Center Building - Multipurposeroom)",
      "state": "AZ",
      "latitude": 32.1628314,
      "precinct": "AZ_PIMA_160",
      "longitude": -110.9695244,
      "address_line_1": "101 W IRVINGTON ROAD",
      "address_line_2": null
    },
    {
      "zip": "85743",
      "city": "Tucson",
      "name": "Lord Of Grace Lutheran Church (meeting Room)",
      "state": "AZ",
      "latitude": 32.3381052,
      "precinct": "AZ_PIMA_161",
      "longitude": -111.1060548,
      "address_line_1": "7250 N CORTARO ROAD",
      "address_line_2": null
    },
    {
      "zip": "85704",
      "city": "Tucson",
      "name": "St. Andrew's Presbyterian Church (narthex)",
      "state": "AZ",
      "latitude": 32.3438422,
      "precinct": "AZ_PIMA_162",
      "longitude": -110.9833557,
      "address_line_1": "7575 N PASEO DEL NORTE",
      "address_line_2": null
    },
    {
      "zip": "85750",
      "city": "Tucson",
      "name": "St.alban's Episcopal Church (parish Hall)",
      "state": "AZ",
      "latitude": 32.2754314,
      "precinct": "AZ_PIMA_163",
      "longitude": -110.8381089,
      "address_line_1": "3738 N. OLD SABINO CANYON RD",
      "address_line_2": null
    },
    {
      "zip": "85719",
      "city": "Tucson",
      "name": "Silverbell Baptist Church (fellowship Hall)",
      "state": "AZ",
      "latitude": 32.267881,
      "precinct": "AZ_PIMA_164",
      "longitude": -110.9433522,
      "address_line_1": "3344 N CAMPBELL AVENUE",
      "address_line_2": null
    },
    {
      "zip": "85614",
      "city": "Green Valley",
      "name": "Rosemont Ranch Thurber Division (voting Room) (2 Miles West - Hwy 83)",
      "state": "AZ",
      "latitude": 31.7770286,
      "precinct": "AZ_PIMA_165",
      "longitude": -110.7505051,
      "address_line_1": "11300 E. GREATERVILLE ROAD",
      "address_line_2": null
    },
    {
      "zip": "85705",
      "city": "Tucson",
      "name": "Donna R Liggins Neighborhood Center (multipurpose Room)",
      "state": "AZ",
      "latitude": 32.2472115,
      "precinct": "AZ_PIMA_166",
      "longitude": -110.9677081,
      "address_line_1": "2160 N 6TH AVENUE",
      "address_line_2": null
    },
    {
      "zip": "85716",
      "city": "Tucson",
      "name": "Tusd - Doolen Middle School (library)",
      "state": "AZ",
      "latitude": 32.2514978,
      "precinct": "AZ_PIMA_167",
      "longitude": -110.9257025,
      "address_line_1": "2400 N COUNTRY CLUB ROAD",
      "address_line_2": null
    },
    {
      "zip": "85629",
      "city": "Sahuarita",
      "name": "Rancho Resort Community (ballroom)",
      "state": "AZ",
      "latitude": 31.9614878,
      "precinct": "AZ_PIMA_168",
      "longitude": -110.9931501,
      "address_line_1": "15900 S RANCHO RESORT BOULEVARD",
      "address_line_2": null
    },
    {
      "zip": "85755",
      "city": "Oro Valley",
      "name": "The Church Of Jesus Christ Of Latter Day Saints (cultural Hall)",
      "state": "AZ",
      "latitude": 32.4304512,
      "precinct": "AZ_PIMA_169",
      "longitude": -110.9702695,
      "address_line_1": "55 W ARROWSMITH DRIVE",
      "address_line_2": null
    },
    {
      "zip": "85718",
      "city": "Tucson",
      "name": "Tucson Jewish Community Center (jhc)",
      "state": "AZ",
      "latitude": 32.2738624,
      "precinct": "AZ_PIMA_170",
      "longitude": -110.9123838,
      "address_line_1": "3800 E. RIVER RD.",
      "address_line_2": null
    },
    {
      "zip": "85715",
      "city": "Tucson",
      "name": "Sabino Road Baptist Church (fellowship Building)",
      "state": "AZ",
      "latitude": 32.2568583,
      "precinct": "AZ_PIMA_171",
      "longitude": -110.8407166,
      "address_line_1": "2710 N SABINO CANYON ROAD",
      "address_line_2": null
    },
    {
      "zip": "85755",
      "city": "Oro Valley",
      "name": "Ausd - Painted Sky Elementary School (music Room)",
      "state": "AZ",
      "latitude": 32.435504,
      "precinct": "AZ_PIMA_172",
      "longitude": -110.97015,
      "address_line_1": "12620 N WOODBURNE AVENUE",
      "address_line_2": null
    },
    {
      "zip": "85737",
      "city": "Tucson",
      "name": "Oro Valley Public Library (conference Meeting Room)",
      "state": "AZ",
      "latitude": 32.4089028,
      "precinct": "AZ_PIMA_173",
      "longitude": -110.9943464,
      "address_line_1": "1305 W NARANJA DRIVE",
      "address_line_2": null
    },
    {
      "zip": "85710",
      "city": "Tucson",
      "name": "El Camino Baptist Church (d Building)",
      "state": "AZ",
      "latitude": 32.2367308,
      "precinct": "AZ_PIMA_174",
      "longitude": -110.8267238,
      "address_line_1": "7777 E SPEEDWAY BOULEVARD",
      "address_line_2": null
    },
    {
      "zip": "85653",
      "city": "Marana",
      "name": "Avra Valley Fire District (classroom)",
      "state": "AZ",
      "latitude": 32.4443913,
      "precinct": "AZ_PIMA_175",
      "longitude": -111.3027141,
      "address_line_1": "15790 W SILVERBELL ROAD",
      "address_line_2": null
    },
    {
      "zip": "85747",
      "city": "Tucson",
      "name": "Vusd - Desert Willow Elementary School (library)",
      "state": "AZ",
      "latitude": 32.1039376,
      "precinct": "AZ_PIMA_176",
      "longitude": -110.7919626,
      "address_line_1": "9400 E ESMOND LOOP",
      "address_line_2": null
    },
    {
      "zip": "85709",
      "city": "Tucson",
      "name": "Pima Community College - East Campus (community Room L #101)",
      "state": "AZ",
      "latitude": 32.1653428,
      "precinct": "AZ_PIMA_177",
      "longitude": -110.8170975,
      "address_line_1": "8181 E IRVINGTON ROAD",
      "address_line_2": null
    },
    {
      "zip": "85749",
      "city": "Tucson",
      "name": "Kirk-bear Canyon Library (meeting Room)",
      "state": "AZ",
      "latitude": 32.2593686,
      "precinct": "AZ_PIMA_178",
      "longitude": -110.8014153,
      "address_line_1": "8959 E TANQUE VERDE ROAD",
      "address_line_2": null
    },
    {
      "zip": "85749",
      "city": "Tucson",
      "name": "Tanque Verde Unified School District (governing Board Room - Bldg 1)",
      "state": "AZ",
      "latitude": 32.2494356,
      "precinct": "AZ_PIMA_179",
      "longitude": -110.7552703,
      "address_line_1": "2300 N TANQUE VERDE LOOP",
      "address_line_2": null
    },
    {
      "zip": "85748",
      "city": "Tucson",
      "name": "The Church Of Jesus Christ Of Latter Day Saints (cultural Hall)",
      "state": "AZ",
      "latitude": 32.2300406,
      "precinct": "AZ_PIMA_180",
      "longitude": -110.7799565,
      "address_line_1": "700 N BONANZA AVENUE",
      "address_line_2": null
    },
    {
      "zip": "85748",
      "city": "Tucson",
      "name": "Mount Olive Lutheran Church (fellowship Hall)",
      "state": "AZ",
      "latitude": 32.197677,
      "precinct": "AZ_PIMA_181",
      "longitude": -110.7717072,
      "address_line_1": "2005 S HOUGHTON ROAD",
      "address_line_2": null
    },
    {
      "zip": "85748",
      "city": "Tucson",
      "name": "Sahuaro Baptist Church (aaron Hall)",
      "state": "AZ",
      "latitude": 32.1964991,
      "precinct": "AZ_PIMA_182",
      "longitude": -110.7712762,
      "address_line_1": "10361 E OLD SPANISH TRAIL",
      "address_line_2": null
    },
    {
      "zip": "85710",
      "city": "Tucson",
      "name": "Immanuel Presbyterian Church (coyote/roadrunner Room)",
      "state": "AZ",
      "latitude": 32.2055892,
      "precinct": "AZ_PIMA_183",
      "longitude": -110.7945703,
      "address_line_1": "9252 E 22ND STREET",
      "address_line_2": null
    },
    {
      "zip": "85742",
      "city": "Tucson",
      "name": "Canyon Del Oro Assembly Of God (foyer)",
      "state": "AZ",
      "latitude": 32.3959609,
      "precinct": "AZ_PIMA_184",
      "longitude": -111.0305696,
      "address_line_1": "2950 W LAMBERT LANE",
      "address_line_2": null
    },
    {
      "zip": "85704",
      "city": "Tucson",
      "name": "Desert Springs Presbyterian Church (sanctuary)",
      "state": "AZ",
      "latitude": 32.3664279,
      "precinct": "AZ_PIMA_187",
      "longitude": -110.9985611,
      "address_line_1": "1555 W OVERTON ROAD",
      "address_line_2": null
    },
    {
      "zip": "85739",
      "city": "Tucson",
      "name": "Catalina Community Center (recreation Room)",
      "state": "AZ",
      "latitude": 32.5069645,
      "precinct": "AZ_PIMA_188",
      "longitude": -110.9251902,
      "address_line_1": "16562 N ORACLE ROAD",
      "address_line_2": null
    },
    {
      "zip": "85746",
      "city": "Tucson",
      "name": "Our Lady Of Fatima Parish (fellowship)",
      "state": "AZ",
      "latitude": 32.1639956,
      "precinct": "AZ_PIMA_190",
      "longitude": -111.0081032,
      "address_line_1": "1950 W IRVINGTON PLACE",
      "address_line_2": null
    },
    {
      "zip": "85741",
      "city": "Tucson",
      "name": "Musd - Butterfield Elementary School (library)",
      "state": "AZ",
      "latitude": 32.3460122,
      "precinct": "AZ_PIMA_191",
      "longitude": -111.0390549,
      "address_line_1": "3400 W MASSINGALE ROAD",
      "address_line_2": null
    },
    {
      "zip": "85748",
      "city": "Tucson",
      "name": "Holy Cross Lutheran Church (fellowship Hall)",
      "state": "AZ",
      "latitude": 32.2241874,
      "precinct": "AZ_PIMA_192",
      "longitude": -110.7901466,
      "address_line_1": "241 N HARRISON ROAD",
      "address_line_2": null
    },
    {
      "zip": "85614",
      "city": "Green Valley",
      "name": "Santa Rita Springs Recreation Center (kino Room)",
      "state": "AZ",
      "latitude": 31.8137653,
      "precinct": "AZ_PIMA_193",
      "longitude": -111.005677,
      "address_line_1": "921 W VIA RIO FUERTE",
      "address_line_2": null
    },
    {
      "zip": "85641",
      "city": "Vail",
      "name": "Christ Lutheran Vail Church (sanctuary)",
      "state": "AZ",
      "latitude": 32.0531436,
      "precinct": "AZ_PIMA_195",
      "longitude": -110.682613,
      "address_line_1": "14600 E COLOSSAL CAVE ROAD",
      "address_line_2": null
    },
    {
      "zip": "85756",
      "city": "Tucson",
      "name": "Hilton Garden Inn (santa Rita D)",
      "state": "AZ",
      "latitude": 32.1328937,
      "precinct": "AZ_PIMA_196",
      "longitude": -110.9249159,
      "address_line_1": "6575 S COUNTRY CLUB ROAD",
      "address_line_2": null
    },
    {
      "zip": "85730",
      "city": "Tucson",
      "name": "Harrison Hills Mobile Home Park (recreation Room)",
      "state": "AZ",
      "latitude": 32.165445,
      "precinct": "AZ_PIMA_197",
      "longitude": -110.7875095,
      "address_line_1": "4675 S HARRISON ROAD",
      "address_line_2": null
    },
    {
      "zip": "85641",
      "city": "Vail",
      "name": "Vusd - Ocotillo Ridge Elementary School (library)",
      "state": "AZ",
      "latitude": 32.067197,
      "precinct": "AZ_PIMA_198",
      "longitude": -110.703746,
      "address_line_1": "10170 S WHITE LIGHTNING LANE",
      "address_line_2": null
    },
    {
      "zip": "85749",
      "city": "Tucson",
      "name": "St John On The Desert Presbyterian Church (fellowship Hall)",
      "state": "AZ",
      "latitude": 32.256257,
      "precinct": "AZ_PIMA_199",
      "longitude": -110.773716,
      "address_line_1": "2695 N HOUGHTON ROAD",
      "address_line_2": null
    },
    {
      "zip": "85742",
      "city": "Tucson",
      "name": "Foothills Community Church (fellowship Center)",
      "state": "AZ",
      "latitude": 32.3731362,
      "precinct": "AZ_PIMA_201",
      "longitude": -111.0391481,
      "address_line_1": "3301 W OVERTON ROAD",
      "address_line_2": null
    },
    {
      "zip": "85757",
      "city": "Tucson",
      "name": "Tusd - Johnson Primary School (library)",
      "state": "AZ",
      "latitude": 32.1414027,
      "precinct": "AZ_PIMA_203",
      "longitude": -111.0724938,
      "address_line_1": "6060 S JOSEPH AVENUE",
      "address_line_2": null
    },
    {
      "zip": "85629",
      "city": "Sahuarita",
      "name": "Sierrita Mining And Ranching Co. (community Building)",
      "state": "AZ",
      "latitude": 31.8937034,
      "precinct": "AZ_PIMA_204",
      "longitude": -111.1803284,
      "address_line_1": "10094 W MCGEE RANCH ROAD",
      "address_line_2": null
    },
    {
      "zip": "85622",
      "city": "Green Valley",
      "name": "Canoa Ranch Recreation Center (amado Room)",
      "state": "AZ",
      "latitude": 31.7880763,
      "precinct": "AZ_PIMA_205",
      "longitude": -111.0289954,
      "address_line_1": "5750 S TURQUOISE MOUNTAIN DRIVE",
      "address_line_2": null
    },
    {
      "zip": "85614",
      "city": "Green Valley",
      "name": "Abrego South Recreation Center (recreation Room)",
      "state": "AZ",
      "latitude": 31.845553,
      "precinct": "AZ_PIMA_206",
      "longitude": -110.9900153,
      "address_line_1": "1655 S ABREGO DRIVE",
      "address_line_2": null
    },
    {
      "zip": "85614",
      "city": "Green Valley",
      "name": "Pueblo Estates Homeowners Association (clubhouse)",
      "state": "AZ",
      "latitude": 31.8957718,
      "precinct": "AZ_PIMA_209",
      "longitude": -110.9904986,
      "address_line_1": "145 W ALISO DRIVE",
      "address_line_2": null
    },
    {
      "zip": "85718",
      "city": "Tucson",
      "name": "Embassy Suites Tucson-paloma Village (la Paloma)",
      "state": "AZ",
      "latitude": 32.3216815,
      "precinct": "AZ_PIMA_210",
      "longitude": -110.9268667,
      "address_line_1": "3110 E SKYLINE DRIVE",
      "address_line_2": null
    },
    {
      "zip": "85704",
      "city": "Tucson",
      "name": "St. Odilia Catholic Church (parish Hall)",
      "state": "AZ",
      "latitude": 32.3433114,
      "precinct": "AZ_PIMA_211",
      "longitude": -110.9817092,
      "address_line_1": "7570 N PASEO DEL NORTE",
      "address_line_2": null
    },
    {
      "zip": "85737",
      "city": "Oro Valley",
      "name": "Ausd - Copper Creek Elementary School (music Room)",
      "state": "AZ",
      "latitude": 32.4183792,
      "precinct": "AZ_PIMA_212",
      "longitude": -110.9860467,
      "address_line_1": "11620 N COPPER SPRING TRAIL",
      "address_line_2": null
    },
    {
      "zip": "85741",
      "city": "Tucson",
      "name": "Musd - Early Learning And Resource Center (library (media Center))",
      "state": "AZ",
      "latitude": 32.3458412,
      "precinct": "AZ_PIMA_213",
      "longitude": -111.056566,
      "address_line_1": "7651 N OLDFATHER ROAD",
      "address_line_2": null
    },
    {
      "zip": "85750",
      "city": "Tucson",
      "name": "Dusenberry-river Branch Library (meeting Room)",
      "state": "AZ",
      "latitude": 32.2752407,
      "precinct": "AZ_PIMA_214",
      "longitude": -110.8733079,
      "address_line_1": "5605 E RIVER ROAD #105",
      "address_line_2": null
    },
    {
      "zip": "85743",
      "city": "Tucson",
      "name": "Sandario Baptist Church (auditorium)",
      "state": "AZ",
      "latitude": 32.3314463,
      "precinct": "AZ_PIMA_215",
      "longitude": -111.2193658,
      "address_line_1": "6971 N SANDARIO ROAD",
      "address_line_2": null
    },
    {
      "zip": "85737",
      "city": "Oro Valley",
      "name": "Resurrection Lutheran Church (outreach Center- Sunday School Room)",
      "state": "AZ",
      "latitude": 32.4167719,
      "precinct": "AZ_PIMA_216",
      "longitude": -110.9616619,
      "address_line_1": "11575 N 1ST AVENUE",
      "address_line_2": null
    },
    {
      "zip": "85747",
      "city": "Tucson",
      "name": "Vusd - Andrada Polytechnic High School (library)",
      "state": "AZ",
      "latitude": 32.0185504,
      "precinct": "AZ_PIMA_217",
      "longitude": -110.776023,
      "address_line_1": "12960 S HOUGHTON RD",
      "address_line_2": null
    },
    {
      "zip": "85747",
      "city": "Tucson",
      "name": "Vusd - Rincon Vista Middle School (community Room)",
      "state": "AZ",
      "latitude": 32.1385744,
      "precinct": "AZ_PIMA_218",
      "longitude": -110.7622479,
      "address_line_1": "10770 E BILBY ROAD",
      "address_line_2": null
    },
    {
      "zip": "85741",
      "city": "Tucson",
      "name": "Christ The King Episcopal Church (library/ Hallway Area)",
      "state": "AZ",
      "latitude": 32.3378803,
      "precinct": "AZ_PIMA_219",
      "longitude": -111.0265376,
      "address_line_1": "2800 W INA ROAD",
      "address_line_2": null
    },
    {
      "zip": "85749",
      "city": "Tucson",
      "name": "Hope Church (church / Education Center)",
      "state": "AZ",
      "latitude": 32.2676434,
      "precinct": "AZ_PIMA_220",
      "longitude": -110.7731455,
      "address_line_1": "3353 N HOUGHTON ROAD",
      "address_line_2": null
    },
    {
      "zip": "85641",
      "city": "Vail",
      "name": "Vusd - Acacia Elementary School (library)",
      "state": "AZ",
      "latitude": 32.042227,
      "precinct": "AZ_PIMA_221",
      "longitude": -110.7178339,
      "address_line_1": "12955 E COLOSSAL CAVE ROAD",
      "address_line_2": null
    },
    {
      "zip": "85743",
      "city": "Tucson",
      "name": "Musd - Marana High School (library Classroom)",
      "state": "AZ",
      "latitude": 32.3674302,
      "precinct": "AZ_PIMA_222",
      "longitude": -111.2205342,
      "address_line_1": "12000 W EMIGH ROAD",
      "address_line_2": null
    },
    {
      "zip": "85742",
      "city": "Tucson",
      "name": "Desert Son Community Church (sanctuary Room)",
      "state": "AZ",
      "latitude": 32.3601303,
      "precinct": "AZ_PIMA_223",
      "longitude": -111.0773141,
      "address_line_1": "5250 W CORTARO FARMS ROAD",
      "address_line_2": null
    },
    {
      "zip": "85747",
      "city": "Tucson",
      "name": "Vusd - Empire High School (library)",
      "state": "AZ",
      "latitude": 32.0883934,
      "precinct": "AZ_PIMA_224",
      "longitude": -110.7652348,
      "address_line_1": "10701 E MARY ANN CLEVELAND WAY",
      "address_line_2": null
    },
    {
      "zip": "85741",
      "city": "Tucson",
      "name": "Orange Grove Mobile Estates (clubhouse)",
      "state": "AZ",
      "latitude": 32.3217492,
      "precinct": "AZ_PIMA_225",
      "longitude": -111.0422917,
      "address_line_1": "3635 W MANGO DRIVE",
      "address_line_2": null
    },
    {
      "zip": "85741",
      "city": "Tucson",
      "name": "Christ The King Episcopal Church (library/ Hallway Area)",
      "state": "AZ",
      "latitude": 32.3378803,
      "precinct": "AZ_PIMA_226",
      "longitude": -111.0265376,
      "address_line_1": "2800 W INA ROAD",
      "address_line_2": null
    },
    {
      "zip": "85629",
      "city": "Sahuarita",
      "name": "Sahuarita Town Hall (town Council Chambers)",
      "state": "AZ",
      "latitude": 31.9560072,
      "precinct": "AZ_PIMA_227",
      "longitude": -110.9756543,
      "address_line_1": "375 W SAHUARITA CENTER WAY",
      "address_line_2": null
    },
    {
      "zip": "85641",
      "city": "Corona de Tucson",
      "name": "Vusd - Copper Ridge Elementary School (library)",
      "state": "AZ",
      "latitude": 31.9355379,
      "precinct": "AZ_PIMA_229",
      "longitude": -110.8005911,
      "address_line_1": "17650 S CANYON EDGE TRAIL",
      "address_line_2": null
    },
    {
      "zip": "85719",
      "city": "Tucson",
      "name": "Ausd - Rio Vista Elementary School (gym)",
      "state": "AZ",
      "latitude": 32.2834777,
      "precinct": "AZ_PIMA_230",
      "longitude": -110.951432,
      "address_line_1": "1351 E LIMBERLOST DRIVE",
      "address_line_2": null
    },
    {
      "zip": "85629",
      "city": "Sahuarita",
      "name": "Santa Cruz Valley United Methodist Church (sanctuary)",
      "state": "AZ",
      "latitude": 31.9587367,
      "precinct": "AZ_PIMA_231",
      "longitude": -110.9708091,
      "address_line_1": "71 E SAHUARITA ROAD",
      "address_line_2": null
    },
    {
      "zip": "85756",
      "city": "Tucson",
      "name": "Littletown Community Center (multipurpose Room)",
      "state": "AZ",
      "latitude": 32.1350776,
      "precinct": "AZ_PIMA_232",
      "longitude": -110.8735462,
      "address_line_1": "6465 S CRAYCROFT ROAD",
      "address_line_2": null
    },
    {
      "zip": "85746",
      "city": "Tucson",
      "name": "Mt. Zion Lutheran Church (fellowship Room)",
      "state": "AZ",
      "latitude": 32.1767829,
      "precinct": "AZ_PIMA_233",
      "longitude": -111.0287795,
      "address_line_1": "4520 W AJO WAY",
      "address_line_2": null
    },
    {
      "zip": "85746",
      "city": "Tucson",
      "name": "Holy Way Presbyterian Church (ranch House)",
      "state": "AZ",
      "latitude": 32.1753067,
      "precinct": "AZ_PIMA_234",
      "longitude": -111.0545549,
      "address_line_1": "4040 S BILBRAY AVENUE",
      "address_line_2": null
    },
    {
      "zip": "85746",
      "city": "Tucson",
      "name": "Sonrise Baptist Church (tbd (spanish Building))",
      "state": "AZ",
      "latitude": 32.1164035,
      "precinct": "AZ_PIMA_235",
      "longitude": -111.0282968,
      "address_line_1": "2861 W PELSTON STREET",
      "address_line_2": null
    },
    {
      "zip": "85746",
      "city": "Tucson",
      "name": "San Xavier District (san Xavier District Center)",
      "state": "AZ",
      "latitude": 32.1072774,
      "precinct": "AZ_PIMA_236",
      "longitude": -111.0096924,
      "address_line_1": "2018 SAN XAVIER ROAD",
      "address_line_2": null
    },
    {
      "zip": "85718",
      "city": "Tucson",
      "name": "Embassy Suites Tucson-paloma Village (la Paloma)",
      "state": "AZ",
      "latitude": 32.3216815,
      "precinct": "AZ_PIMA_237",
      "longitude": -110.9268667,
      "address_line_1": "3110 E SKYLINE DRIVE",
      "address_line_2": null
    },
    {
      "zip": "85718",
      "city": "Tucson",
      "name": "St. Thomas The Apostle Catholic Church (o'leary Hall)",
      "state": "AZ",
      "latitude": 32.3003056,
      "precinct": "AZ_PIMA_238",
      "longitude": -110.897482,
      "address_line_1": "5150 N VALLEY VIEW ROAD",
      "address_line_2": null
    },
    {
      "zip": "85718",
      "city": "Tucson",
      "name": "Lutheran Church Of The Foothills (activities Room)",
      "state": "AZ",
      "latitude": 32.2990536,
      "precinct": "AZ_PIMA_239",
      "longitude": -110.8748547,
      "address_line_1": "5102 N CRAYCROFT ROAD",
      "address_line_2": null
    },
    {
      "zip": "85749",
      "city": "Tucson",
      "name": "Rincon Mountain Presbyterian Church (narthex- Jerico Room)",
      "state": "AZ",
      "latitude": 32.2595576,
      "precinct": "AZ_PIMA_241",
      "longitude": -110.8114268,
      "address_line_1": "8445 E TANQUE VERDE ROAD",
      "address_line_2": null
    },
    {
      "zip": "85743",
      "city": "Tucson",
      "name": "Continental Ranch Community Center (community Center)",
      "state": "AZ",
      "latitude": 32.3674975,
      "precinct": "AZ_PIMA_242",
      "longitude": -111.1226533,
      "address_line_1": "8881 N COACHLINE BOULEVARD",
      "address_line_2": null
    },
    {
      "zip": "85749",
      "city": "Tucson",
      "name": "Tanque Verde Baptist Church (fellowship Hall Downstairs)",
      "state": "AZ",
      "latitude": 32.2490265,
      "precinct": "AZ_PIMA_243",
      "longitude": -110.7550607,
      "address_line_1": "2200 N TANQUE VERDE LOOP ROAD",
      "address_line_2": null
    },
    {
      "zip": "85641",
      "city": "Corona de Tucson",
      "name": "Vusd - Sycamore Elementary School (library)",
      "state": "AZ",
      "latitude": 31.953054,
      "precinct": "AZ_PIMA_249",
      "longitude": -110.771649,
      "address_line_1": "16701 S HOUGHTON ROAD",
      "address_line_2": null
    },
    {
      "zip": "85637",
      "city": "Sonoita",
      "name": "Sonoita Firehouse",
      "state": "AZ",
      "latitude": 31.6793314,
      "precinct": "AZ_SANTA CRUZ_015",
      "longitude": -110.6557727,
      "address_line_1": "Hwy 82/Hwy 83",
      "address_line_2": null
    },
    {
      "zip": "86535",
      "city": "Dennehotso",
      "name": "Dennehotso Chapter House",
      "state": "AZ",
      "latitude": 36.8405625,
      "precinct": "AZ_APACHE_013",
      "longitude": -109.8521875,
      "address_line_1": "1/2 mile SW of Dennehotso School",
      "address_line_2": null
    },
    {
      "zip": "86505",
      "city": "Ganado",
      "name": "Ganado Chapter House",
      "state": "AZ",
      "latitude": 35.7064375,
      "precinct": "AZ_APACHE_023",
      "longitude": -109.5483125,
      "address_line_1": "Chapter Dr. HWY 264",
      "address_line_2": null
    },
    {
      "zip": "86506",
      "city": "Houck",
      "name": "Houck Chapter House",
      "state": "AZ",
      "latitude": 35.2849375,
      "precinct": "AZ_APACHE_027",
      "longitude": -109.2131875,
      "address_line_1": "Exit 348",
      "address_line_2": null
    },
    {
      "zip": "86502",
      "city": "Ganado",
      "name": "Klagetoh Chapter House",
      "state": "AZ",
      "latitude": 35.4994375,
      "precinct": "AZ_APACHE_031",
      "longitude": -109.5305625,
      "address_line_1": "15 miles South of State 264 on HWY 191",
      "address_line_2": null
    },
    {
      "zip": "86538",
      "city": "Many Farms",
      "name": "Many Farms Senior Center",
      "state": "AZ",
      "latitude": 36.3533125,
      "precinct": "AZ_APACHE_039",
      "longitude": -109.6209375,
      "address_line_1": "HWY 191 W. of N. Route 59",
      "address_line_2": null
    },
    {
      "zip": "86514",
      "city": "Teec Nos Pos",
      "name": "Mexican Water Chapter House",
      "state": "AZ",
      "latitude": 36.9648125,
      "precinct": "AZ_APACHE_041",
      "longitude": -109.6373125,
      "address_line_1": "HWY 160-BIA Road 5056",
      "address_line_2": null
    },
    {
      "zip": "86540",
      "city": "Nazlini",
      "name": "Nazlini Senior Center",
      "state": "AZ",
      "latitude": 35.8989375,
      "precinct": "AZ_APACHE_043",
      "longitude": -109.4451875,
      "address_line_1": "500 Yards N of the Nazlini Chapter House within chapter compound",
      "address_line_2": null
    },
    {
      "zip": "85932",
      "city": "Nutrioso",
      "name": "Nutrioso Community Center",
      "state": "AZ",
      "latitude": 33.9516875,
      "precinct": "AZ_APACHE_045",
      "longitude": -109.2086875,
      "address_line_1": "County Rd 2016 #8",
      "address_line_2": null
    },
    {
      "zip": "86515",
      "city": "Window Rock",
      "name": "Oak Springs Chapter House",
      "state": "AZ",
      "latitude": 35.6801875,
      "precinct": "AZ_APACHE_046",
      "longitude": -109.0525625,
      "address_line_1": "8 Miles North of Lupton - CH & I-40 - Exit 357 - 11 miles North on N-12",
      "address_line_2": null
    },
    {
      "zip": "86545",
      "city": "Rock Point",
      "name": "Rock Point Senior Center",
      "state": "AZ",
      "latitude": 36.7198125,
      "precinct": "AZ_APACHE_054",
      "longitude": -109.6264375,
      "address_line_1": "HWY 191",
      "address_line_2": null
    },
    {
      "zip": "86511",
      "city": "St. Michaels",
      "name": "St. Michaels Chapter House",
      "state": "AZ",
      "latitude": 35.6526875,
      "precinct": "AZ_APACHE_065",
      "longitude": -109.0941875,
      "address_line_1": "Hwy 264 Across IHS Building",
      "address_line_2": null
    },
    {
      "zip": "86505",
      "city": "Ganado",
      "name": "Steamboat Chapter House",
      "state": "AZ",
      "latitude": 35.7114022,
      "precinct": "AZ_APACHE_074",
      "longitude": -109.5420492,
      "address_line_1": "HWY 264 Mile Post 426",
      "address_line_2": null
    },
    {
      "zip": "86515",
      "city": "Window Rock",
      "name": "Navajo Nation Museum",
      "state": "AZ",
      "latitude": 35.6644375,
      "precinct": "AZ_APACHE_088",
      "longitude": -109.0510625,
      "address_line_1": "Hwy 264 and Postal Loop Rd",
      "address_line_2": null
    },
    {
      "zip": "86020",
      "city": "The Gap",
      "name": "Tsinaabaas Ha'bitiin Elementary School - Bodaway",
      "state": "AZ",
      "latitude": 36.3061875,
      "precinct": "AZ_COCONINO_042",
      "longitude": -111.4354375,
      "address_line_1": "4 Miles East of Bodaway Chapter House Hwy 20",
      "address_line_2": null
    },
    {
      "zip": "86040",
      "city": "Coppermine",
      "name": "Coppermine Chapter House",
      "state": "AZ",
      "latitude": 36.9147222,
      "precinct": "AZ_COCONINO_047",
      "longitude": -111.4558333,
      "address_line_1": "Coppermine",
      "address_line_2": null
    },
    {
      "zip": "86053",
      "city": "Kaibito",
      "name": "Kaibeto Senior Center",
      "state": "AZ",
      "latitude": 36.6033125,
      "precinct": "AZ_COCONINO_065",
      "longitude": -111.0746875,
      "address_line_1": "Kaibeto",
      "address_line_2": null
    },
    {
      "zip": "85541",
      "city": "Whispering Pines",
      "name": "East Verde Baptist Church",
      "state": "AZ",
      "latitude": 34.3780625,
      "precinct": "AZ_GILA_335",
      "longitude": -111.2843125,
      "address_line_1": "11209 N Houston Mesa Rd",
      "address_line_2": null
    },
    {
      "zip": "86433",
      "city": "Oatman",
      "name": "Oatman Church",
      "state": "AZ",
      "latitude": 35.0281875,
      "precinct": "AZ_MOHAVE_206",
      "longitude": -114.3816875,
      "address_line_1": "Rockhound Hill Rd",
      "address_line_2": null
    },
    {
      "zip": "86429",
      "city": "Bullhead City",
      "name": "Desert Shores Com. Baptist Church",
      "state": "AZ",
      "latitude": 35.1573754,
      "precinct": "AZ_MOHAVE_211",
      "longitude": -114.5459346,
      "address_line_1": "2625 Landon Dr",
      "address_line_2": null
    },
    {
      "zip": "86442",
      "city": "Bullhead City",
      "name": "Hope United Methodist Church",
      "state": "AZ",
      "latitude": 35.1154721,
      "precinct": "AZ_MOHAVE_211",
      "longitude": -114.6017991,
      "address_line_1": "1325 Ramar Rd",
      "address_line_2": null
    },
    {
      "zip": "86442",
      "city": "Bullhead City",
      "name": "St. John Evangelical Lutheran Church",
      "state": "AZ",
      "latitude": 35.0475263,
      "precinct": "AZ_MOHAVE_211",
      "longitude": -114.5920312,
      "address_line_1": "1664 Central Ave",
      "address_line_2": null
    },
    {
      "zip": "86426",
      "city": "Ft. Mohave",
      "name": "Mohave Valley United Methodist Church",
      "state": "AZ",
      "latitude": 34.9829978,
      "precinct": "AZ_MOHAVE_212",
      "longitude": -114.5946541,
      "address_line_1": "1593 E. Lipan Blvd",
      "address_line_2": null
    },
    {
      "zip": "86440",
      "city": "Mohave Valley",
      "name": "Mohave Valley Fire Dept. Sta. 82",
      "state": "AZ",
      "latitude": 34.8518151,
      "precinct": "AZ_MOHAVE_212",
      "longitude": -114.6005581,
      "address_line_1": "1595 Levee Dr.",
      "address_line_2": null
    },
    {
      "zip": null,
      "city": "Kingman",
      "name": "St. Mary Roman Catholic Parish Center",
      "state": "AZ",
      "latitude": 35.1920625,
      "precinct": "AZ_MOHAVE_217",
      "longitude": -114.0539375,
      "address_line_1": "302 East Spring St",
      "address_line_2": null
    },
    {
      "zip": "86409",
      "city": "Kingman",
      "name": "St. John's United Methodist Church",
      "state": "AZ",
      "latitude": 35.2317923,
      "precinct": "AZ_MOHAVE_217",
      "longitude": -114.0383013,
      "address_line_1": "1730 Kino Ave.",
      "address_line_2": null
    },
    {
      "zip": "86401",
      "city": "Kingman",
      "name": "First Southern Baptist Church",
      "state": "AZ",
      "latitude": 35.1850955,
      "precinct": "AZ_MOHAVE_217",
      "longitude": -114.0061756,
      "address_line_1": "3120 Hualapai Mtn Rd",
      "address_line_2": null
    },
    {
      "zip": "86409",
      "city": "Kingman",
      "name": "Calvary Baptist Church",
      "state": "AZ",
      "latitude": 35.2576693,
      "precinct": "AZ_MOHAVE_218",
      "longitude": -113.9911437,
      "address_line_1": "3575 Schaeffer Ave",
      "address_line_2": null
    },
    {
      "zip": "86401",
      "city": "Kingman",
      "name": "Hilltop Foursquare Church",
      "state": "AZ",
      "latitude": 35.1969182,
      "precinct": "AZ_MOHAVE_218",
      "longitude": -114.025316,
      "address_line_1": "2215 Emerson Ave",
      "address_line_2": null
    },
    {
      "zip": "86404",
      "city": "Lake Havasu City",
      "name": "Mountain View Property Owners Assoc.",
      "state": "AZ",
      "latitude": 34.5223399,
      "precinct": "AZ_MOHAVE_219",
      "longitude": -114.3311254,
      "address_line_1": "2635 Anita Ave",
      "address_line_2": null
    },
    {
      "zip": "86404",
      "city": "Lake Havasu City",
      "name": "Bethany Bible Church",
      "state": "AZ",
      "latitude": 34.5088793,
      "precinct": "AZ_MOHAVE_219",
      "longitude": -114.3505401,
      "address_line_1": "1200 Park Terrace Ave.",
      "address_line_2": null
    },
    {
      "zip": "86403",
      "city": "Lake Havasu City",
      "name": "Mount Olive Lutheran Church",
      "state": "AZ",
      "latitude": 34.4958747,
      "precinct": "AZ_MOHAVE_220",
      "longitude": -114.3324718,
      "address_line_1": "2170 Havasupai Blvd",
      "address_line_2": null
    },
    {
      "zip": "86403",
      "city": "Lake Havasu City",
      "name": "Quality Inn",
      "state": "AZ",
      "latitude": 34.4693112,
      "precinct": "AZ_MOHAVE_220",
      "longitude": -114.3400394,
      "address_line_1": "271 Lake Havasu Ave S",
      "address_line_2": null
    },
    {
      "zip": "86406",
      "city": "Lake Havasu City",
      "name": "Community Presbyterian Church",
      "state": "AZ",
      "latitude": 34.4769076,
      "precinct": "AZ_MOHAVE_220",
      "longitude": -114.2804236,
      "address_line_1": "3450 Chemehuevi Blvd",
      "address_line_2": null
    },
    {
      "zip": "86406",
      "city": "Lake Havasu City",
      "name": "St. Michael's United Methodist Church",
      "state": "AZ",
      "latitude": 34.4728369,
      "precinct": "AZ_MOHAVE_220",
      "longitude": -114.2975907,
      "address_line_1": "2895 Jamaica Blvd S",
      "address_line_2": null
    },
    {
      "zip": "85321",
      "city": "Why",
      "name": "Why Domestic Water Improvement District (why Community Building)",
      "state": "AZ",
      "latitude": 32.2625625,
      "precinct": "AZ_PIMA_002",
      "longitude": -112.7396875,
      "address_line_1": "341 S SONOITA WAY HIGHWAY 85 SOUTH",
      "address_line_2": null
    },
    {
      "zip": "85634",
      "city": "Sells",
      "name": "Schuk Toak District Office (district Office Conference Room)",
      "state": "AZ",
      "latitude": 31.9241875,
      "precinct": "AZ_PIMA_003",
      "longitude": -111.8989375,
      "address_line_1": "HIGHWAY 86 MILE POST 126.5",
      "address_line_2": null
    },
    {
      "zip": "85634",
      "city": "Sells",
      "name": "Sells District Office (conference Room)",
      "state": "AZ",
      "latitude": 31.9241875,
      "precinct": "AZ_PIMA_004",
      "longitude": -111.8989375,
      "address_line_1": "ARIZONA HIGHWAY 86 AND MILE POST 112",
      "address_line_2": null
    },
    {
      "zip": null,
      "city": "Tucson",
      "name": "Robles Ranch Community Center (community Center)",
      "state": "AZ",
      "latitude": 32.2226066,
      "precinct": "AZ_PIMA_007",
      "longitude": -110.9747108,
      "address_line_1": "16150 W AJO WAY",
      "address_line_2": null
    },
    {
      "zip": "85619",
      "city": "Mount Lemmon",
      "name": "Mt Lemmon Community Center (recreation Room)",
      "state": "AZ",
      "latitude": 32.4449375,
      "precinct": "AZ_PIMA_027",
      "longitude": -110.7606875,
      "address_line_1": "12949 N SABINO CANYON PARKWAY",
      "address_line_2": null
    },
    {
      "zip": null,
      "city": "Casas Adobes",
      "name": "Ausd - La Cima Middle School (library)",
      "state": "AZ",
      "latitude": 32.3101875,
      "precinct": "AZ_PIMA_030",
      "longitude": -110.9940625,
      "address_line_1": "5600 N LA CANADA DRIVE",
      "address_line_2": null
    },
    {
      "zip": null,
      "city": "Tucson",
      "name": "Bethel Baptist Church (fellowship Hall)",
      "state": "AZ",
      "latitude": 32.1766875,
      "precinct": "AZ_PIMA_039",
      "longitude": -110.7569375,
      "address_line_1": "11040 E ESCALANTE ROAD",
      "address_line_2": null
    },
    {
      "zip": "85713",
      "city": "South Tucson",
      "name": "Sam Lena-south Tucson Library (meeting Room)",
      "state": "AZ",
      "latitude": 32.2024375,
      "precinct": "AZ_PIMA_047",
      "longitude": -110.9680625,
      "address_line_1": "1607 S 6TH AVENUE",
      "address_line_2": null
    },
    {
      "zip": null,
      "city": "Tucson",
      "name": "Robles Ranch Community Center (community Center)",
      "state": "AZ",
      "latitude": 32.2226066,
      "precinct": "AZ_PIMA_060",
      "longitude": -110.9747108,
      "address_line_1": "16150 W AJO WAY",
      "address_line_2": null
    },
    {
      "zip": null,
      "city": "Tucson",
      "name": "Grace Temple Missionary Baptist Church (education Wing)",
      "state": "AZ",
      "latitude": 32.1979375,
      "precinct": "AZ_PIMA_064",
      "longitude": -110.9555625,
      "address_line_1": "1019 E 31ST STREET",
      "address_line_2": null
    },
    {
      "zip": null,
      "city": "Tucson",
      "name": "Glad Tidings Assembly Of God Church (fellowship Hall)",
      "state": "AZ",
      "latitude": 32.2288125,
      "precinct": "AZ_PIMA_069",
      "longitude": -110.8404375,
      "address_line_1": "600 N KOLB ROAD",
      "address_line_2": null
    },
    {
      "zip": "85634",
      "city": "Sells",
      "name": "Chukut Kuk District (miguel Community Building)",
      "state": "AZ",
      "latitude": 31.9115625,
      "precinct": "AZ_PIMA_071",
      "longitude": -111.8866875,
      "address_line_1": "FEDERAL ROUTE 19 TOPAWA ROAD VAMORI VILLAGE",
      "address_line_2": null
    },
    {
      "zip": "85634",
      "city": "Topawa",
      "name": "Baboquivari District Office (main Office)",
      "state": "AZ",
      "latitude": 31.7978125,
      "precinct": "AZ_PIMA_076",
      "longitude": -111.8130625,
      "address_line_1": "FEDERAL ROUTE 19 & FRESNAL CANYON ROAD",
      "address_line_2": null
    },
    {
      "zip": null,
      "city": "Tucson",
      "name": "St. Mark's Presbyterian Church (knox Room)",
      "state": "AZ",
      "latitude": 32.2330625,
      "precinct": "AZ_PIMA_080",
      "longitude": -110.9116875,
      "address_line_1": "3809 E 3RD STREET",
      "address_line_2": null
    },
    {
      "zip": null,
      "city": "Sahuarita",
      "name": "The Good Shepherd United Church (redman Room)",
      "state": "AZ",
      "latitude": 31.9280625,
      "precinct": "AZ_PIMA_083",
      "longitude": -110.9955625,
      "address_line_1": "17750 S LA CANADA DRIVE",
      "address_line_2": null
    },
    {
      "zip": null,
      "city": "Marana",
      "name": "Accelerated Elementary & Secondary Schools (multipurpose Room)",
      "state": "AZ",
      "latitude": 32.3028125,
      "precinct": "AZ_PIMA_092",
      "longitude": -111.0650625,
      "address_line_1": "5245 N CAMINO DE OESTE",
      "address_line_2": null
    },
    {
      "zip": null,
      "city": "Drexel Heights",
      "name": "Pascua Yaqui Tribe Wellness Center (azul Room (blue))",
      "state": "AZ",
      "latitude": 32.1110625,
      "precinct": "AZ_PIMA_110",
      "longitude": -111.0778125,
      "address_line_1": "5305 CALLE TORIM",
      "address_line_2": null
    },
    {
      "zip": "85634",
      "city": "Sells",
      "name": "Pisinemo District (district Office)",
      "state": "AZ",
      "latitude": 31.9161875,
      "precinct": "AZ_PIMA_135",
      "longitude": -111.8659375,
      "address_line_1": "WEST HIGHWAY 86 ROUTE 21",
      "address_line_2": null
    },
    {
      "zip": null,
      "city": "VAYA CHIN",
      "name": "Hickiwan District (kiohod Tonlik Ki)",
      "state": "AZ",
      "latitude": 32.3481875,
      "precinct": "AZ_PIMA_136",
      "longitude": -112.3243125,
      "address_line_1": "VAYA CHIN VILLAGE",
      "address_line_2": null
    },
    {
      "zip": "85321",
      "city": "Sweetwater",
      "name": "Gu Vo District Office Compound (gu Vo District Compound Conference Room)",
      "state": "AZ",
      "latitude": 32.0600625,
      "precinct": "AZ_PIMA_137",
      "longitude": -112.5739375,
      "address_line_1": "INDIAN ROUTE 1 MILE POST 19 GU VO VILLAGE",
      "address_line_2": null
    },
    {
      "zip": "85634",
      "city": "Santa Rosa",
      "name": "Gu Achi District (santa Rosa Multipurpose Building)",
      "state": "AZ",
      "latitude": 32.3213125,
      "precinct": "AZ_PIMA_138",
      "longitude": -112.0625625,
      "address_line_1": "SANTA ROSA COMMUNITY",
      "address_line_2": null
    },
    {
      "zip": null,
      "city": "Tucson",
      "name": "Fred Archer Neighborhood Center (room 133)",
      "state": "AZ",
      "latitude": 32.2015625,
      "precinct": "AZ_PIMA_144",
      "longitude": -111.0105625,
      "address_line_1": "1665 S LA CHOLLA BOULEVARD",
      "address_line_2": null
    },
    {
      "zip": null,
      "city": "Oro Valley",
      "name": "Sun City Oro Valley - Catalina Vista (mt. Lemmon Room)",
      "state": "AZ",
      "latitude": 32.4606875,
      "precinct": "AZ_PIMA_145",
      "longitude": -110.9393125,
      "address_line_1": "14055 N DEL WEBB BOULEVARD",
      "address_line_2": null
    },
    {
      "zip": null,
      "city": "Sahuarita",
      "name": "Cornerstone Baptist Church (fellowship Hall)",
      "state": "AZ",
      "latitude": 31.9183125,
      "precinct": "AZ_PIMA_147",
      "longitude": -110.9960625,
      "address_line_1": "18280 S LA CANADA DRIVE",
      "address_line_2": null
    },
    {
      "zip": null,
      "city": "Casas Adobes",
      "name": "Ausd - Donaldson Elementary School (gym)",
      "state": "AZ",
      "latitude": 32.3333125,
      "precinct": "AZ_PIMA_148",
      "longitude": -111.0118125,
      "address_line_1": "240 W OMAR DRIVE",
      "address_line_2": null
    },
    {
      "zip": null,
      "city": "Casas Adobes",
      "name": "Metro Water District Office (board Room)",
      "state": "AZ",
      "latitude": 32.3201875,
      "precinct": "AZ_PIMA_149",
      "longitude": -110.9960625,
      "address_line_1": "6265 N LA CANADA DRIVE",
      "address_line_2": null
    },
    {
      "zip": null,
      "city": "Marana",
      "name": "Cortaro Vista Community Church (celebration Center)",
      "state": "AZ",
      "latitude": 32.3636875,
      "precinct": "AZ_PIMA_185",
      "longitude": -111.0710625,
      "address_line_1": "8600 N CAMINO DE OESTE",
      "address_line_2": null
    },
    {
      "zip": null,
      "city": "Marana",
      "name": "Accelerated Elementary & Secondary Schools (multipurpose Room)",
      "state": "AZ",
      "latitude": 32.3028125,
      "precinct": "AZ_PIMA_186",
      "longitude": -111.0650625,
      "address_line_1": "5245 N CAMINO DE OESTE",
      "address_line_2": null
    },
    {
      "zip": null,
      "city": "Tucson",
      "name": "Tusd - Alice Vail Middle School (library)",
      "state": "AZ",
      "latitude": 32.2138125,
      "precinct": "AZ_PIMA_189",
      "longitude": -110.8780625,
      "address_line_1": "5350 E 16TH ST",
      "address_line_2": null
    },
    {
      "zip": null,
      "city": "Tortolita",
      "name": "Grace Community Covenant Church (multipurpose Room)",
      "state": "AZ",
      "latitude": 32.3834375,
      "precinct": "AZ_PIMA_194",
      "longitude": -111.0144375,
      "address_line_1": "9755 N LA CHOLLA BOULEVARD",
      "address_line_2": null
    },
    {
      "zip": null,
      "city": "Oro Valley",
      "name": "Casas Adobes Baptist Church (palo Verde Room)",
      "state": "AZ",
      "latitude": 32.4039375,
      "precinct": "AZ_PIMA_200",
      "longitude": -111.0180625,
      "address_line_1": "10801 N LA CHOLLA BOULEVARD",
      "address_line_2": null
    },
    {
      "zip": null,
      "city": "Oro Valley",
      "name": "Alive Christian Fellowship (lobby)",
      "state": "AZ",
      "latitude": 32.3821875,
      "precinct": "AZ_PIMA_202",
      "longitude": -111.0118125,
      "address_line_1": "9662 N LA CHOLLA BOULEVARD",
      "address_line_2": null
    },
    {
      "zip": null,
      "city": "Green Valley",
      "name": "Lutheran Church - Risen Savior (hall)",
      "state": "AZ",
      "latitude": 31.8619375,
      "precinct": "AZ_PIMA_207",
      "longitude": -110.9961875,
      "address_line_1": "555 S LA CANADA DRIVE",
      "address_line_2": null
    },
    {
      "zip": null,
      "city": "Tucson",
      "name": "Serenity Baptist Church (worship Area)",
      "state": "AZ",
      "latitude": 32.2226066,
      "precinct": "AZ_PIMA_208",
      "longitude": -110.9747108,
      "address_line_1": "15501 W AJO WAY",
      "address_line_2": null
    },
    {
      "zip": null,
      "city": "Marana",
      "name": "Accelerated Elementary & Secondary Schools (multipurpose Room)",
      "state": "AZ",
      "latitude": 32.3028125,
      "precinct": "AZ_PIMA_228",
      "longitude": -111.0650625,
      "address_line_1": "5245 N CAMINO DE OESTE",
      "address_line_2": null
    },
    {
      "zip": "85619",
      "city": "Mount Lemmon",
      "name": "Mt Lemmon Community Center (recreation Room)",
      "state": "AZ",
      "latitude": 32.4449375,
      "precinct": "AZ_PIMA_240",
      "longitude": -110.7606875,
      "address_line_1": "12949 N SABINO CANYON PARKWAY",
      "address_line_2": null
    },
    {
      "zip": null,
      "city": "Tucson",
      "name": "Santa Rosa Branch Library (room 109)",
      "state": "AZ",
      "latitude": 32.2085625,
      "precinct": "AZ_PIMA_246",
      "longitude": -110.9743125,
      "address_line_1": "1075 S 10TH AVENUE",
      "address_line_2": null
    },
    {
      "zip": "85132",
      "city": "FLORENCE",
      "name": "Florence First Assembly Of God Church Annex",
      "state": "AZ",
      "latitude": 33.0195625,
      "precinct": "AZ_PINAL_025",
      "longitude": -111.3879375,
      "address_line_1": "95 W HWY 287",
      "address_line_2": null
    },
    {
      "zip": "85634",
      "city": "Sells",
      "name": "Chui Chu Senior Center",
      "state": "AZ",
      "latitude": 31.9119375,
      "precinct": "AZ_PINAL_053",
      "longitude": -111.8811875,
      "address_line_1": "FEDERAL ROUTE 15 MILE POST 42 CHUI CHU",
      "address_line_2": null
    },
    {
      "zip": "85147",
      "city": "SACATON",
      "name": "San Tan District 4 Service Center",
      "state": "AZ",
      "latitude": 33.1615625,
      "precinct": "AZ_PINAL_061",
      "longitude": -111.8025625,
      "address_line_1": "1510 W SESAME SAN TAN RD",
      "address_line_2": null
    },
    {
      "zip": "85901",
      "city": "Show Low",
      "name": "Linden L.d.s Church",
      "state": "AZ",
      "latitude": 34.2840474,
      "precinct": "",
      "longitude": -110.1674816,
      "address_line_1": "971 Timberland Rd",
      "address_line_2": ""
    },
    {
      "zip": "86044",
      "city": "Navajo Mountain",
      "name": "Community Arizona Warehouse",
      "state": "UT",
      "latitude": 37.0341623,
      "precinct": "AZ_COCONINO_071",
      "longitude": -110.8695858,
      "address_line_1": "Navajo Mountain",
      "address_line_2": ""
    },
    {
      "zip": "91702",
      "city": "Azusa",
      "name": "Friendship Missionary Baptist Church (dining Hall)",
      "state": "CA",
      "latitude": 34.1405717,
      "precinct": "AZ_PIMA_143",
      "longitude": -117.9161195,
      "address_line_1": "850 N 11TH AVENUE",
      "address_line_2": ""
    },
    {
      "zip": "85940",
      "city": "Vernon",
      "name": "Vernon Public Library (Community Ctr)",
      "state": "AZ",
      "latitude": 34.2549559,
      "precinct": "AZ_APACHE_082",
      "longitude": -109.6926121,
      "address_line_1": "90 CR 3142",
      "address_line_2": null
    },
    {
      "zip": "86001",
      "city": "Flagstaff",
      "name": "Shepherd of the Hills Lutheran Church",
      "state": "AZ",
      "latitude": 35.2136571,
      "precinct": "AZ_COCONINO_002",
      "longitude": -111.642923,
      "address_line_1": "1601 N San Francisco St",
      "address_line_2": null
    },
    {
      "zip": "85930",
      "city": "White River",
      "name": "McNary Community Center",
      "state": "AZ",
      "latitude": 34.0721875,
      "precinct": "AZ_APACHE_037",
      "longitude": -109.8544375,
      "address_line_1": "103 S Cady",
      "address_line_2": null
    },
    {
      "zip": "86504",
      "city": "Ft. Defiance",
      "name": "Sawmill Senior Center (across from Sawmill Primary School)",
      "state": "AZ",
      "latitude": 35.8986875,
      "precinct": "AZ_APACHE_067",
      "longitude": -109.1658125,
      "address_line_1": "Mile Post 14 on N-7",
      "address_line_2": null
    },
    {
      "zip": "86001",
      "city": "Flagstaff",
      "name": "DeMiguel Elementary School",
      "state": "AZ",
      "latitude": 35.1678922,
      "precinct": "AZ_COCONINO_063",
      "longitude": -111.6812573,
      "address_line_1": "3500 S Gillenwater Dr",
      "address_line_2": null
    },
    {
      "zip": "86001",
      "city": "Flagstaff",
      "name": "Shepherd of the Hills Lutheran Church",
      "state": "AZ",
      "latitude": 35.2136571,
      "precinct": "AZ_COCONINO_005",
      "longitude": -111.642923,
      "address_line_1": "1601 N San Francisco St",
      "address_line_2": null
    },
    {
      "zip": "86001",
      "city": "Flagstaff",
      "name": "DoubleTree by Hilton Flagstaff",
      "state": "AZ",
      "latitude": 35.1882658,
      "precinct": "AZ_COCONINO_084",
      "longitude": -111.6665042,
      "address_line_1": "1175 W Route 66",
      "address_line_2": null
    },
    {
      "zip": "85544",
      "city": "Pine",
      "name": "First Baptist Church of Pine",
      "state": "AZ",
      "latitude": 34.3899067,
      "precinct": "AZ_GILA_310",
      "longitude": -111.4542782,
      "address_line_1": "4039 N Hwy 87",
      "address_line_2": null
    },
    {
      "zip": "85544",
      "city": "Pine",
      "name": "First Baptist Church of Pine",
      "state": "AZ",
      "latitude": 34.3899067,
      "precinct": "AZ_GILA_315",
      "longitude": -111.4542782,
      "address_line_1": "4039 N Hwy 87",
      "address_line_2": null
    },
    {
      "zip": "86505",
      "city": "Ganado",
      "name": "Ganado Uni Sch. Dist. (Fieldhouse)",
      "state": "AZ",
      "latitude": 35.7135625,
      "precinct": "AZ_APACHE_022",
      "longitude": -109.5336875,
      "address_line_1": "HWY 264",
      "address_line_2": null
    },
    {
      "zip": "86001",
      "city": "Flagstaff",
      "name": "Shepherd of the Hills Lutheran Church",
      "state": "AZ",
      "latitude": 35.2136571,
      "precinct": "AZ_COCONINO_055",
      "longitude": -111.642923,
      "address_line_1": "1601 N San Francisco St",
      "address_line_2": null
    },
    {
      "zip": "86507",
      "city": "Tsaile",
      "name": "Tsaile/Wheatfields Chapter House",
      "state": "AZ",
      "latitude": 36.2371875,
      "precinct": "AZ_APACHE_084",
      "longitude": -109.1266875,
      "address_line_1": "Rt. 12 & Rt. 64 - 8 Miles S on Rt. 12",
      "address_line_2": null
    },
    {
      "zip": "86001",
      "city": "Flagstaff",
      "name": "Shepherd of the Hills Lutheran Church",
      "state": "AZ",
      "latitude": 35.2136571,
      "precinct": "AZ_COCONINO_056",
      "longitude": -111.642923,
      "address_line_1": "1601 N San Francisco St",
      "address_line_2": null
    },
    {
      "zip": "86001",
      "city": "Flagstaff",
      "name": "DoubleTree by Hilton Flagstaff",
      "state": "AZ",
      "latitude": 35.1882658,
      "precinct": "AZ_COCONINO_006",
      "longitude": -111.6665042,
      "address_line_1": "1175 W Route 66",
      "address_line_2": null
    },
    {
      "zip": "85192",
      "city": "Winkelman",
      "name": "Hayden/Winkelman School",
      "state": "AZ",
      "latitude": 32.9906994,
      "precinct": "AZ_GILA_300",
      "longitude": -110.7713387,
      "address_line_1": "824 Thorn Ave",
      "address_line_2": null
    },
    {
      "zip": "86001",
      "city": "Flagstaff",
      "name": "DeMiguel Elementary School",
      "state": "AZ",
      "latitude": 35.1678922,
      "precinct": "AZ_COCONINO_022",
      "longitude": -111.6812573,
      "address_line_1": "3500 S Gillenwater Dr",
      "address_line_2": null
    },
    {
      "zip": "85938",
      "city": "Springerville",
      "name": "Town of Springerville Town Hall",
      "state": "AZ",
      "latitude": 34.1324115,
      "precinct": "AZ_APACHE_070",
      "longitude": -109.281673,
      "address_line_1": "418 East Main Street",
      "address_line_2": null
    },
    {
      "zip": "86004",
      "city": "Flagstaff",
      "name": "Christ's Church of Flagstaff",
      "state": "AZ",
      "latitude": 35.2044153,
      "precinct": "AZ_COCONINO_019",
      "longitude": -111.6021194,
      "address_line_1": "3475 E Soliere Ave",
      "address_line_2": null
    },
    {
      "zip": "85941",
      "city": "Carrizo",
      "name": "Carrizo Assembly of God Church",
      "state": "AZ",
      "latitude": 33.8369944,
      "precinct": "AZ_GILA_405",
      "longitude": -109.9642664,
      "address_line_1": "V-10 Road",
      "address_line_2": null
    },
    {
      "zip": null,
      "city": "LeChee",
      "name": "LeChee Chapter House",
      "state": "AZ",
      "latitude": 36.8827553,
      "precinct": "AZ_COCONINO_067",
      "longitude": -111.4972401,
      "address_line_1": "Route 20 Coppermine Rd",
      "address_line_2": null
    },
    {
      "zip": "86401",
      "city": "Kingman",
      "name": "Grace Lutheran Church (Fellowship Hall)",
      "state": "AZ",
      "latitude": 35.2062089,
      "precinct": "AZ_MOHAVE_215",
      "longitude": -114.0252927,
      "address_line_1": "2101 Harrison St",
      "address_line_2": null
    },
    {
      "zip": "86023",
      "city": "Grand Canyon",
      "name": "Shrine of the Ages",
      "state": "AZ",
      "latitude": 36.0548806,
      "precinct": "AZ_COCONINO_059",
      "longitude": -112.1222455,
      "address_line_1": "20 S Entrance Rd",
      "address_line_2": null
    },
    {
      "zip": "86001",
      "city": "Flagstaff",
      "name": "DoubleTree by Hilton Flagstaff",
      "state": "AZ",
      "latitude": 35.1882658,
      "precinct": "AZ_COCONINO_040",
      "longitude": -111.6665042,
      "address_line_1": "1175 W Route 66",
      "address_line_2": null
    },
    {
      "zip": "86520",
      "city": "Blue Gap",
      "name": "Blue Gap/Tachee Chapter House",
      "state": "AZ",
      "latitude": 36.1712941,
      "precinct": "AZ_APACHE_078",
      "longitude": -109.9451502,
      "address_line_1": "Blue Gap Chapter House",
      "address_line_2": null
    },
    {
      "zip": null,
      "city": "Fredonia Kaibab Paiute Indian Reservation",
      "name": "Kaibab Paiute RV Park",
      "state": "AZ",
      "latitude": 36.8669375,
      "precinct": "AZ_MOHAVE_223",
      "longitude": -112.7361875,
      "address_line_1": "2 North Pipe Springs Rd.",
      "address_line_2": null
    },
    {
      "zip": "86005",
      "city": "Flagstaff",
      "name": "Church of the Resurrection",
      "state": "AZ",
      "latitude": 35.1677931,
      "precinct": "AZ_COCONINO_021",
      "longitude": -111.6707528,
      "address_line_1": "740 W University Heights Dr S",
      "address_line_2": null
    },
    {
      "zip": "86442",
      "city": "Bullhead City",
      "name": "BHC Seventh Day Adventist Church",
      "state": "AZ",
      "latitude": 35.108418,
      "precinct": "AZ_MOHAVE_211",
      "longitude": -114.576985,
      "address_line_1": "1752 Arriba Dr",
      "address_line_2": null
    },
    {
      "zip": "86440",
      "city": "Mohave Valley",
      "name": "RiverPointe Southern Baptist Church",
      "state": "AZ",
      "latitude": 34.9117895,
      "precinct": "AZ_MOHAVE_212",
      "longitude": -114.6002828,
      "address_line_1": "1421 E. Commercial St",
      "address_line_2": null
    },
    {
      "zip": "85553",
      "city": "Tonto Basin",
      "name": "Tonto Basin Chamber of Commerce",
      "state": "AZ",
      "latitude": 33.8517216,
      "precinct": "AZ_GILA_330",
      "longitude": -111.3102828,
      "address_line_1": "45675 Hwy 188",
      "address_line_2": null
    },
    {
      "zip": "85936",
      "city": "St. Johns",
      "name": "Apache County Annex-Pera Gym",
      "state": "AZ",
      "latitude": 34.5070966,
      "precinct": "AZ_APACHE_061",
      "longitude": -109.3658047,
      "address_line_1": "75 W. Cleveland",
      "address_line_2": null
    },
    {
      "zip": "85936",
      "city": "St. Johns",
      "name": "Apache County Annex-Pera Gym",
      "state": "AZ",
      "latitude": 34.5070966,
      "precinct": "AZ_APACHE_012",
      "longitude": -109.3658047,
      "address_line_1": "75 W. Cleveland",
      "address_line_2": null
    }
  ]
}
