{
  "id": 137,
  "name": "Maine General Election",
  "updated_at": "2020-10-31T14:13:38.277749+00:00",
  "election_day": "2020-11-03",
  "polling_places": [
    {
      "zip": "04236",
      "city": "Greene",
      "name": "Greene Fire Dept.",
      "state": "ME",
      "latitude": 44.1945611000000014,
      "precinct": "ME_ANDROSCOGGIN_GREENE_1-1",
      "longitude": -70.1478457999999989,
      "address_line_1": "106 Patten Road",
      "address_line_2": null
    },
    {
      "zip": "04240",
      "city": "Lewiston",
      "name": "Lewiston Memorial Armory",
      "state": "ME",
      "latitude": 44.1016237999999987,
      "precinct": "ME_ANDROSCOGGIN_LEWISTON_1-1",
      "longitude": -70.203305400000005,
      "address_line_1": "65 Central Avenue",
      "address_line_2": null
    },
    {
      "zip": "04240",
      "city": "Lewiston",
      "name": "Montello School",
      "state": "ME",
      "latitude": 44.1080658999999997,
      "precinct": "ME_ANDROSCOGGIN_LEWISTON_2-1",
      "longitude": -70.1832823000000019,
      "address_line_1": "407 East Avenue",
      "address_line_2": null
    },
    {
      "zip": "04240",
      "city": "Lewiston",
      "name": "Lewiston Memorial Armory",
      "state": "ME",
      "latitude": 44.1016237999999987,
      "precinct": "ME_ANDROSCOGGIN_LEWISTON_3-1",
      "longitude": -70.203305400000005,
      "address_line_1": "65 Central Avenue",
      "address_line_2": null
    },
    {
      "zip": "04240",
      "city": "Lewiston",
      "name": "Longley Elementary School",
      "state": "ME",
      "latitude": 44.0940738999999979,
      "precinct": "ME_ANDROSCOGGIN_LEWISTON_4-1",
      "longitude": -70.2067591999999934,
      "address_line_1": "145 Birch Street",
      "address_line_2": null
    },
    {
      "zip": "04240",
      "city": "Lewiston",
      "name": "Longley Elementary School",
      "state": "ME",
      "latitude": 44.0940738999999979,
      "precinct": "ME_ANDROSCOGGIN_LEWISTON_5-1",
      "longitude": -70.2067591999999934,
      "address_line_1": "145 Birch Street",
      "address_line_2": null
    },
    {
      "zip": "04240",
      "city": "Lewiston",
      "name": "Longley Elementary School",
      "state": "ME",
      "latitude": 44.0940738999999979,
      "precinct": "ME_ANDROSCOGGIN_LEWISTON_7-1",
      "longitude": -70.2067591999999934,
      "address_line_1": "145 Birch Street",
      "address_line_2": null
    },
    {
      "zip": "04280",
      "city": "Wales",
      "name": "Wales Municipal Center",
      "state": "ME",
      "latitude": 44.1620769999999965,
      "precinct": "ME_ANDROSCOGGIN_WALES_1-1",
      "longitude": -70.060699900000003,
      "address_line_1": "175 Centre Road",
      "address_line_2": null
    },
    {
      "zip": "04774",
      "city": "Allagash",
      "name": "Allagash Community Center",
      "state": "ME",
      "latitude": 47.0834010000000021,
      "precinct": "ME_AROOSTOOK_ALLAGASH_1-1",
      "longitude": -69.0433455000000009,
      "address_line_1": "1063 Allagash Road",
      "address_line_2": null
    },
    {
      "zip": "04736",
      "city": "Caribou",
      "name": "Caribou Wellness & Recreation Center",
      "state": "ME",
      "latitude": 46.8644821999999976,
      "precinct": "ME_AROOSTOOK_CARIBOU_1-1",
      "longitude": -68.0042042999999978,
      "address_line_1": "55 Bennett Drive",
      "address_line_2": null
    },
    {
      "zip": "04730",
      "city": "Hodgdon",
      "name": "Hodgdon Town Office",
      "state": "ME",
      "latitude": 46.0545157999999972,
      "precinct": "ME_AROOSTOOK_CARY TWP_1-1",
      "longitude": -67.8650798999999978,
      "address_line_1": "179 Hodgdon Mills Road",
      "address_line_2": null
    },
    {
      "zip": "04757",
      "city": "Castle Hill",
      "name": "Castle Hill Grange Hall",
      "state": "ME",
      "latitude": 46.7351260000000011,
      "precinct": "ME_AROOSTOOK_CASTLE HILL_1-1",
      "longitude": -68.1855390000000057,
      "address_line_1": "1953 State Road",
      "address_line_2": null
    },
    {
      "zip": "04757",
      "city": "Chapman",
      "name": "Chapman Ridge Runners Snowmobile Club",
      "state": "ME",
      "latitude": 46.6517582999999973,
      "precinct": "ME_AROOSTOOK_CHAPMAN_1-1",
      "longitude": -68.1187836000000004,
      "address_line_1": "94 Town Hall Road",
      "address_line_2": null
    },
    {
      "zip": "04736",
      "city": "Caribou",
      "name": "Caribou Wellness & Recreation Center",
      "state": "ME",
      "latitude": 46.8644821999999976,
      "precinct": "ME_AROOSTOOK_CONNOR TWP_1-1",
      "longitude": -68.0042042999999978,
      "address_line_1": "55 Bennett Drive",
      "address_line_2": null
    },
    {
      "zip": "04743",
      "city": "New Canada",
      "name": "New Canada Community Center",
      "state": "ME",
      "latitude": 47.1893316999999968,
      "precinct": "ME_AROOSTOOK_CROSS LAKE TWP (T17 R5)_1-1",
      "longitude": -68.4735923000000071,
      "address_line_1": "1809 Caribou Road",
      "address_line_2": null
    },
    {
      "zip": "04747",
      "city": "Island Falls",
      "name": "Island Falls Municipal Office",
      "state": "ME",
      "latitude": 46.0098528999999985,
      "precinct": "ME_AROOSTOOK_CRYSTAL_1-1",
      "longitude": -68.2653490999999946,
      "address_line_1": "68 Houlton Road",
      "address_line_2": null
    },
    {
      "zip": "04743",
      "city": "Fort Kent",
      "name": "Knights of Columbus Hall",
      "state": "ME",
      "latitude": 47.2767531000000005,
      "precinct": "ME_AROOSTOOK_FORT KENT_1-5",
      "longitude": -68.5844775000000055,
      "address_line_1": "372 Frenchville Road",
      "address_line_2": null
    },
    {
      "zip": "04746",
      "city": "Grand Isle",
      "name": "Grand Isle Town Office - Meeting Room",
      "state": "ME",
      "latitude": 47.308134299999999,
      "precinct": "ME_AROOSTOOK_GRAND ISLE_1-1",
      "longitude": -68.1539700000000011,
      "address_line_1": "366 Main Street",
      "address_line_2": null
    },
    {
      "zip": "04730",
      "city": "Hodgdon",
      "name": "Hodgdon Fire Department",
      "state": "ME",
      "latitude": 46.0594863999999973,
      "precinct": "ME_AROOSTOOK_HODGDON_1-1",
      "longitude": -67.8541969000000051,
      "address_line_1": "49 Hodgdon Mills Road",
      "address_line_2": null
    },
    {
      "zip": "04730",
      "city": "Ludlow",
      "name": "Ludlow Town Office",
      "state": "ME",
      "latitude": 46.1491186000000013,
      "precinct": "ME_AROOSTOOK_LUDLOW_1-1",
      "longitude": -67.9195895999999948,
      "address_line_1": "831 Ludlow Road",
      "address_line_2": null
    },
    {
      "zip": "04732",
      "city": "Masardis",
      "name": "Masardis Municipal Building",
      "state": "ME",
      "latitude": 46.5001517999999976,
      "precinct": "ME_AROOSTOOK_MASARDIS_1-1",
      "longitude": -68.3621128999999996,
      "address_line_1": "26 School Street",
      "address_line_2": null
    },
    {
      "zip": "04743",
      "city": "New Canada",
      "name": "New Canada Town Office",
      "state": "ME",
      "latitude": 47.1893316999999968,
      "precinct": "ME_AROOSTOOK_NEW CANADA_1-1",
      "longitude": -68.4735923000000071,
      "address_line_1": "1809 Caribou Road",
      "address_line_2": null
    },
    {
      "zip": "04762",
      "city": "New Sweden",
      "name": "New Sweden Town Office",
      "state": "ME",
      "latitude": 46.9419796999999974,
      "precinct": "ME_AROOSTOOK_NEW SWEDEN_1-1",
      "longitude": -68.126653399999995,
      "address_line_1": "50 Station Road",
      "address_line_2": null
    },
    {
      "zip": "04471",
      "city": "Orient",
      "name": "Orient Town Office",
      "state": "ME",
      "latitude": 45.8141395999999972,
      "precinct": "ME_AROOSTOOK_ORIENT_1-1",
      "longitude": -67.8388781000000023,
      "address_line_1": "82 School House Road",
      "address_line_2": null
    },
    {
      "zip": "04768",
      "city": "Portage Lake",
      "name": "Portage Lake Municipal Building",
      "state": "ME",
      "latitude": 46.7593436000000011,
      "precinct": "ME_AROOSTOOK_PORTAGE LAKE_1-1",
      "longitude": -68.4737109999999944,
      "address_line_1": "20 School Street",
      "address_line_2": null
    },
    {
      "zip": "04776",
      "city": "Sherman",
      "name": "Sherman Town Office",
      "state": "ME",
      "latitude": 45.8689546000000021,
      "precinct": "ME_AROOSTOOK_SHERMAN_1-1",
      "longitude": -68.3839078000000029,
      "address_line_1": "36 School Street",
      "address_line_2": null
    },
    {
      "zip": "04785",
      "city": "Van Buren",
      "name": "Van Buren Community Center",
      "state": "ME",
      "latitude": 47.1690740000000019,
      "precinct": "ME_AROOSTOOK_VAN BUREN_1-1",
      "longitude": -67.9468731999999989,
      "address_line_1": "130 Champlain Street",
      "address_line_2": null
    },
    {
      "zip": "04736",
      "city": "Woodland",
      "name": "Woodland Public Highway Garage",
      "state": "ME",
      "latitude": 46.877558999999998,
      "precinct": "ME_AROOSTOOK_WOODLAND_1-1",
      "longitude": -68.1122648999999996,
      "address_line_1": "843 Woodland Center Road",
      "address_line_2": null
    },
    {
      "zip": "04011",
      "city": "Brunswick",
      "name": "Brunswick Junior High School/Coffin Elementary School",
      "state": "ME",
      "latitude": 43.9017578999999998,
      "precinct": "ME_CUMBERLAND_BRUNSWICK_7-1",
      "longitude": -69.9765868000000069,
      "address_line_1": "65 Columbia Avenue",
      "address_line_2": null
    },
    {
      "zip": "04015",
      "city": "Casco",
      "name": "Casco Community Center",
      "state": "ME",
      "latitude": 44.0044441000000006,
      "precinct": "ME_CUMBERLAND_CASCO_1-1",
      "longitude": -70.5227696000000037,
      "address_line_1": "940 Meadow Road",
      "address_line_2": null
    },
    {
      "zip": "04105",
      "city": "Falmouth",
      "name": "Falmouth High School",
      "state": "ME",
      "latitude": 43.7407905999999969,
      "precinct": "ME_CUMBERLAND_FALMOUTH_1-1",
      "longitude": -70.272773799999996,
      "address_line_1": "74 Woodville Road",
      "address_line_2": null
    },
    {
      "zip": "04101",
      "city": "Portland",
      "name": "Merrill Auditorium Rehearsal Hall",
      "state": "ME",
      "latitude": 43.6594356000000019,
      "precinct": "ME_CUMBERLAND_PORTLAND_1-45",
      "longitude": -70.2570716999999973,
      "address_line_1": "20 Myrtle Street",
      "address_line_2": null
    },
    {
      "zip": "04069",
      "city": "Pownal",
      "name": "Mallett Hall-Voting Room",
      "state": "ME",
      "latitude": 43.8929141999999999,
      "precinct": "ME_CUMBERLAND_POWNAL_1-1",
      "longitude": -70.1836401999999993,
      "address_line_1": "429 Hallowell Road",
      "address_line_2": null
    },
    {
      "zip": "04982",
      "city": "Eustis",
      "name": "Eustis Community Building",
      "state": "ME",
      "latitude": 45.1398156999999998,
      "precinct": "ME_FRANKLIN_EUSTIS_1-1",
      "longitude": -70.4367514000000057,
      "address_line_1": "88 Main Street ",
      "address_line_2": null
    },
    {
      "zip": "04938",
      "city": "Farmington",
      "name": "Community Center",
      "state": "ME",
      "latitude": 44.6599980000000016,
      "precinct": "ME_FRANKLIN_FARMINGTON_1-1",
      "longitude": -70.1459954000000039,
      "address_line_1": "157 Farmington Falls Road",
      "address_line_2": null
    },
    {
      "zip": "04955",
      "city": "New Sharon",
      "name": "Masonic Lodge - Franklin # 123",
      "state": "ME",
      "latitude": 44.6378283000000025,
      "precinct": "ME_FRANKLIN_NEW SHARON_1-1",
      "longitude": -70.0134732000000071,
      "address_line_1": "46 Mercer Road",
      "address_line_2": null
    },
    {
      "zip": "04966",
      "city": "Phillips",
      "name": "Phillips Town Office",
      "state": "ME",
      "latitude": 44.8243118999999979,
      "precinct": "ME_FRANKLIN_PHILLIPS_1-1",
      "longitude": -70.345600300000001,
      "address_line_1": "124 Main Street",
      "address_line_2": null
    },
    {
      "zip": "04285",
      "city": "Weld",
      "name": "Weld Town Hall",
      "state": "ME",
      "latitude": 44.6965278999999995,
      "precinct": "ME_FRANKLIN_WELD_1-1",
      "longitude": -70.4142798999999968,
      "address_line_1": "17 School Street",
      "address_line_2": null
    },
    {
      "zip": "04635",
      "city": "Frenchboro",
      "name": "Frenchboro Community Building",
      "state": "ME",
      "latitude": 44.1181685999999971,
      "precinct": "ME_HANCOCK_FRENCHBORO_1-1",
      "longitude": -68.3603475000000032,
      "address_line_1": "1 Executive Drive",
      "address_line_2": null
    },
    {
      "zip": "04676",
      "city": "Sedgwick",
      "name": "North Sedgwick Ridge Road Fire Station",
      "state": "ME",
      "latitude": 44.3498440999999985,
      "precinct": "ME_HANCOCK_SEDGWICK_1-1",
      "longitude": -68.6041043999999971,
      "address_line_1": "202 Sedgwick Ridge Road",
      "address_line_2": null
    },
    {
      "zip": "04681",
      "city": "Stonington",
      "name": "Stonington Town Hall - 2nd Floor Meeting Room",
      "state": "ME",
      "latitude": 44.156160100000001,
      "precinct": "ME_HANCOCK_STONINGTON_1-1",
      "longitude": -68.6647990999999962,
      "address_line_1": "32 Main Street",
      "address_line_2": null
    },
    {
      "zip": "04605",
      "city": "Waltham",
      "name": "Waltham Town Office",
      "state": "ME",
      "latitude": 44.7305093000000014,
      "precinct": "ME_HANCOCK_WALTHAM_1-1",
      "longitude": -68.3355217999999951,
      "address_line_1": "1520 Waltham Road",
      "address_line_2": null
    },
    {
      "zip": "04693",
      "city": "Winter Harbor",
      "name": "Municipal Building",
      "state": "ME",
      "latitude": 44.391633800000001,
      "precinct": "ME_HANCOCK_WINTER HARBOR_1-1",
      "longitude": -68.0870326000000006,
      "address_line_1": "20 School Street",
      "address_line_2": null
    },
    {
      "zip": "04344",
      "city": "Farmingdale",
      "name": "Hall Dale High School",
      "state": "ME",
      "latitude": 44.2662729999999982,
      "precinct": "ME_KENNEBEC_FARMINGDALE_1-1",
      "longitude": -69.8005629999999968,
      "address_line_1": "111 Maple Street",
      "address_line_2": null
    },
    {
      "zip": "04350",
      "city": "Litchfield",
      "name": "Litchfield Sportsmen's Club",
      "state": "ME",
      "latitude": 44.1659131999999985,
      "precinct": "ME_KENNEBEC_LITCHFIELD_1-1",
      "longitude": -69.9431919000000022,
      "address_line_1": "2261 Hallowell Road",
      "address_line_2": null
    },
    {
      "zip": "04841",
      "city": "Rockland",
      "name": "Flanagan Community Center",
      "state": "ME",
      "latitude": 44.1035729999999973,
      "precinct": "ME_KNOX_ROCKLAND_1-1",
      "longitude": -69.1116903000000065,
      "address_line_1": "61 Limerock Street",
      "address_line_2": null
    },
    {
      "zip": "04856",
      "city": "Rockport",
      "name": "Rockport Town Office",
      "state": "ME",
      "latitude": 44.1950856999999999,
      "precinct": "ME_KNOX_ROCKPORT_1-1",
      "longitude": -69.0890033000000017,
      "address_line_1": "101 Main Street",
      "address_line_2": null
    },
    {
      "zip": "04537",
      "city": "Boothbay",
      "name": "Boothbay Railway Village",
      "state": "ME",
      "latitude": 43.902926100000002,
      "precinct": "ME_LINCOLN_BOOTHBAY_1-1",
      "longitude": -69.6217759000000029,
      "address_line_1": "586 Wiscasset Road",
      "address_line_2": null
    },
    {
      "zip": "04564",
      "city": "Bristol",
      "name": "Bristol Consolidated School-Gymnasium",
      "state": "ME",
      "latitude": 43.9020129000000026,
      "precinct": "ME_LINCOLN_BRISTOL_1-1",
      "longitude": -69.5049614999999932,
      "address_line_1": "2153 Bristol Road",
      "address_line_2": null
    },
    {
      "zip": "04342",
      "city": "Dresden",
      "name": "Pownalborough Hall",
      "state": "ME",
      "latitude": 44.0873119000000031,
      "precinct": "ME_LINCOLN_DRESDEN_1-1",
      "longitude": -69.7719711999999959,
      "address_line_1": "314 Patterson Road",
      "address_line_2": null
    },
    {
      "zip": "04010",
      "city": "Brownfield",
      "name": "Brownfield Municipal Building",
      "state": "ME",
      "latitude": 43.9418378000000018,
      "precinct": "ME_OXFORD_BROWNFIELD_1-1",
      "longitude": -70.8948543999999998,
      "address_line_1": "82 Main Street",
      "address_line_2": null
    },
    {
      "zip": "04221",
      "city": "Canton",
      "name": "Canton Town Office",
      "state": "ME",
      "latitude": 44.4362455999999995,
      "precinct": "ME_OXFORD_CANTON_1-1",
      "longitude": -70.3081049000000036,
      "address_line_1": "94 Turner Street",
      "address_line_2": null
    },
    {
      "zip": "04275",
      "city": "Roxbury",
      "name": "Town Hall",
      "state": "ME",
      "latitude": 44.621641799999999,
      "precinct": "ME_OXFORD_ROXBURY_1-1",
      "longitude": -70.5796792999999951,
      "address_line_1": "1095 Roxbury Road",
      "address_line_2": null
    },
    {
      "zip": "04261",
      "city": "Upton",
      "name": "Ladies Aid Building",
      "state": "ME",
      "latitude": 44.6955293999999981,
      "precinct": "ME_OXFORD_UPTON_1-1",
      "longitude": -71.0103014999999971,
      "address_line_1": "23 Mill Road",
      "address_line_2": null
    },
    {
      "zip": "04219",
      "city": "Woodstock",
      "name": "Woodstock Town Office",
      "state": "ME",
      "latitude": 44.3815048000000019,
      "precinct": "ME_OXFORD_WOODSTOCK_1-1",
      "longitude": -70.6415204000000045,
      "address_line_1": "26 Monk Avenue",
      "address_line_2": null
    },
    {
      "zip": "04419",
      "city": "Carmel",
      "name": "Golden Harvest Grange Hall",
      "state": "ME",
      "latitude": 44.7989069999999998,
      "precinct": "ME_PENOBSCOT_CARMEL_1-1",
      "longitude": -69.0575560000000053,
      "address_line_1": "928 Main Road",
      "address_line_2": null
    },
    {
      "zip": "04430",
      "city": "East Millinocket",
      "name": "East Millinocket Municipal Building",
      "state": "ME",
      "latitude": 45.6256522999999987,
      "precinct": "ME_PENOBSCOT_EAST MILLINOCKET_1-1",
      "longitude": -68.5751135000000005,
      "address_line_1": "53 Main Street",
      "address_line_2": null
    },
    {
      "zip": "04448",
      "city": "Edinburg",
      "name": "Edinburg Town Building",
      "state": "ME",
      "latitude": 45.1948928999999993,
      "precinct": "ME_PENOBSCOT_EDINBURG_1-1",
      "longitude": -68.6274949000000021,
      "address_line_1": "595 Edinburg Road",
      "address_line_2": null
    },
    {
      "zip": "04449",
      "city": "Hudson",
      "name": "Hudson Town Hall",
      "state": "ME",
      "latitude": 44.9884430999999978,
      "precinct": "ME_PENOBSCOT_HUDSON_1-1",
      "longitude": -68.8789450999999957,
      "address_line_1": "2150 Hudson Road",
      "address_line_2": null
    },
    {
      "zip": "04453",
      "city": "Lagrange",
      "name": "Lagrange Town Office",
      "state": "ME",
      "latitude": 45.1677851999999973,
      "precinct": "ME_PENOBSCOT_LAGRANGE_1-1",
      "longitude": -68.8452475999999933,
      "address_line_1": "5791 Bennoch Road",
      "address_line_2": null
    },
    {
      "zip": "04460",
      "city": "Medway",
      "name": "Medway Fire Station",
      "state": "ME",
      "latitude": 45.614822199999999,
      "precinct": "ME_PENOBSCOT_MEDWAY_1-1",
      "longitude": -68.5325900999999931,
      "address_line_1": "23 Grindstone Road",
      "address_line_2": null
    },
    {
      "zip": "04461",
      "city": "Milford",
      "name": "Milford Town Hall",
      "state": "ME",
      "latitude": 44.9453383000000031,
      "precinct": "ME_PENOBSCOT_MILFORD_1-1",
      "longitude": -68.6460756999999973,
      "address_line_1": "62 Davenport Street",
      "address_line_2": null
    },
    {
      "zip": "04468",
      "city": "Old Town",
      "name": "Elks Lodges",
      "state": "ME",
      "latitude": 44.9319917999999987,
      "precinct": "ME_PENOBSCOT_OLD TOWN_5-1",
      "longitude": -68.6488310000000013,
      "address_line_1": "37 Fourth Street",
      "address_line_2": null
    },
    {
      "zip": "04488",
      "city": "Stetson",
      "name": "Stetson Town Office",
      "state": "ME",
      "latitude": 44.8966992000000005,
      "precinct": "ME_PENOBSCOT_STETSON_1-1",
      "longitude": -69.1098918999999938,
      "address_line_1": "394 Village Road",
      "address_line_2": null
    },
    {
      "zip": "04406",
      "city": "Abbot",
      "name": "Abbot Town Hall",
      "state": "ME",
      "latitude": 45.1905684999999977,
      "precinct": "ME_PISCATAQUIS_ABBOT_1-1",
      "longitude": -69.4531326999999976,
      "address_line_1": "133 Main Road",
      "address_line_2": null
    },
    {
      "zip": "04441",
      "city": "Beaver Cove",
      "name": "Beaver Cove Town Office",
      "state": "ME",
      "latitude": 45.5360070999999991,
      "precinct": "ME_PISCATAQUIS_BEAVER COVE_1-1",
      "longitude": -69.5424380000000042,
      "address_line_1": "795 Lily Bay Road",
      "address_line_2": null
    },
    {
      "zip": "04426",
      "city": "Bowerbank",
      "name": "Bowerbank Fire Station",
      "state": "ME",
      "latitude": 45.2720559999999992,
      "precinct": "ME_PISCATAQUIS_BOWERBANK_1-1",
      "longitude": -69.217021900000006,
      "address_line_1": "650 Bowerbank Road",
      "address_line_2": null
    },
    {
      "zip": "04443",
      "city": "Guilford",
      "name": "Guilford Municipal Building",
      "state": "ME",
      "latitude": 45.1666979999999967,
      "precinct": "ME_PISCATAQUIS_GUILFORD_1-1",
      "longitude": -69.3795228000000037,
      "address_line_1": "3 Park Street",
      "address_line_2": null
    },
    {
      "zip": "04443",
      "city": "Guilford",
      "name": "Guilford Town Office",
      "state": "ME",
      "latitude": 45.1666979999999967,
      "precinct": "ME_PISCATAQUIS_KINGSBURY PLT_1-1",
      "longitude": -69.3795228000000037,
      "address_line_1": "3 Park Street",
      "address_line_2": null
    },
    {
      "zip": "04462",
      "city": "Millinocket",
      "name": "Stearns High School",
      "state": "ME",
      "latitude": 45.662551999999998,
      "precinct": "ME_PISCATAQUIS_MILLINOCKET_1-2",
      "longitude": -68.7052742999999992,
      "address_line_1": "199 State Street",
      "address_line_2": null
    },
    {
      "zip": "04463",
      "city": "Milo",
      "name": "Milo Town Hall",
      "state": "ME",
      "latitude": 45.2538620999999992,
      "precinct": "ME_PISCATAQUIS_MILO_1-1",
      "longitude": -68.9859435999999988,
      "address_line_1": "6 Pleasant Street",
      "address_line_2": null
    },
    {
      "zip": "04463",
      "city": "Milo",
      "name": "Milo Town Hall",
      "state": "ME",
      "latitude": 45.2538620999999992,
      "precinct": "ME_PISCATAQUIS_ORNEVILLE TWP (with Milo)_1-1",
      "longitude": -68.9859435999999988,
      "address_line_1": "6 Pleasant Street",
      "address_line_2": null
    },
    {
      "zip": "04942",
      "city": "Wellington",
      "name": "Wellington Town Office",
      "state": "ME",
      "latitude": 45.0357764999999972,
      "precinct": "ME_PISCATAQUIS_WELLINGTON_1-1",
      "longitude": -69.595478,
      "address_line_1": "13 Harmony Road",
      "address_line_2": null
    },
    {
      "zip": "04443",
      "city": "Willimantic",
      "name": "Willimantic Town Hall",
      "state": "ME",
      "latitude": 45.3061890000000034,
      "precinct": "ME_PISCATAQUIS_WILLIMANTIC_1-1",
      "longitude": -69.408331000000004,
      "address_line_1": "2360 Elliottsville Road",
      "address_line_2": null
    },
    {
      "zip": "04287",
      "city": "Bowdoin",
      "name": "Bowdoin Central School",
      "state": "ME",
      "latitude": 44.0318699999999978,
      "precinct": "ME_SAGADAHOC_BOWDOIN_1-1",
      "longitude": -69.9348549999999989,
      "address_line_1": "1460 Main Street",
      "address_line_2": null
    },
    {
      "zip": "04548",
      "city": "Georgetown",
      "name": "Georgetown Central School",
      "state": "ME",
      "latitude": 43.8007994000000025,
      "precinct": "ME_SAGADAHOC_GEORGETOWN_1-1",
      "longitude": -69.7563954999999964,
      "address_line_1": "52 Bay Point Road",
      "address_line_2": null
    },
    {
      "zip": "04086",
      "city": "Topsham",
      "name": "Mt. Ararat High School Gymnasium",
      "state": "ME",
      "latitude": 43.9425220999999979,
      "precinct": "ME_SAGADAHOC_TOPSHAM_1-1",
      "longitude": -69.9616127999999975,
      "address_line_1": "68 Eagles Way",
      "address_line_2": null
    },
    {
      "zip": "04912",
      "city": "Athens",
      "name": "Somerset Academy Building",
      "state": "ME",
      "latitude": 44.9269807000000014,
      "precinct": "ME_SOMERSET_ATHENS_1-1",
      "longitude": -69.6716942000000046,
      "address_line_1": "26 Academy Street",
      "address_line_2": null
    },
    {
      "zip": "04942",
      "city": "Harmony",
      "name": "Harmony Elementary School",
      "state": "ME",
      "latitude": 44.9768192000000013,
      "precinct": "ME_SOMERSET_HARMONY_1-1",
      "longitude": -69.5483018000000044,
      "address_line_1": "18 Main Street",
      "address_line_2": null
    },
    {
      "zip": "04920",
      "city": "Moscow",
      "name": "Moscow Town Hall",
      "state": "ME",
      "latitude": 45.0711920999999975,
      "precinct": "ME_SOMERSET_MOSCOW_1-1",
      "longitude": -69.8942614000000049,
      "address_line_1": "110 Canada Road",
      "address_line_2": null
    },
    {
      "zip": "04961",
      "city": "New Portland",
      "name": "New Portland Fire Station - Community Room",
      "state": "ME",
      "latitude": 44.9003140000000016,
      "precinct": "ME_SOMERSET_NEW PORTLAND_1-1",
      "longitude": -70.0291146999999938,
      "address_line_1": "911 River Road",
      "address_line_2": null
    },
    {
      "zip": "04976",
      "city": "Skowhegan",
      "name": "Skowhegan Municipal Building",
      "state": "ME",
      "latitude": 44.7664516000000035,
      "precinct": "ME_SOMERSET_SKOWHEGAN_1-1",
      "longitude": -69.7159111999999936,
      "address_line_1": "225 Water Street",
      "address_line_2": null
    },
    {
      "zip": "04941",
      "city": "Freedom",
      "name": "Freedom Town Office - Election Hall",
      "state": "ME",
      "latitude": 44.5262805999999998,
      "precinct": "ME_WALDO_FREEDOM_1-1",
      "longitude": -69.2944073000000031,
      "address_line_1": "71 Pleasant Street",
      "address_line_2": null
    },
    {
      "zip": "04949",
      "city": "Liberty",
      "name": "Town Office Building",
      "state": "ME",
      "latitude": 44.3924823999999987,
      "precinct": "ME_WALDO_LIBERTY_1-1",
      "longitude": -69.3081154999999995,
      "address_line_1": "7 Water Street",
      "address_line_2": null
    },
    {
      "zip": "04496",
      "city": "Winterport",
      "name": "Samuel L Wagner Middle School ",
      "state": "ME",
      "latitude": 44.6359233000000017,
      "precinct": "ME_WALDO_WINTERPORT_1-1",
      "longitude": -68.8596385000000026,
      "address_line_1": "19 Williams Way",
      "address_line_2": null
    },
    {
      "zip": "04611",
      "city": "Beals",
      "name": "Beals Town Office",
      "state": "ME",
      "latitude": 44.5194243999999983,
      "precinct": "ME_WASHINGTON_BEALS_1-1",
      "longitude": -67.6132462000000061,
      "address_line_1": "11 Big Pond Road",
      "address_line_2": null
    },
    {
      "zip": "04666",
      "city": "Charlotte",
      "name": "Charlotte Town Hall",
      "state": "ME",
      "latitude": 45.0092749000000012,
      "precinct": "ME_WASHINGTON_CHARLOTTE_1-1",
      "longitude": -67.2825739999999968,
      "address_line_1": "1092 Ayers Junction Road ",
      "address_line_2": null
    },
    {
      "zip": "04622",
      "city": "Cherryfield",
      "name": "Cherryfield Town Office Meeting Room",
      "state": "ME",
      "latitude": 44.5980281000000005,
      "precinct": "ME_WASHINGTON_CHERRYFIELD_1-1",
      "longitude": -67.9188005000000032,
      "address_line_1": "12 Municipal Way",
      "address_line_2": null
    },
    {
      "zip": "04490",
      "city": "Topsfield",
      "name": "Topsfield Municipal Building",
      "state": "ME",
      "latitude": 45.4223550999999972,
      "precinct": "ME_WASHINGTON_CODYVILLE TWP_1-1",
      "longitude": -67.7369836000000021,
      "address_line_1": "48 North Road",
      "address_line_2": null
    },
    {
      "zip": "04424",
      "city": "Danforth",
      "name": "Danforth Town Hall",
      "state": "ME",
      "latitude": 45.6584325999999976,
      "precinct": "ME_WASHINGTON_DANFORTH_1-1",
      "longitude": -67.8664207000000061,
      "address_line_1": "52 Depot Street",
      "address_line_2": null
    },
    {
      "zip": "04622",
      "city": "Deblois",
      "name": "Deblois Town Hall",
      "state": "ME",
      "latitude": 44.7402184000000034,
      "precinct": "ME_WASHINGTON_DEBLOIS_1-1",
      "longitude": -68.0199121999999932,
      "address_line_1": "8 Lane Road",
      "address_line_2": null
    },
    {
      "zip": "04628",
      "city": "Dennysville",
      "name": "Town Office and Community Center",
      "state": "ME",
      "latitude": 44.9025881000000027,
      "precinct": "ME_WASHINGTON_DENNYSVILLE_1-1",
      "longitude": -67.2280133000000006,
      "address_line_1": "2 Main Street",
      "address_line_2": null
    },
    {
      "zip": "04654",
      "city": "Marshfield",
      "name": "Marshfield Town Office",
      "state": "ME",
      "latitude": 44.734437800000002,
      "precinct": "ME_WASHINGTON_MARSHFIELD_1-1",
      "longitude": -67.4790416999999962,
      "address_line_1": "187 Northfield Road",
      "address_line_2": null
    },
    {
      "zip": "04668",
      "city": "Princeton",
      "name": "Princeton Fire Dept.",
      "state": "ME",
      "latitude": 45.2315783000000025,
      "precinct": "ME_WASHINGTON_PRINCETON_1-1",
      "longitude": -67.5620732999999944,
      "address_line_1": "16 Mill Street",
      "address_line_2": null
    },
    {
      "zip": "04668",
      "city": "Princeton",
      "name": "Princeton Fire Dept.",
      "state": "ME",
      "latitude": 45.2315783000000025,
      "precinct": "ME_WASHINGTON_PRINCETON_1-2",
      "longitude": -67.5620732999999944,
      "address_line_1": "16 Mill Street",
      "address_line_2": null
    },
    {
      "zip": "04490",
      "city": "Topsfield",
      "name": "Topsfield Municipal Building",
      "state": "ME",
      "latitude": 45.4223550999999972,
      "precinct": "ME_WASHINGTON_TOPSFIELD_1-1",
      "longitude": -67.7369836000000021,
      "address_line_1": "48 North Road",
      "address_line_2": null
    },
    {
      "zip": "04686",
      "city": "Wesley",
      "name": "Wesley Elementary School",
      "state": "ME",
      "latitude": 44.9289829000000012,
      "precinct": "ME_WASHINGTON_WESLEY_1-1",
      "longitude": -67.6647032999999993,
      "address_line_1": "13 Whining Pines Drive",
      "address_line_2": null
    },
    {
      "zip": "04210",
      "city": "Auburn ",
      "name": "Auburn Senior Community Center",
      "state": "ME",
      "latitude": 44.1090416999999988,
      "precinct": "ME_ANDROSCOGGIN_AUBURN_1-1",
      "longitude": -70.2372167999999988,
      "address_line_1": "48 Pettengill Park Road",
      "address_line_2": null
    },
    {
      "zip": "04210",
      "city": "Auburn ",
      "name": "Auburn Senior Community Center",
      "state": "ME",
      "latitude": 44.1090416999999988,
      "precinct": "ME_ANDROSCOGGIN_AUBURN_2-1",
      "longitude": -70.2372167999999988,
      "address_line_1": "48 Pettengill Park Road",
      "address_line_2": null
    },
    {
      "zip": "04210",
      "city": "Auburn ",
      "name": "Auburn Hall Council Chambers",
      "state": "ME",
      "latitude": 44.0972700000000017,
      "precinct": "ME_ANDROSCOGGIN_AUBURN_3-1",
      "longitude": -70.2258144000000044,
      "address_line_1": "60 Court Street",
      "address_line_2": null
    },
    {
      "zip": "04210",
      "city": "Auburn ",
      "name": "Auburn Hall Council Chambers",
      "state": "ME",
      "latitude": 44.0972700000000017,
      "precinct": "ME_ANDROSCOGGIN_AUBURN_4-1",
      "longitude": -70.2258144000000044,
      "address_line_1": "60 Court Street",
      "address_line_2": null
    },
    {
      "zip": "04210",
      "city": "Auburn ",
      "name": "Boys & Girls Club",
      "state": "ME",
      "latitude": 44.0869886999999991,
      "precinct": "ME_ANDROSCOGGIN_AUBURN_5-1",
      "longitude": -70.222003799999996,
      "address_line_1": "43 Second Street",
      "address_line_2": null
    },
    {
      "zip": "04222",
      "city": "Durham ",
      "name": "Durham Community School",
      "state": "ME",
      "latitude": 43.9711004999999986,
      "precinct": "ME_ANDROSCOGGIN_DURHAM_1-1",
      "longitude": -70.1265494999999959,
      "address_line_1": "654 Hallowell Road",
      "address_line_2": null
    },
    {
      "zip": "04263",
      "city": "Leeds ",
      "name": "Leeds Town Office ",
      "state": "ME",
      "latitude": 44.3018457000000012,
      "precinct": "ME_ANDROSCOGGIN_LEEDS_1-1",
      "longitude": -70.1180200999999954,
      "address_line_1": "8 Community Drive ",
      "address_line_2": null
    },
    {
      "zip": "04240",
      "city": "Lewiston",
      "name": "The Green Ladie (at High School)",
      "state": "ME",
      "latitude": 44.0945350000000005,
      "precinct": "ME_ANDROSCOGGIN_LEWISTON_6-1",
      "longitude": -70.2003050000000002,
      "address_line_1": "156 East Street",
      "address_line_2": null
    },
    {
      "zip": "04252",
      "city": "Lisbon ",
      "name": "LHS Gym",
      "state": "ME",
      "latitude": 44.0025916000000024,
      "precinct": "ME_ANDROSCOGGIN_LISBON_1-1",
      "longitude": -70.0706887999999992,
      "address_line_1": "2 Sugg Drive",
      "address_line_2": null
    },
    {
      "zip": "04252",
      "city": "Lisbon ",
      "name": "LHS Gym",
      "state": "ME",
      "latitude": 44.0025916000000024,
      "precinct": "ME_ANDROSCOGGIN_LISBON_2-1",
      "longitude": -70.0706887999999992,
      "address_line_1": "2 Sugg Drive",
      "address_line_2": null
    },
    {
      "zip": "04253",
      "city": "Livermore ",
      "name": "Livermore Primary School",
      "state": "ME",
      "latitude": 44.438049300000003,
      "precinct": "ME_ANDROSCOGGIN_LIVERMORE_1-1",
      "longitude": -70.2020164000000051,
      "address_line_1": "107 Gibbs Mills Road",
      "address_line_2": null
    },
    {
      "zip": "04254",
      "city": "Livermore Falls ",
      "name": "Livermore Falls Fire Station",
      "state": "ME",
      "latitude": 44.4715597000000002,
      "precinct": "ME_ANDROSCOGGIN_LIVERMORE FALLS_1-1",
      "longitude": -70.183860800000005,
      "address_line_1": "29 Park Street",
      "address_line_2": null
    },
    {
      "zip": "04256",
      "city": "Mechanic Falls ",
      "name": "Mechanic Falls Municipal Bldg Gym",
      "state": "ME",
      "latitude": 44.109507899999997,
      "precinct": "ME_ANDROSCOGGIN_MECHANIC FALLS_1-1",
      "longitude": -70.3802086000000031,
      "address_line_1": "108 Lewiston Street",
      "address_line_2": null
    },
    {
      "zip": "04258",
      "city": "Minot ",
      "name": "Minot Town Office ",
      "state": "ME",
      "latitude": 44.1098949000000005,
      "precinct": "ME_ANDROSCOGGIN_MINOT_1-1",
      "longitude": -70.3295770000000005,
      "address_line_1": "329 Woodman Hill Road ",
      "address_line_2": null
    },
    {
      "zip": "04274",
      "city": "Poland ",
      "name": "Poland Town Hall ",
      "state": "ME",
      "latitude": 44.0620766999999987,
      "precinct": "ME_ANDROSCOGGIN_POLAND_1-1",
      "longitude": -70.3959380999999951,
      "address_line_1": "1223 Maine Street ",
      "address_line_2": null
    },
    {
      "zip": "04280",
      "city": "Sabattus ",
      "name": "Sabattus Town Office ",
      "state": "ME",
      "latitude": 44.1092411999999996,
      "precinct": "ME_ANDROSCOGGIN_SABATTUS_1-1",
      "longitude": -70.0883646999999996,
      "address_line_1": "190 Middle Road ",
      "address_line_2": null
    },
    {
      "zip": "04282",
      "city": "Turner ",
      "name": "Turner Town Office ",
      "state": "ME",
      "latitude": 44.2564469000000003,
      "precinct": "ME_ANDROSCOGGIN_TURNER_1-1",
      "longitude": -70.2580410999999998,
      "address_line_1": "11 Turner Center Road ",
      "address_line_2": null
    },
    {
      "zip": "04732",
      "city": "Ashland ",
      "name": "Ashland Recreation Building",
      "state": "ME",
      "latitude": 46.6306214999999966,
      "precinct": "ME_AROOSTOOK_ASHLAND_1-1",
      "longitude": -68.400471600000003,
      "address_line_1": "65 Exchange Street",
      "address_line_2": null
    },
    {
      "zip": "04734",
      "city": "Blaine ",
      "name": "Blaine Town Office ",
      "state": "ME",
      "latitude": 46.505638900000001,
      "precinct": "ME_AROOSTOOK_BLAINE_1-1",
      "longitude": -67.8679857999999996,
      "address_line_1": "52 Military Road ",
      "address_line_2": null
    },
    {
      "zip": "04750",
      "city": "Caswell ",
      "name": "Dawn F. Barnes Elementary ",
      "state": "ME",
      "latitude": 46.9791655000000006,
      "precinct": "ME_AROOSTOOK_CASWELL_1-1",
      "longitude": -67.8196247000000056,
      "address_line_1": "1025 Van Buren Road ",
      "address_line_2": null
    },
    {
      "zip": "04747",
      "city": "Dyer Brook ",
      "name": "Dyer Brook Town Office ",
      "state": "ME",
      "latitude": 46.0838557000000009,
      "precinct": "ME_AROOSTOOK_DYER BROOK_1-1",
      "longitude": -68.182855900000007,
      "address_line_1": "864 Dyer Brook Road ",
      "address_line_2": null
    },
    {
      "zip": "04739",
      "city": "Eagle Lake ",
      "name": "Municipal Building ",
      "state": "ME",
      "latitude": 47.0432728999999981,
      "precinct": "ME_AROOSTOOK_EAGLE LAKE_1-1",
      "longitude": -68.600891500000003,
      "address_line_1": "36 Devoe Brook Road ",
      "address_line_2": null
    },
    {
      "zip": "04740",
      "city": "Easton ",
      "name": "Odd Fellows Hall",
      "state": "ME",
      "latitude": 46.643104000000001,
      "precinct": "ME_AROOSTOOK_EASTON_1-1",
      "longitude": -67.9121109999999959,
      "address_line_1": "23 Station Road ",
      "address_line_2": null
    },
    {
      "zip": "04742",
      "city": "Fort Fairfield ",
      "name": "Fort Fairfield Community Center ",
      "state": "ME",
      "latitude": 46.7705938000000003,
      "precinct": "ME_AROOSTOOK_FORT FAIRFIELD_1-1",
      "longitude": -67.8362821000000054,
      "address_line_1": "18 Community Center Drive ",
      "address_line_2": null
    },
    {
      "zip": "04743",
      "city": "Fort Kent ",
      "name": "Knights of Columbus Hall",
      "state": "ME",
      "latitude": 47.2767531000000005,
      "precinct": "ME_AROOSTOOK_FORT KENT_1-1",
      "longitude": -68.5844775000000055,
      "address_line_1": "372 Frenchville Road",
      "address_line_2": null
    },
    {
      "zip": "04743",
      "city": "Fort Kent ",
      "name": "Knights of Columbus Hall",
      "state": "ME",
      "latitude": 47.2767531000000005,
      "precinct": "ME_AROOSTOOK_FORT KENT_1-2",
      "longitude": -68.5844775000000055,
      "address_line_1": "372 Frenchville Road",
      "address_line_2": null
    },
    {
      "zip": "04743",
      "city": "Fort Kent ",
      "name": "Knights of Columbus Hall",
      "state": "ME",
      "latitude": 47.2767531000000005,
      "precinct": "ME_AROOSTOOK_FORT KENT_1-3",
      "longitude": -68.5844775000000055,
      "address_line_1": "372 Frenchville Road",
      "address_line_2": null
    },
    {
      "zip": "04743",
      "city": "Fort Kent ",
      "name": "Knights of Columbus Hall",
      "state": "ME",
      "latitude": 47.2767531000000005,
      "precinct": "ME_AROOSTOOK_FORT KENT_1-4",
      "longitude": -68.5844775000000055,
      "address_line_1": "372 Frenchville Road",
      "address_line_2": null
    },
    {
      "zip": "04745",
      "city": "Frenchville ",
      "name": "Frenchville Town Office",
      "state": "ME",
      "latitude": 47.2791290999999987,
      "precinct": "ME_AROOSTOOK_FRENCHVILLE_1-1",
      "longitude": -68.3828677000000056,
      "address_line_1": "285 US Route 1",
      "address_line_2": null
    },
    {
      "zip": "04732",
      "city": "Garfield Plt",
      "name": "Garfield Town Garage",
      "state": "ME",
      "latitude": 46.604915400000003,
      "precinct": "ME_AROOSTOOK_GARFIELD PLT_1-1",
      "longitude": -68.4593809999999934,
      "address_line_1": "10 Cross Road",
      "address_line_2": null
    },
    {
      "zip": "04785",
      "city": "Hamlin ",
      "name": "Roosevelt School ",
      "state": "ME",
      "latitude": 47.1191496000000001,
      "precinct": "ME_AROOSTOOK_HAMLIN_1-1",
      "longitude": -67.8926301000000052,
      "address_line_1": "588 Hamlin Road ",
      "address_line_2": null
    },
    {
      "zip": "04497",
      "city": "Haynesville ",
      "name": "Haynesville Town Office ",
      "state": "ME",
      "latitude": 45.8259377999999984,
      "precinct": "ME_AROOSTOOK_HAYNESVILLE_1-1",
      "longitude": -67.9882474999999999,
      "address_line_1": "16 Danforth Road ",
      "address_line_2": null
    },
    {
      "zip": "04765",
      "city": "Patten ",
      "name": "Patten Fire Station",
      "state": "ME",
      "latitude": 45.995539100000002,
      "precinct": "ME_AROOSTOOK_HERSEY_1-1",
      "longitude": -68.4486691000000036,
      "address_line_1": "27 Dearborn Street ",
      "address_line_2": null
    },
    {
      "zip": "04730",
      "city": "Houlton ",
      "name": "Gentle Memorial Building ",
      "state": "ME",
      "latitude": 46.1261337999999981,
      "precinct": "ME_AROOSTOOK_HOULTON_1-1",
      "longitude": -67.8340390000000042,
      "address_line_1": "128 Main Street ",
      "address_line_2": null
    },
    {
      "zip": "04747",
      "city": "Island Falls ",
      "name": "Island Falls Municipal Office ",
      "state": "ME",
      "latitude": 46.0098528999999985,
      "precinct": "ME_AROOSTOOK_ISLAND FALLS_1-1",
      "longitude": -68.2653490999999946,
      "address_line_1": "68 Houlton Road ",
      "address_line_2": null
    },
    {
      "zip": "04750",
      "city": "Limestone ",
      "name": "Limestone Municipal Building ",
      "state": "ME",
      "latitude": 46.9060550000000021,
      "precinct": "ME_AROOSTOOK_LIMESTONE_1-1",
      "longitude": -67.8260594000000054,
      "address_line_1": "93 Main Street",
      "address_line_2": null
    },
    {
      "zip": "04730",
      "city": "Linneus ",
      "name": "Linneus Fire Department Community Bldg",
      "state": "ME",
      "latitude": 46.0362331999999981,
      "precinct": "ME_AROOSTOOK_LINNEUS_1-1",
      "longitude": -67.9619067000000001,
      "address_line_1": "1811 Bangor Road",
      "address_line_2": null
    },
    {
      "zip": "04730",
      "city": "Littleton",
      "name": "Littleton Town Office",
      "state": "ME",
      "latitude": 46.2316081000000025,
      "precinct": "ME_AROOSTOOK_LITTLETON_1-1",
      "longitude": -67.8413072999999969,
      "address_line_1": "1536 US Highway 1",
      "address_line_2": null
    },
    {
      "zip": "04451",
      "city": "Macwahoc Plt ",
      "name": "Macwahoc Town Office ",
      "state": "ME",
      "latitude": 45.6265451000000013,
      "precinct": "ME_AROOSTOOK_MACWAHOC PLT_1-1",
      "longitude": -68.259080400000002,
      "address_line_1": "48 Kingman Road ",
      "address_line_2": null
    },
    {
      "zip": "04756",
      "city": "Madawaska ",
      "name": "Madawaska Multi-Purpose Center",
      "state": "ME",
      "latitude": 47.3510940000000033,
      "precinct": "ME_AROOSTOOK_MADAWASKA_1-1",
      "longitude": -68.3263587999999942,
      "address_line_1": "160 7th Avenue",
      "address_line_2": null
    },
    {
      "zip": "04783",
      "city": "Stockholm",
      "name": "Stockholm Community Center",
      "state": "ME",
      "latitude": 47.0409791000000013,
      "precinct": "ME_AROOSTOOK_MADAWASKA LAKE_1-1",
      "longitude": -68.133387600000006,
      "address_line_1": "62 School Street",
      "address_line_2": null
    },
    {
      "zip": "04757",
      "city": "Mapleton ",
      "name": "Mapleton Fire Station ",
      "state": "ME",
      "latitude": 46.6874445999999992,
      "precinct": "ME_AROOSTOOK_MAPLETON_1-1",
      "longitude": -68.1481078999999994,
      "address_line_1": "117 Pulcifur Road ",
      "address_line_2": null
    },
    {
      "zip": "04757",
      "city": "Mapleton ",
      "name": "Mapleton Fire Station ",
      "state": "ME",
      "latitude": 46.6874445999999992,
      "precinct": "ME_AROOSTOOK_MAPLETON_1-2",
      "longitude": -68.1481078999999994,
      "address_line_1": "117 Pulcifur Road ",
      "address_line_2": null
    },
    {
      "zip": "04757",
      "city": "Mapleton ",
      "name": "Mapleton Fire Station ",
      "state": "ME",
      "latitude": 46.6874445999999992,
      "precinct": "ME_AROOSTOOK_MAPLETON_1-3",
      "longitude": -68.1481078999999994,
      "address_line_1": "117 Pulcifur Road ",
      "address_line_2": null
    },
    {
      "zip": "04758",
      "city": "Mars Hill ",
      "name": "Mars Hill Fire Station ",
      "state": "ME",
      "latitude": 46.5146293999999969,
      "precinct": "ME_AROOSTOOK_MARS HILL_1-1",
      "longitude": -67.8656129999999962,
      "address_line_1": "12 Market Street ",
      "address_line_2": null
    },
    {
      "zip": "04780",
      "city": "Merrill ",
      "name": "Merrill Town Office ",
      "state": "ME",
      "latitude": 46.1312150999999986,
      "precinct": "ME_AROOSTOOK_MERRILL_1-1",
      "longitude": -68.1615421999999995,
      "address_line_1": "3391 Route 2 ",
      "address_line_2": null
    },
    {
      "zip": "04760",
      "city": "Monticello ",
      "name": "Monticello Town Office ",
      "state": "ME",
      "latitude": 46.3074487000000019,
      "precinct": "ME_AROOSTOOK_MONTICELLO_1-1",
      "longitude": -67.8409431000000041,
      "address_line_1": "405 US Highway 1 ",
      "address_line_2": null
    },
    {
      "zip": "04761",
      "city": "New Limerick ",
      "name": "New Limerick Town Office ",
      "state": "ME",
      "latitude": 46.1023576999999989,
      "precinct": "ME_AROOSTOOK_NEW LIMERICK_1-1",
      "longitude": -67.9614269000000064,
      "address_line_1": "11 Old Station Road ",
      "address_line_2": null
    },
    {
      "zip": "04763",
      "city": "Oakfield ",
      "name": "Oakfield Town Office ",
      "state": "ME",
      "latitude": 46.1045951999999986,
      "precinct": "ME_AROOSTOOK_OAKFIELD_1-1",
      "longitude": -68.1504096000000033,
      "address_line_1": "80 School Street ",
      "address_line_2": null
    },
    {
      "zip": "04766",
      "city": "Perham ",
      "name": "Perham Town Office ",
      "state": "ME",
      "latitude": 46.8777401999999981,
      "precinct": "ME_AROOSTOOK_PERHAM_1-1",
      "longitude": -68.2410023000000052,
      "address_line_1": "206 High Meadow Road ",
      "address_line_2": null
    },
    {
      "zip": "04769",
      "city": "Presque Isle ",
      "name": "Sargent Community Center",
      "state": "ME",
      "latitude": 46.6774689000000009,
      "precinct": "ME_AROOSTOOK_PRESQUE ISLE_1-3",
      "longitude": -68.0193938999999972,
      "address_line_1": "24 Chapman Road",
      "address_line_2": null
    },
    {
      "zip": "04769",
      "city": "Presque Isle ",
      "name": "Sargent Community Center",
      "state": "ME",
      "latitude": 46.6774689000000009,
      "precinct": "ME_AROOSTOOK_PRESQUE ISLE_1-4",
      "longitude": -68.0193938999999972,
      "address_line_1": "24 Chapman Road",
      "address_line_2": null
    },
    {
      "zip": "04769",
      "city": "Presque Isle ",
      "name": "Sargent Community Center",
      "state": "ME",
      "latitude": 46.6774689000000009,
      "precinct": "ME_AROOSTOOK_PRESQUE ISLE_1-5",
      "longitude": -68.0193938999999972,
      "address_line_1": "24 Chapman Road",
      "address_line_2": null
    },
    {
      "zip": "04769",
      "city": "Presque Isle ",
      "name": "Sargent Community Center",
      "state": "ME",
      "latitude": 46.6774689000000009,
      "precinct": "ME_AROOSTOOK_PRESQUE ISLE_1-6",
      "longitude": -68.0193938999999972,
      "address_line_1": "24 Chapman Road",
      "address_line_2": null
    },
    {
      "zip": "04769",
      "city": "Presque Isle ",
      "name": "Sargent Community Center",
      "state": "ME",
      "latitude": 46.6774689000000009,
      "precinct": "ME_AROOSTOOK_PRESQUE ISLE_1-7",
      "longitude": -68.0193938999999972,
      "address_line_1": "24 Chapman Road",
      "address_line_2": null
    },
    {
      "zip": "04769",
      "city": "Presque Isle ",
      "name": "Sargent Community Center",
      "state": "ME",
      "latitude": 46.6774689000000009,
      "precinct": "ME_AROOSTOOK_PRESQUE ISLE_1-8",
      "longitude": -68.0193938999999972,
      "address_line_1": "24 Chapman Road",
      "address_line_2": null
    },
    {
      "zip": "04769",
      "city": "Presque Isle ",
      "name": "Sargent Community Center",
      "state": "ME",
      "latitude": 46.6774689000000009,
      "precinct": "ME_AROOSTOOK_PRESQUE ISLE_1-9",
      "longitude": -68.0193938999999972,
      "address_line_1": "24 Chapman Road",
      "address_line_2": null
    },
    {
      "zip": "04769",
      "city": "Presque Isle ",
      "name": "Sargent Community Center",
      "state": "ME",
      "latitude": 46.6774689000000009,
      "precinct": "ME_AROOSTOOK_PRESQUE ISLE_2-4",
      "longitude": -68.0193938999999972,
      "address_line_1": "24 Chapman Road",
      "address_line_2": null
    },
    {
      "zip": "04769",
      "city": "Presque Isle ",
      "name": "Sargent Community Center",
      "state": "ME",
      "latitude": 46.6774689000000009,
      "precinct": "ME_AROOSTOOK_PRESQUE ISLE_2-5",
      "longitude": -68.0193938999999972,
      "address_line_1": "24 Chapman Road",
      "address_line_2": null
    },
    {
      "zip": "04769",
      "city": "Presque Isle ",
      "name": "Sargent Community Center",
      "state": "ME",
      "latitude": 46.6774689000000009,
      "precinct": "ME_AROOSTOOK_PRESQUE ISLE_1-10",
      "longitude": -68.0193938999999972,
      "address_line_1": "24 Chapman Road",
      "address_line_2": null
    },
    {
      "zip": "04769",
      "city": "Presque Isle ",
      "name": "Sargent Community Center",
      "state": "ME",
      "latitude": 46.6774689000000009,
      "precinct": "ME_AROOSTOOK_PRESQUE ISLE_1-11",
      "longitude": -68.0193938999999972,
      "address_line_1": "24 Chapman Road",
      "address_line_2": null
    },
    {
      "zip": "04769",
      "city": "Presque Isle ",
      "name": "Sargent Community Center",
      "state": "ME",
      "latitude": 46.6774689000000009,
      "precinct": "ME_AROOSTOOK_PRESQUE ISLE_1-12",
      "longitude": -68.0193938999999972,
      "address_line_1": "24 Chapman Road",
      "address_line_2": null
    },
    {
      "zip": "04769",
      "city": "Presque Isle ",
      "name": "Sargent Community Center",
      "state": "ME",
      "latitude": 46.6774689000000009,
      "precinct": "ME_AROOSTOOK_PRESQUE ISLE_1-13",
      "longitude": -68.0193938999999972,
      "address_line_1": "24 Chapman Road",
      "address_line_2": null
    },
    {
      "zip": "04769",
      "city": "Presque Isle ",
      "name": "Sargent Community Center",
      "state": "ME",
      "latitude": 46.6774689000000009,
      "precinct": "ME_AROOSTOOK_PRESQUE ISLE_1-14",
      "longitude": -68.0193938999999972,
      "address_line_1": "24 Chapman Road",
      "address_line_2": null
    },
    {
      "zip": "04769",
      "city": "Presque Isle ",
      "name": "Sargent Community Center",
      "state": "ME",
      "latitude": 46.6774689000000009,
      "precinct": "ME_AROOSTOOK_PRESQUE ISLE_1-15",
      "longitude": -68.0193938999999972,
      "address_line_1": "24 Chapman Road",
      "address_line_2": null
    },
    {
      "zip": "04769",
      "city": "Presque Isle ",
      "name": "Sargent Community Center",
      "state": "ME",
      "latitude": 46.6774689000000009,
      "precinct": "ME_AROOSTOOK_PRESQUE ISLE_1-16",
      "longitude": -68.0193938999999972,
      "address_line_1": "24 Chapman Road",
      "address_line_2": null
    },
    {
      "zip": "04769",
      "city": "Presque Isle ",
      "name": "Sargent Community Center",
      "state": "ME",
      "latitude": 46.6774689000000009,
      "precinct": "ME_AROOSTOOK_PRESQUE ISLE_2-17",
      "longitude": -68.0193938999999972,
      "address_line_1": "24 Chapman Road",
      "address_line_2": null
    },
    {
      "zip": "04497",
      "city": "Reed Plt",
      "name": "School House (Town Office Building)",
      "state": "ME",
      "latitude": 45.6414250999999993,
      "precinct": "ME_AROOSTOOK_REED PLT_1-1",
      "longitude": -68.0783332999999971,
      "address_line_1": "8 Springer Road",
      "address_line_2": null
    },
    {
      "zip": "04772",
      "city": "St. Agatha",
      "name": "Knights of Columbus # 7920",
      "state": "ME",
      "latitude": 47.2432455000000004,
      "precinct": "ME_AROOSTOOK_SAINT AGATHA_1-1",
      "longitude": -68.3104095000000058,
      "address_line_1": "403 Main Street",
      "address_line_2": null
    },
    {
      "zip": "04774",
      "city": "St. Francis ",
      "name": "Saint Francis Community Center",
      "state": "ME",
      "latitude": 47.1693884999999966,
      "precinct": "ME_AROOSTOOK_SAINT FRANCIS_1-1",
      "longitude": -68.8966273000000058,
      "address_line_1": "857 Main Street",
      "address_line_2": null
    },
    {
      "zip": "04743",
      "city": "St. John Plt",
      "name": "Saint John Plt Community Center ",
      "state": "ME",
      "latitude": 47.2219545000000025,
      "precinct": "ME_AROOSTOOK_SAINT JOHN PLT_1-1",
      "longitude": -68.7545604999999966,
      "address_line_1": "1774 St. John Road",
      "address_line_2": null
    },
    {
      "zip": "04772",
      "city": "St. Agatha",
      "name": "Saint Agatha Town Office",
      "state": "ME",
      "latitude": 47.2428421999999983,
      "precinct": "ME_AROOSTOOK_SINCLAIR_1-1",
      "longitude": -68.3086128000000059,
      "address_line_1": "419 Main Street",
      "address_line_2": null
    },
    {
      "zip": "04780",
      "city": "Smyrna ",
      "name": "Smyrna Town Office ",
      "state": "ME",
      "latitude": 46.1312150999999986,
      "precinct": "ME_AROOSTOOK_SMYRNA_1-1",
      "longitude": -68.1615421999999995,
      "address_line_1": "3391 Route 2 ",
      "address_line_2": null
    },
    {
      "zip": "04783",
      "city": "Stockholm",
      "name": "Stockholm Town Office",
      "state": "ME",
      "latitude": 47.0409791000000013,
      "precinct": "ME_AROOSTOOK_STOCKHOLM_1-1",
      "longitude": -68.133387600000006,
      "address_line_1": "62 School Street",
      "address_line_2": null
    },
    {
      "zip": "04781",
      "city": "Wallagrass ",
      "name": "Wallagrass Municipal Building",
      "state": "ME",
      "latitude": 47.1583036000000035,
      "precinct": "ME_AROOSTOOK_WALLAGRASS_1-1",
      "longitude": -68.5708130999999952,
      "address_line_1": "45 Church Street",
      "address_line_2": null
    },
    {
      "zip": "04786",
      "city": "Washburn ",
      "name": "Washburn Civic Center and Town Office ",
      "state": "ME",
      "latitude": 46.7901072000000013,
      "precinct": "ME_AROOSTOOK_WASHBURN_1-1",
      "longitude": -68.1562844000000041,
      "address_line_1": "1287 Main Street ",
      "address_line_2": null
    },
    {
      "zip": "04769",
      "city": "Preques Isle",
      "name": "Aroostook Shrine Building",
      "state": "ME",
      "latitude": 46.6133379999999988,
      "precinct": "ME_AROOSTOOK_WESTFIELD_1-1",
      "longitude": -67.9789209999999997,
      "address_line_1": "390 Houlton Road",
      "address_line_2": null
    },
    {
      "zip": "04424",
      "city": "Weston ",
      "name": "Weston Town Office ",
      "state": "ME",
      "latitude": 45.7339930999999993,
      "precinct": "ME_AROOSTOOK_WESTON_1-1",
      "longitude": -67.8759112999999985,
      "address_line_1": "5 Church Lane ",
      "address_line_2": null
    },
    {
      "zip": "04739",
      "city": "Winterville Plt",
      "name": "Winterville Plantation Office ",
      "state": "ME",
      "latitude": 46.9625204999999966,
      "precinct": "ME_AROOSTOOK_WINTERVILLE PLT_1-1",
      "longitude": -68.6086415000000045,
      "address_line_1": "391 Quimby Road ",
      "address_line_2": null
    },
    {
      "zip": "04091",
      "city": "West Baldwin ",
      "name": "Baldwin Town Office",
      "state": "ME",
      "latitude": 43.8083507999999995,
      "precinct": "ME_CUMBERLAND_BALDWIN_1-1",
      "longitude": -70.7228226999999947,
      "address_line_1": "534 Pequawket Trail ",
      "address_line_2": null
    },
    {
      "zip": "04009",
      "city": "Bridgton ",
      "name": "Bridgton Town Hall ",
      "state": "ME",
      "latitude": 44.054715299999998,
      "precinct": "ME_CUMBERLAND_BRIDGTON_1-1",
      "longitude": -70.716672200000005,
      "address_line_1": "26 North High Street ",
      "address_line_2": null
    },
    {
      "zip": "04011",
      "city": "Brunswick ",
      "name": "Brunswick Junior High School/Coffin Elementary School",
      "state": "ME",
      "latitude": 43.9017578999999998,
      "precinct": "ME_CUMBERLAND_BRUNSWICK_1-1",
      "longitude": -69.9765868000000069,
      "address_line_1": "65 Columbia Avenue ",
      "address_line_2": null
    },
    {
      "zip": "04011",
      "city": "Brunswick ",
      "name": "Brunswick Junior High School/Coffin Elementary School",
      "state": "ME",
      "latitude": 43.9017578999999998,
      "precinct": "ME_CUMBERLAND_BRUNSWICK_1-2",
      "longitude": -69.9765868000000069,
      "address_line_1": "65 Columbia Avenue ",
      "address_line_2": null
    },
    {
      "zip": "04011",
      "city": "Brunswick ",
      "name": "Brunswick Junior High School/Coffin Elementary School",
      "state": "ME",
      "latitude": 43.9017578999999998,
      "precinct": "ME_CUMBERLAND_BRUNSWICK_2-1",
      "longitude": -69.9765868000000069,
      "address_line_1": "65 Columbia Avenue ",
      "address_line_2": null
    },
    {
      "zip": "04011",
      "city": "Brunswick ",
      "name": "Brunswick Junior High School/Coffin Elementary School",
      "state": "ME",
      "latitude": 43.9017578999999998,
      "precinct": "ME_CUMBERLAND_BRUNSWICK_2-2",
      "longitude": -69.9765868000000069,
      "address_line_1": "65 Columbia Avenue ",
      "address_line_2": null
    },
    {
      "zip": "04011",
      "city": "Brunswick ",
      "name": "Brunswick Junior High School/Coffin Elementary School",
      "state": "ME",
      "latitude": 43.9017578999999998,
      "precinct": "ME_CUMBERLAND_BRUNSWICK_3-1",
      "longitude": -69.9765868000000069,
      "address_line_1": "65 Columbia Avenue ",
      "address_line_2": null
    },
    {
      "zip": "04011",
      "city": "Brunswick ",
      "name": "Brunswick Junior High School/Coffin Elementary School",
      "state": "ME",
      "latitude": 43.9017578999999998,
      "precinct": "ME_CUMBERLAND_BRUNSWICK_3-2",
      "longitude": -69.9765868000000069,
      "address_line_1": "65 Columbia Avenue ",
      "address_line_2": null
    },
    {
      "zip": "04011",
      "city": "Brunswick ",
      "name": "Brunswick Junior High School/Coffin Elementary School",
      "state": "ME",
      "latitude": 43.9017578999999998,
      "precinct": "ME_CUMBERLAND_BRUNSWICK_4-1",
      "longitude": -69.9765868000000069,
      "address_line_1": "65 Columbia Avenue ",
      "address_line_2": null
    },
    {
      "zip": "04011",
      "city": "Brunswick ",
      "name": "Brunswick Junior High School/Coffin Elementary School",
      "state": "ME",
      "latitude": 43.9017578999999998,
      "precinct": "ME_CUMBERLAND_BRUNSWICK_4-2",
      "longitude": -69.9765868000000069,
      "address_line_1": "65 Columbia Avenue ",
      "address_line_2": null
    },
    {
      "zip": "04011",
      "city": "Brunswick ",
      "name": "Brunswick Junior High School/Coffin Elementary School",
      "state": "ME",
      "latitude": 43.9017578999999998,
      "precinct": "ME_CUMBERLAND_BRUNSWICK_5-1",
      "longitude": -69.9765868000000069,
      "address_line_1": "65 Columbia Avenue ",
      "address_line_2": null
    },
    {
      "zip": "04011",
      "city": "Brunswick ",
      "name": "Brunswick Junior High School/Coffin Elementary School",
      "state": "ME",
      "latitude": 43.9017578999999998,
      "precinct": "ME_CUMBERLAND_BRUNSWICK_5-2",
      "longitude": -69.9765868000000069,
      "address_line_1": "65 Columbia Avenue ",
      "address_line_2": null
    },
    {
      "zip": "04011",
      "city": "Brunswick ",
      "name": "Brunswick Junior High School/Coffin Elementary School",
      "state": "ME",
      "latitude": 43.9017578999999998,
      "precinct": "ME_CUMBERLAND_BRUNSWICK_6-1",
      "longitude": -69.9765868000000069,
      "address_line_1": "65 Columbia Avenue ",
      "address_line_2": null
    },
    {
      "zip": "04011",
      "city": "Brunswick ",
      "name": "Brunswick Junior High School/Coffin Elementary School",
      "state": "ME",
      "latitude": 43.9017578999999998,
      "precinct": "ME_CUMBERLAND_BRUNSWICK_6-2",
      "longitude": -69.9765868000000069,
      "address_line_1": "65 Columbia Avenue ",
      "address_line_2": null
    },
    {
      "zip": "04011",
      "city": "Brunswick ",
      "name": "Brunswick Junior High School/Coffin Elementary School",
      "state": "ME",
      "latitude": 43.9017578999999998,
      "precinct": "ME_CUMBERLAND_BRUNSWICK_7-2",
      "longitude": -69.9765868000000069,
      "address_line_1": "65 Columbia Avenue ",
      "address_line_2": null
    },
    {
      "zip": "04107",
      "city": "Cape Elizabeth ",
      "name": "Cape Elizabeth High School ",
      "state": "ME",
      "latitude": 43.5911126000000024,
      "precinct": "ME_CUMBERLAND_CAPE ELIZABETH_1-1",
      "longitude": -70.2295383000000015,
      "address_line_1": "345 Ocean House Road ",
      "address_line_2": null
    },
    {
      "zip": "04021",
      "city": "Cumberland ",
      "name": "Greely High School",
      "state": "ME",
      "latitude": 43.7984713999999968,
      "precinct": "ME_CUMBERLAND_CUMBERLAND_1-1",
      "longitude": -70.2548776999999944,
      "address_line_1": "303 Main Street",
      "address_line_2": null
    },
    {
      "zip": "04032",
      "city": "Freeport ",
      "name": "Freeport High School Gymnasium",
      "state": "ME",
      "latitude": 43.8576438999999993,
      "precinct": "ME_CUMBERLAND_FREEPORT_1-1",
      "longitude": -70.1095406999999966,
      "address_line_1": "30 Holbrook Street",
      "address_line_2": null
    },
    {
      "zip": "04032",
      "city": "Freeport ",
      "name": "Freeport High School Gymnasium",
      "state": "ME",
      "latitude": 43.8576438999999993,
      "precinct": "ME_CUMBERLAND_FREEPORT_2-1",
      "longitude": -70.1095406999999966,
      "address_line_1": "30 Holbrook Street",
      "address_line_2": null
    },
    {
      "zip": "04032",
      "city": "Freeport ",
      "name": "Freeport High School Gymnasium",
      "state": "ME",
      "latitude": 43.8576438999999993,
      "precinct": "ME_CUMBERLAND_FREEPORT_3-1",
      "longitude": -70.1095406999999966,
      "address_line_1": "30 Holbrook Street",
      "address_line_2": null
    },
    {
      "zip": "04032",
      "city": "Freeport ",
      "name": "Freeport High School Gymnasium",
      "state": "ME",
      "latitude": 43.8576438999999993,
      "precinct": "ME_CUMBERLAND_FREEPORT_4-1",
      "longitude": -70.1095406999999966,
      "address_line_1": "30 Holbrook Street",
      "address_line_2": null
    },
    {
      "zip": "04071",
      "city": "Raymond ",
      "name": "Ferry Terminal",
      "state": "ME",
      "latitude": 43.8497059999999976,
      "precinct": "ME_CUMBERLAND_FRYE ISLAND_1-1",
      "longitude": -70.5089760000000041,
      "address_line_1": "7 Ferry Landing Road",
      "address_line_2": null
    },
    {
      "zip": "04038",
      "city": "Gorham ",
      "name": "Gorham Middle School",
      "state": "ME",
      "latitude": 43.6651637000000008,
      "precinct": "ME_CUMBERLAND_GORHAM_1-1",
      "longitude": -70.4430892999999969,
      "address_line_1": "106 Weeks Road",
      "address_line_2": null
    },
    {
      "zip": "04038",
      "city": "Gorham ",
      "name": "Great Falls Elementary School",
      "state": "ME",
      "latitude": 43.7348587999999978,
      "precinct": "ME_CUMBERLAND_GORHAM_1-2",
      "longitude": -70.4320160999999985,
      "address_line_1": "73 Justice Way",
      "address_line_2": null
    },
    {
      "zip": "04038",
      "city": "Gorham ",
      "name": "Gorham High School",
      "state": "ME",
      "latitude": 43.6749512000000024,
      "precinct": "ME_CUMBERLAND_GORHAM_2-1",
      "longitude": -70.4457404000000054,
      "address_line_1": "41 Morrill Avenue",
      "address_line_2": null
    },
    {
      "zip": "04039",
      "city": "Gray ",
      "name": "Newbegin Gym",
      "state": "ME",
      "latitude": 43.8876023999999987,
      "precinct": "ME_CUMBERLAND_GRAY_1-1",
      "longitude": -70.328535500000001,
      "address_line_1": "22 Main Street ",
      "address_line_2": null
    },
    {
      "zip": "04079",
      "city": "Harpswell ",
      "name": "Harpswell Community School",
      "state": "ME",
      "latitude": 43.8379005999999976,
      "precinct": "ME_CUMBERLAND_HARPSWELL_1-1",
      "longitude": -69.9130169000000024,
      "address_line_1": "308 Harpswell Islands Road",
      "address_line_2": null
    },
    {
      "zip": "04079",
      "city": "Harpswell ",
      "name": "Harpswell Community School",
      "state": "ME",
      "latitude": 43.8379005999999976,
      "precinct": "ME_CUMBERLAND_HARPSWELL_2-1",
      "longitude": -69.9130169000000024,
      "address_line_1": "308 Harpswell Islands Road",
      "address_line_2": null
    },
    {
      "zip": "04079",
      "city": "Harpswell ",
      "name": "Harpswell Community School",
      "state": "ME",
      "latitude": 43.8379005999999976,
      "precinct": "ME_CUMBERLAND_HARPSWELL_3-1",
      "longitude": -69.9130169000000024,
      "address_line_1": "308 Harpswell Islands Road",
      "address_line_2": null
    },
    {
      "zip": "04040",
      "city": "Harrison ",
      "name": "Harrison Town Office - Meeting Room",
      "state": "ME",
      "latitude": 44.1090820000000008,
      "precinct": "ME_CUMBERLAND_HARRISON_1-1",
      "longitude": -70.6793150000000026,
      "address_line_1": "20 Front Street ",
      "address_line_2": null
    },
    {
      "zip": "04050",
      "city": "Long Island ",
      "name": "Long Island Community Center",
      "state": "ME",
      "latitude": 43.6907787000000027,
      "precinct": "ME_CUMBERLAND_LONG ISLAND_1-1",
      "longitude": -70.1652268999999933,
      "address_line_1": "77 Wharf Street ",
      "address_line_2": null
    },
    {
      "zip": "04055",
      "city": "Naples ",
      "name": "Naples Municipal Office Gymnasium",
      "state": "ME",
      "latitude": 43.9707397999999969,
      "precinct": "ME_CUMBERLAND_NAPLES_1-1",
      "longitude": -70.6108985999999987,
      "address_line_1": "15 Village Green Lane ",
      "address_line_2": null
    },
    {
      "zip": "04260",
      "city": "New Gloucester ",
      "name": "New Gloucester Fire Station",
      "state": "ME",
      "latitude": 43.9620114000000015,
      "precinct": "ME_CUMBERLAND_NEW GLOUCESTER_1-1",
      "longitude": -70.299832600000002,
      "address_line_1": "611 Lewiston Road",
      "address_line_2": null
    },
    {
      "zip": "04097",
      "city": "North Yarmouth ",
      "name": "Wescustogo Hall & Community Center",
      "state": "ME",
      "latitude": 43.8348920999999976,
      "precinct": "ME_CUMBERLAND_NORTH YARMOUTH_1-1",
      "longitude": -70.2469459000000001,
      "address_line_1": "120 Memorial Highway",
      "address_line_2": null
    },
    {
      "zip": "04101",
      "city": "Portland ",
      "name": "East End Elementary School ",
      "state": "ME",
      "latitude": 43.6712168999999975,
      "precinct": "ME_CUMBERLAND_PORTLAND_1-1",
      "longitude": -70.2540886999999969,
      "address_line_1": "195 North Street ",
      "address_line_2": null
    },
    {
      "zip": "04101",
      "city": "Portland ",
      "name": "City Hall",
      "state": "ME",
      "latitude": 43.6596535999999986,
      "precinct": "ME_CUMBERLAND_PORTLAND_1-2",
      "longitude": -70.2574764000000016,
      "address_line_1": "389 Congress Avenue Room 24",
      "address_line_2": null
    },
    {
      "zip": "04108",
      "city": "Peaks Island",
      "name": "Peaks Island Community Center",
      "state": "ME",
      "latitude": 43.6583394000000027,
      "precinct": "ME_CUMBERLAND_PORTLAND_1-3",
      "longitude": -70.1983239999999995,
      "address_line_1": "129 Island Avenue",
      "address_line_2": null
    },
    {
      "zip": "04102",
      "city": "Portland ",
      "name": "Reiche Elementary School ",
      "state": "ME",
      "latitude": 43.6502392000000015,
      "precinct": "ME_CUMBERLAND_PORTLAND_2-1",
      "longitude": -70.2676734000000067,
      "address_line_1": "166 Brackett Street ",
      "address_line_2": null
    },
    {
      "zip": "04102",
      "city": "Portland ",
      "name": "Exposition Building ",
      "state": "ME",
      "latitude": 43.6562886999999975,
      "precinct": "ME_CUMBERLAND_PORTLAND_2-2",
      "longitude": -70.277263199999993,
      "address_line_1": "239 Park Avenue ",
      "address_line_2": null
    },
    {
      "zip": "04103",
      "city": "Portland ",
      "name": "Woodfords Club",
      "state": "ME",
      "latitude": 43.6711175000000011,
      "precinct": "ME_CUMBERLAND_PORTLAND_3-1",
      "longitude": -70.286001799999994,
      "address_line_1": "179 Woodford Street",
      "address_line_2": null
    },
    {
      "zip": "04102",
      "city": "Portland ",
      "name": "Italian Heritage Center ",
      "state": "ME",
      "latitude": 43.656662500000003,
      "precinct": "ME_CUMBERLAND_PORTLAND_3-2",
      "longitude": -70.2965197999999987,
      "address_line_1": "40 Westland Avenue ",
      "address_line_2": null
    },
    {
      "zip": "04103",
      "city": "Portland ",
      "name": "St. Pius Church ",
      "state": "ME",
      "latitude": 43.6851564999999979,
      "precinct": "ME_CUMBERLAND_PORTLAND_4-1",
      "longitude": -70.2717056000000042,
      "address_line_1": "492 Ocean Avenue ",
      "address_line_2": null
    },
    {
      "zip": "04103",
      "city": "Portland ",
      "name": "First Baptist Church ",
      "state": "ME",
      "latitude": 43.6901425000000003,
      "precinct": "ME_CUMBERLAND_PORTLAND_4-2",
      "longitude": -70.2792898000000008,
      "address_line_1": "360 Canco Road ",
      "address_line_2": null
    },
    {
      "zip": "04103",
      "city": "Portland ",
      "name": "Deering High School Gymnasium",
      "state": "ME",
      "latitude": 43.6720199000000022,
      "precinct": "ME_CUMBERLAND_PORTLAND_5-1",
      "longitude": -70.2957902999999931,
      "address_line_1": "370 Stevens Avenue",
      "address_line_2": null
    },
    {
      "zip": "04103",
      "city": "Portland ",
      "name": "Grace Baptist Church ",
      "state": "ME",
      "latitude": 43.717934200000002,
      "precinct": "ME_CUMBERLAND_PORTLAND_5-2",
      "longitude": -70.2960218000000054,
      "address_line_1": "476 Summit Street ",
      "address_line_2": null
    },
    {
      "zip": "04071",
      "city": "Raymond ",
      "name": "Jordan Small Middle School ",
      "state": "ME",
      "latitude": 43.9375,
      "precinct": "ME_CUMBERLAND_RAYMOND_1-1",
      "longitude": -70.4450319999999977,
      "address_line_1": "423 Webbs Mills Road ",
      "address_line_2": null
    },
    {
      "zip": "04074",
      "city": "Scarborough ",
      "name": "Scarbourgh High School - Alumni Gym",
      "state": "ME",
      "latitude": 43.5917906000000031,
      "precinct": "ME_CUMBERLAND_SCARBOROUGH_1-1",
      "longitude": -70.3364593000000013,
      "address_line_1": "11 Municipal Drive",
      "address_line_2": null
    },
    {
      "zip": "04029",
      "city": "Sebago ",
      "name": "Sebago Town Hall Gym",
      "state": "ME",
      "latitude": 43.8913056000000026,
      "precinct": "ME_CUMBERLAND_SEBAGO_1-1",
      "longitude": -70.6974651999999963,
      "address_line_1": "418 Bridgton Road",
      "address_line_2": null
    },
    {
      "zip": "04106",
      "city": "South Portland ",
      "name": "South Portland Boys & Girls Club ",
      "state": "ME",
      "latitude": 43.6437249000000023,
      "precinct": "ME_CUMBERLAND_SOUTH PORTLAND_1-1",
      "longitude": -70.2384347999999932,
      "address_line_1": "169 Broadway ",
      "address_line_2": null
    },
    {
      "zip": "04106",
      "city": "South Portland ",
      "name": "American Legion Hall ",
      "state": "ME",
      "latitude": 43.6373581000000001,
      "precinct": "ME_CUMBERLAND_SOUTH PORTLAND_2-1",
      "longitude": -70.2473509000000007,
      "address_line_1": "413 Broadway ",
      "address_line_2": null
    },
    {
      "zip": "04106",
      "city": "South Portland ",
      "name": "South Portland Community Center ",
      "state": "ME",
      "latitude": 43.6230189999999993,
      "precinct": "ME_CUMBERLAND_SOUTH PORTLAND_3-1",
      "longitude": -70.2708489999999983,
      "address_line_1": "21 Nelson Road ",
      "address_line_2": null
    },
    {
      "zip": "04106",
      "city": "South Portland ",
      "name": "South Portland Community Center ",
      "state": "ME",
      "latitude": 43.6230189999999993,
      "precinct": "ME_CUMBERLAND_SOUTH PORTLAND_4-1",
      "longitude": -70.2708489999999983,
      "address_line_1": "21 Nelson Road ",
      "address_line_2": null
    },
    {
      "zip": "04084",
      "city": "Standish ",
      "name": "Standish Municipal Center ",
      "state": "ME",
      "latitude": 43.7446454000000031,
      "precinct": "ME_CUMBERLAND_STANDISH_1-1",
      "longitude": -70.5404300999999947,
      "address_line_1": "175 Northeast Road ",
      "address_line_2": null
    },
    {
      "zip": "04092",
      "city": "Westbrook ",
      "name": "Westbrook Community Center",
      "state": "ME",
      "latitude": 43.6916324000000031,
      "precinct": "ME_CUMBERLAND_WESTBROOK_1-1",
      "longitude": -70.3603954000000016,
      "address_line_1": "426 Bridge Street ",
      "address_line_2": null
    },
    {
      "zip": "04092",
      "city": "Westbrook ",
      "name": "Westbrook Community Center",
      "state": "ME",
      "latitude": 43.6916324000000031,
      "precinct": "ME_CUMBERLAND_WESTBROOK_2-1",
      "longitude": -70.3603954000000016,
      "address_line_1": "426 Bridge Street ",
      "address_line_2": null
    },
    {
      "zip": "04092",
      "city": "Westbrook ",
      "name": "Westbrook Community Center",
      "state": "ME",
      "latitude": 43.6916324000000031,
      "precinct": "ME_CUMBERLAND_WESTBROOK_3-1",
      "longitude": -70.3603954000000016,
      "address_line_1": "426 Bridge Street ",
      "address_line_2": null
    },
    {
      "zip": "04092",
      "city": "Westbrook ",
      "name": "Westbrook Community Center",
      "state": "ME",
      "latitude": 43.6916324000000031,
      "precinct": "ME_CUMBERLAND_WESTBROOK_4-1",
      "longitude": -70.3603954000000016,
      "address_line_1": "426 Bridge Street ",
      "address_line_2": null
    },
    {
      "zip": "04092",
      "city": "Westbrook ",
      "name": "Westbrook Community Center",
      "state": "ME",
      "latitude": 43.6916324000000031,
      "precinct": "ME_CUMBERLAND_WESTBROOK_5-1",
      "longitude": -70.3603954000000016,
      "address_line_1": "426 Bridge Street ",
      "address_line_2": null
    },
    {
      "zip": "04062",
      "city": "Windham ",
      "name": "Windham High School Main Gym",
      "state": "ME",
      "latitude": 43.7866432000000003,
      "precinct": "ME_CUMBERLAND_WINDHAM_1-1",
      "longitude": -70.4134894999999972,
      "address_line_1": "406 Gray Road ",
      "address_line_2": null
    },
    {
      "zip": "04096",
      "city": "Yarmouth ",
      "name": "Yarmouth High School Gym",
      "state": "ME",
      "latitude": 43.7940388000000027,
      "precinct": "ME_CUMBERLAND_YARMOUTH_1-1",
      "longitude": -70.1946702000000045,
      "address_line_1": "286 West Elm Street",
      "address_line_2": null
    },
    {
      "zip": "04966",
      "city": "Avon ",
      "name": "Avon Municipal Building ",
      "state": "ME",
      "latitude": 44.8144072999999992,
      "precinct": "ME_FRANKLIN_AVON_1-1",
      "longitude": -70.3426056999999929,
      "address_line_1": "1116 Rangeley Road ",
      "address_line_2": null
    },
    {
      "zip": "04947",
      "city": "Carrabassett Valley ",
      "name": "Carrabassett Valley Town Office ",
      "state": "ME",
      "latitude": 45.0791123999999996,
      "precinct": "ME_FRANKLIN_CARRABASSETT VALLEY_1-1",
      "longitude": -70.212358100000003,
      "address_line_1": "1001 Carriage Road ",
      "address_line_2": null
    },
    {
      "zip": "04224",
      "city": "Carthage ",
      "name": "Carthage Town Office ",
      "state": "ME",
      "latitude": 44.6296529999999976,
      "precinct": "ME_FRANKLIN_CARTHAGE_1-1",
      "longitude": -70.451179499999995,
      "address_line_1": "703A Carthage Road ",
      "address_line_2": null
    },
    {
      "zip": "04938",
      "city": "Chesterville ",
      "name": "Chesterville Town Hall ",
      "state": "ME",
      "latitude": 44.5790004999999994,
      "precinct": "ME_FRANKLIN_CHESTERVILLE_1-1",
      "longitude": -70.0897789999999929,
      "address_line_1": "409 Dutch Gap Road ",
      "address_line_2": null
    },
    {
      "zip": "04970",
      "city": "Rangeley",
      "name": "Dallas Plantation Townhouse",
      "state": "ME",
      "latitude": 44.9649835999999965,
      "precinct": "ME_FRANKLIN_DALLAS PLT_1-1",
      "longitude": -70.6010730999999936,
      "address_line_1": "436 Dallas Hill Road",
      "address_line_2": null
    },
    {
      "zip": "04983",
      "city": "Strong",
      "name": "Forster Memorial Building",
      "state": "ME",
      "latitude": 44.8065580999999966,
      "precinct": "ME_FRANKLIN_FREEMAN TWP (with Strong)_1-1",
      "longitude": -70.2201969000000048,
      "address_line_1": "14 South Main Street",
      "address_line_2": null
    },
    {
      "zip": "04938",
      "city": "Industry ",
      "name": "Industry Town Hall ",
      "state": "ME",
      "latitude": 44.7095579000000001,
      "precinct": "ME_FRANKLIN_INDUSTRY_1-1",
      "longitude": -70.0864385999999939,
      "address_line_1": "1033 Industry Road ",
      "address_line_2": null
    },
    {
      "zip": "04239",
      "city": "Jay ",
      "name": "SMMS Gym",
      "state": "ME",
      "latitude": 44.493577700000003,
      "precinct": "ME_FRANKLIN_JAY_1-1",
      "longitude": -70.2007282000000004,
      "address_line_1": "23 Community Drive",
      "address_line_2": null
    },
    {
      "zip": "04947",
      "city": "Kingfield ",
      "name": "Webster Hall ",
      "state": "ME",
      "latitude": 44.9551625000000001,
      "precinct": "ME_FRANKLIN_KINGFIELD_1-1",
      "longitude": -70.1551740000000024,
      "address_line_1": "38 School Street ",
      "address_line_2": null
    },
    {
      "zip": "04956",
      "city": "New Vineyard ",
      "name": "Community Room",
      "state": "ME",
      "latitude": 44.8059817999999979,
      "precinct": "ME_FRANKLIN_NEW VINEYARD_1-1",
      "longitude": -70.1290750000000003,
      "address_line_1": "20 Lake Street",
      "address_line_2": null
    },
    {
      "zip": "04970",
      "city": "Rangeley ",
      "name": "Fire Station",
      "state": "ME",
      "latitude": 44.9694519000000028,
      "precinct": "ME_FRANKLIN_RANGELEY_1-1",
      "longitude": -70.6460093000000029,
      "address_line_1": "15 School Street",
      "address_line_2": null
    },
    {
      "zip": "04970",
      "city": "Rangeley Plt",
      "name": "Rangeley Plt School House (Town Hall)",
      "state": "ME",
      "latitude": 44.9338734000000031,
      "precinct": "ME_FRANKLIN_RANGELEY PLT_1-1",
      "longitude": -70.6589174000000071,
      "address_line_1": "293 South Shore Drive",
      "address_line_2": null
    },
    {
      "zip": "04970",
      "city": "Sandy River Plt ",
      "name": "Sandy River Plt Town Office",
      "state": "ME",
      "latitude": 44.9235374000000007,
      "precinct": "ME_FRANKLIN_SANDY RIVER PLT_1-1",
      "longitude": -70.6111819999999994,
      "address_line_1": "33 Townhall Road ",
      "address_line_2": null
    },
    {
      "zip": "04983",
      "city": "Strong",
      "name": "Forster Memorial Building",
      "state": "ME",
      "latitude": 44.8065580999999966,
      "precinct": "ME_FRANKLIN_STRONG_1-1",
      "longitude": -70.2201969000000048,
      "address_line_1": "14 South Main Street",
      "address_line_2": null
    },
    {
      "zip": "04984",
      "city": "Temple ",
      "name": "Temple Town Hall ",
      "state": "ME",
      "latitude": 44.6723821000000001,
      "precinct": "ME_FRANKLIN_TEMPLE_1-1",
      "longitude": -70.2122825999999947,
      "address_line_1": "258 Temple Road ",
      "address_line_2": null
    },
    {
      "zip": "04294",
      "city": "Wilton ",
      "name": "Wilton Town Office",
      "state": "ME",
      "latitude": 44.6006770999999986,
      "precinct": "ME_FRANKLIN_WILTON_1-1",
      "longitude": -70.2389057000000037,
      "address_line_1": "158 Weld Road ",
      "address_line_2": null
    },
    {
      "zip": "04605",
      "city": "Amherst ",
      "name": "Amherst Town Hall ",
      "state": "ME",
      "latitude": 44.8316810000000032,
      "precinct": "ME_HANCOCK_AMHERST_1-1",
      "longitude": -68.3665833000000021,
      "address_line_1": "572 Airline Road ",
      "address_line_2": null
    },
    {
      "zip": "04609",
      "city": "Bar Harbor ",
      "name": "Municipal Building Auditorium ",
      "state": "ME",
      "latitude": 44.3891822000000005,
      "precinct": "ME_HANCOCK_BAR HARBOR_1-1",
      "longitude": -68.2108742000000063,
      "address_line_1": "93 Cottage Street ",
      "address_line_2": null
    },
    {
      "zip": "04614",
      "city": "Blue Hill ",
      "name": "Blue Hill Consolidated School",
      "state": "ME",
      "latitude": 44.4147743999999989,
      "precinct": "ME_HANCOCK_BLUE HILL_1-1",
      "longitude": -68.5923810000000032,
      "address_line_1": "60 High Street",
      "address_line_2": null
    },
    {
      "zip": "04616",
      "city": "Brooklin ",
      "name": "Brooklin Town Office ",
      "state": "ME",
      "latitude": 44.2672639000000032,
      "precinct": "ME_HANCOCK_BROOKLIN_1-1",
      "longitude": -68.5675473999999952,
      "address_line_1": "23 Bay Road ",
      "address_line_2": null
    },
    {
      "zip": "04617",
      "city": "Brooksville ",
      "name": "Brooksville Municipal Building",
      "state": "ME",
      "latitude": 44.3637433999999971,
      "precinct": "ME_HANCOCK_BROOKSVILLE_1-1",
      "longitude": -68.7500351000000052,
      "address_line_1": "1 Townhouse Road",
      "address_line_2": null
    },
    {
      "zip": "04416",
      "city": "Bucksport ",
      "name": "G. H. Jewett School Gymnasium",
      "state": "ME",
      "latitude": 44.5759994000000006,
      "precinct": "ME_HANCOCK_BUCKSPORT_1-1",
      "longitude": -68.7872653999999955,
      "address_line_1": "66 Bridge Street ",
      "address_line_2": null
    },
    {
      "zip": "04421",
      "city": "Castine ",
      "name": "Emerson Hall ",
      "state": "ME",
      "latitude": 44.3892351000000005,
      "precinct": "ME_HANCOCK_CASTINE_1-1",
      "longitude": -68.7982473999999939,
      "address_line_1": "67 Court Street ",
      "address_line_2": null
    },
    {
      "zip": "04646",
      "city": "Cranberry Isles ",
      "name": "Cranberry Isles Town Office",
      "state": "ME",
      "latitude": 44.2614182000000014,
      "precinct": "ME_HANCOCK_CRANBERRY ISLES_2-1",
      "longitude": -68.2333830999999975,
      "address_line_1": "61 Main Street",
      "address_line_2": null
    },
    {
      "zip": "04429",
      "city": "Dedham ",
      "name": "Dedham Town Office",
      "state": "ME",
      "latitude": 44.7265457000000026,
      "precinct": "ME_HANCOCK_DEDHAM_1-1",
      "longitude": -68.6224332999999973,
      "address_line_1": "2073 Main Road",
      "address_line_2": null
    },
    {
      "zip": "04627",
      "city": "Deer Isle ",
      "name": "Deer Isle Municipal Building",
      "state": "ME",
      "latitude": 44.2200010000000034,
      "precinct": "ME_HANCOCK_DEER ISLE_1-1",
      "longitude": -68.6748225999999988,
      "address_line_1": "70 Church Street ",
      "address_line_2": null
    },
    {
      "zip": "04634",
      "city": "Eastbrook ",
      "name": "Charles L Yeo Community Center",
      "state": "ME",
      "latitude": 44.6800193999999991,
      "precinct": "ME_HANCOCK_EASTBROOK_1-1",
      "longitude": -68.2662365999999992,
      "address_line_1": "959 Eastbrook Road ",
      "address_line_2": null
    },
    {
      "zip": "04605",
      "city": "Ellsworth ",
      "name": "Ellsworth City Hall Auditorium ",
      "state": "ME",
      "latitude": 44.542573400000002,
      "precinct": "ME_HANCOCK_ELLSWORTH_1-1",
      "longitude": -68.4242923999999988,
      "address_line_1": "1 City Hall Plaza ",
      "address_line_2": null
    },
    {
      "zip": "04605",
      "city": "Ellsworth ",
      "name": "Your Place Community Center",
      "state": "ME",
      "latitude": 44.5630407000000019,
      "precinct": "ME_HANCOCK_ELLSWORTH_2-1",
      "longitude": -68.4400882000000053,
      "address_line_1": "4 Old Mill Road",
      "address_line_2": null
    },
    {
      "zip": "04605",
      "city": "Ellsworth ",
      "name": "Maine Coast Baptist Church Gymnasium ",
      "state": "ME",
      "latitude": 44.5964930000000024,
      "precinct": "ME_HANCOCK_ELLSWORTH_3-1",
      "longitude": -68.5052000000000021,
      "address_line_1": "867 Bangor Road ",
      "address_line_2": null
    },
    {
      "zip": "04605",
      "city": "Ellsworth ",
      "name": "Ellsworth City Hall - Council Chambers ",
      "state": "ME",
      "latitude": 44.542573400000002,
      "precinct": "ME_HANCOCK_ELLSWORTH_4-1",
      "longitude": -68.4242923999999988,
      "address_line_1": "1 City Hall Plaza ",
      "address_line_2": null
    },
    {
      "zip": "04607",
      "city": "Gouldsboro ",
      "name": "Gouldsboro Community Center ",
      "state": "ME",
      "latitude": 44.4458808999999988,
      "precinct": "ME_HANCOCK_GOULDSBORO_1-1",
      "longitude": -68.063328999999996,
      "address_line_1": "679 Pond Road",
      "address_line_2": null
    },
    {
      "zip": "04408",
      "city": "Great Pond ",
      "name": "Great Pond Town Hall ",
      "state": "ME",
      "latitude": 44.9367313999999993,
      "precinct": "ME_HANCOCK_GREAT POND_1-1",
      "longitude": -68.2799557999999962,
      "address_line_1": "1235 Great Pond Road ",
      "address_line_2": null
    },
    {
      "zip": "04640",
      "city": "Hancock ",
      "name": "Hancock Town Hall ",
      "state": "ME",
      "latitude": 44.5275936999999971,
      "precinct": "ME_HANCOCK_HANCOCK_1-1",
      "longitude": -68.2532922999999982,
      "address_line_1": "18 Point Road ",
      "address_line_2": null
    },
    {
      "zip": "04605",
      "city": "Lamoine ",
      "name": "Lamoine Town Office ",
      "state": "ME",
      "latitude": 44.5020645999999971,
      "precinct": "ME_HANCOCK_LAMOINE_1-1",
      "longitude": -68.3473146000000042,
      "address_line_1": "606 Douglas Highway ",
      "address_line_2": null
    },
    {
      "zip": "04605",
      "city": "Mariaville ",
      "name": "Mariaville Town Office ",
      "state": "ME",
      "latitude": 44.6982010999999986,
      "precinct": "ME_HANCOCK_MARIAVILLE_1-1",
      "longitude": -68.4142836999999986,
      "address_line_1": "1686 Mariaville Road ",
      "address_line_2": null
    },
    {
      "zip": "04660",
      "city": "Mount Desert ",
      "name": "Somesville Fire Station ",
      "state": "ME",
      "latitude": 44.357693900000001,
      "precinct": "ME_HANCOCK_MOUNT DESERT_1-1",
      "longitude": -68.3379991000000047,
      "address_line_1": "1157 Main Street ",
      "address_line_2": null
    },
    {
      "zip": "04472",
      "city": "Orland ",
      "name": "Orland Community Center",
      "state": "ME",
      "latitude": 44.5686991999999975,
      "precinct": "ME_HANCOCK_ORLAND_1-1",
      "longitude": -68.7358250000000055,
      "address_line_1": "21 School House Road ",
      "address_line_2": null
    },
    {
      "zip": "04254",
      "city": "Osborn",
      "name": "Emery L. Jordan Community Building",
      "state": "ME",
      "latitude": 44.4815326000000013,
      "precinct": "ME_HANCOCK_OSBORN_1-1",
      "longitude": -70.1644763999999981,
      "address_line_1": "197 Moosehill Road",
      "address_line_2": null
    },
    {
      "zip": "04605",
      "city": "Otis ",
      "name": "Otis Town Office",
      "state": "ME",
      "latitude": 44.6735681999999983,
      "precinct": "ME_HANCOCK_OTIS_1-1",
      "longitude": -68.4265285000000034,
      "address_line_1": "132 Otis Road ",
      "address_line_2": null
    },
    {
      "zip": "04476",
      "city": "Penobscot ",
      "name": "Penobscot Fire Station",
      "state": "ME",
      "latitude": 44.4967765999999969,
      "precinct": "ME_HANCOCK_PENOBSCOT_1-1",
      "longitude": -68.6813793999999973,
      "address_line_1": "46 North Penobscot Road",
      "address_line_2": null
    },
    {
      "zip": "04677",
      "city": "Sorrento ",
      "name": "Sorrento Community Building ",
      "state": "ME",
      "latitude": 44.4816319999999976,
      "precinct": "ME_HANCOCK_SORRENTO_1-1",
      "longitude": -68.1719480999999945,
      "address_line_1": "81 Pomola Avenue",
      "address_line_2": null
    },
    {
      "zip": "04679",
      "city": "Southwest Harbor ",
      "name": "Southwest Harbor Fire Station ",
      "state": "ME",
      "latitude": 44.2854740000000007,
      "precinct": "ME_HANCOCK_SOUTHWEST HARBOR_1-1",
      "longitude": -68.3281800000000032,
      "address_line_1": "250 Main Street ",
      "address_line_2": null
    },
    {
      "zip": "04664",
      "city": "Sullivan ",
      "name": "Sullivan Town Office ",
      "state": "ME",
      "latitude": 44.5263460999999978,
      "precinct": "ME_HANCOCK_SULLIVAN_1-1",
      "longitude": -68.2153773000000001,
      "address_line_1": "1888 US Highway 1 ",
      "address_line_2": null
    },
    {
      "zip": "04684",
      "city": "Surry ",
      "name": "Surry Town Office /Fire House",
      "state": "ME",
      "latitude": 44.4992990000000006,
      "precinct": "ME_HANCOCK_SURRY_1-1",
      "longitude": -68.5056641000000042,
      "address_line_1": "741 North Bend Road ",
      "address_line_2": null
    },
    {
      "zip": "04685",
      "city": "Swans Island ",
      "name": "Swans Island Town Office ",
      "state": "ME",
      "latitude": 44.1544949999999972,
      "precinct": "ME_HANCOCK_SWANS ISLAND_1-1",
      "longitude": -68.4516007000000002,
      "address_line_1": "125 Harbor Road ",
      "address_line_2": null
    },
    {
      "zip": "04605",
      "city": "Trenton ",
      "name": "Trenton Town Office ",
      "state": "ME",
      "latitude": 44.4377502000000035,
      "precinct": "ME_HANCOCK_TRENTON_1-1",
      "longitude": -68.3747036999999978,
      "address_line_1": "59 Oak Point Road ",
      "address_line_2": null
    },
    {
      "zip": "04910",
      "city": "Albion ",
      "name": "Besse Building ",
      "state": "ME",
      "latitude": 44.5327312000000006,
      "precinct": "ME_KENNEBEC_ALBION_1-1",
      "longitude": -69.4399753999999945,
      "address_line_1": "22 Main Street ",
      "address_line_2": null
    },
    {
      "zip": "04330",
      "city": "Augusta ",
      "name": "Augusta Armory",
      "state": "ME",
      "latitude": 44.3139181000000022,
      "precinct": "ME_KENNEBEC_AUGUSTA_1-1",
      "longitude": -69.7961492000000021,
      "address_line_1": "179 Western Avenue",
      "address_line_2": null
    },
    {
      "zip": "04330",
      "city": "Augusta ",
      "name": "Augusta City Center",
      "state": "ME",
      "latitude": 44.3159556000000023,
      "precinct": "ME_KENNEBEC_AUGUSTA_2-1",
      "longitude": -69.7710280000000012,
      "address_line_1": "16 Cony Street",
      "address_line_2": null
    },
    {
      "zip": "04330",
      "city": "Augusta ",
      "name": "Augusta Civic Center",
      "state": "ME",
      "latitude": 44.3425241999999997,
      "precinct": "ME_KENNEBEC_AUGUSTA_3-1",
      "longitude": -69.7990111000000013,
      "address_line_1": "76 Community Drive",
      "address_line_2": null
    },
    {
      "zip": "04330",
      "city": "Augusta ",
      "name": "Cony High School",
      "state": "ME",
      "latitude": 44.3147339000000002,
      "precinct": "ME_KENNEBEC_AUGUSTA_4-1",
      "longitude": -69.7486544000000066,
      "address_line_1": "60 Pierce Drive",
      "address_line_2": null
    },
    {
      "zip": "04917",
      "city": "Belgrade ",
      "name": "Center for All Seasons",
      "state": "ME",
      "latitude": 44.5192114000000032,
      "precinct": "ME_KENNEBEC_BELGRADE_1-1",
      "longitude": -69.8775408000000056,
      "address_line_1": "1 Center Drive",
      "address_line_2": null
    },
    {
      "zip": "04901",
      "city": "Benton ",
      "name": "Benton Town Office ",
      "state": "ME",
      "latitude": 44.5842572000000033,
      "precinct": "ME_KENNEBEC_BENTON_1-1",
      "longitude": -69.5523914999999988,
      "address_line_1": "1279 Clinton Avenue ",
      "address_line_2": null
    },
    {
      "zip": "04330",
      "city": "Chelsea ",
      "name": "Chelsea Elementary School",
      "state": "ME",
      "latitude": 44.2682331000000033,
      "precinct": "ME_KENNEBEC_CHELSEA_1-1",
      "longitude": -69.6980844999999931,
      "address_line_1": "566 Togus Road ",
      "address_line_2": null
    },
    {
      "zip": "04358",
      "city": "China ",
      "name": "China Town Office - Portable",
      "state": "ME",
      "latitude": 44.4281706000000014,
      "precinct": "ME_KENNEBEC_CHINA_1-1",
      "longitude": -69.5375123999999971,
      "address_line_1": "571 Lakeview Drive",
      "address_line_2": null
    },
    {
      "zip": "04927",
      "city": "Clinton ",
      "name": "Clinton Town Office - Banquet Hall",
      "state": "ME",
      "latitude": 44.6368085000000008,
      "precinct": "ME_KENNEBEC_CLINTON_1-1",
      "longitude": -69.5076363999999955,
      "address_line_1": "27 Baker Street ",
      "address_line_2": null
    },
    {
      "zip": "04345",
      "city": "Gardiner ",
      "name": "Gardiner Area High School",
      "state": "ME",
      "latitude": 44.2276432999999969,
      "precinct": "ME_KENNEBEC_GARDINER_1-1",
      "longitude": -69.788996400000002,
      "address_line_1": "40 West Hill Road",
      "address_line_2": null
    },
    {
      "zip": "04345",
      "city": "Gardiner ",
      "name": "Gardiner Area High School",
      "state": "ME",
      "latitude": 44.2276432999999969,
      "precinct": "ME_KENNEBEC_GARDINER_2-1",
      "longitude": -69.788996400000002,
      "address_line_1": "40 West Hill Road",
      "address_line_2": null
    },
    {
      "zip": "04345",
      "city": "Gardiner ",
      "name": "Gardiner Area High School",
      "state": "ME",
      "latitude": 44.2276432999999969,
      "precinct": "ME_KENNEBEC_GARDINER_3-1",
      "longitude": -69.788996400000002,
      "address_line_1": "40 West Hill Road",
      "address_line_2": null
    },
    {
      "zip": "04345",
      "city": "Gardiner ",
      "name": "Gardiner Area High School",
      "state": "ME",
      "latitude": 44.2276432999999969,
      "precinct": "ME_KENNEBEC_GARDINER_4-1",
      "longitude": -69.788996400000002,
      "address_line_1": "40 West Hill Road",
      "address_line_2": null
    },
    {
      "zip": "04347",
      "city": "Hallowell ",
      "name": "Hall-Dale Elementary School ",
      "state": "ME",
      "latitude": 44.2920860999999988,
      "precinct": "ME_KENNEBEC_HALLOWELL_1-1",
      "longitude": -69.8032718999999986,
      "address_line_1": "26 Garden Lane ",
      "address_line_2": null
    },
    {
      "zip": "04351",
      "city": "Manchester ",
      "name": "Manchester Fire Station ",
      "state": "ME",
      "latitude": 44.3254203999999987,
      "precinct": "ME_KENNEBEC_MANCHESTER_1-1",
      "longitude": -69.8615355999999963,
      "address_line_1": "35 Readfield Road ",
      "address_line_2": null
    },
    {
      "zip": "04259",
      "city": "Monmouth ",
      "name": "Monmouth Academy Gymnasium",
      "state": "ME",
      "latitude": 44.2506106000000017,
      "precinct": "ME_KENNEBEC_MONMOUTH_1-1",
      "longitude": -70.0369416000000058,
      "address_line_1": "96 Academy Road",
      "address_line_2": null
    },
    {
      "zip": "04963",
      "city": "Oakland ",
      "name": "Oakland Fire Station",
      "state": "ME",
      "latitude": 44.5486901000000017,
      "precinct": "ME_KENNEBEC_OAKLAND_1-1",
      "longitude": -69.7118296000000015,
      "address_line_1": "15 Fairfield Street",
      "address_line_2": null
    },
    {
      "zip": "04345",
      "city": "Pittston ",
      "name": "Pittston Town Office",
      "state": "ME",
      "latitude": 44.2237756000000033,
      "precinct": "ME_KENNEBEC_PITTSTON_1-1",
      "longitude": -69.7548161999999934,
      "address_line_1": "38 Whitefield Road ",
      "address_line_2": null
    },
    {
      "zip": "04346",
      "city": "Randolph ",
      "name": "Randolph Town Office ",
      "state": "ME",
      "latitude": 44.2317090000000022,
      "precinct": "ME_KENNEBEC_RANDOLPH_1-1",
      "longitude": -69.7525131000000016,
      "address_line_1": "121 Kinderhook Street",
      "address_line_2": null
    },
    {
      "zip": "04355",
      "city": "Readfield ",
      "name": "Kents Hill School Alfond Athletic Center",
      "state": "ME",
      "latitude": 44.4050553000000008,
      "precinct": "ME_KENNEBEC_READFIELD_1-1",
      "longitude": -70.0004444000000063,
      "address_line_1": "1617 Main Street",
      "address_line_2": null
    },
    {
      "zip": "04963",
      "city": "Rome ",
      "name": "Rome Town Office and Community Center ",
      "state": "ME",
      "latitude": 44.5778614999999974,
      "precinct": "ME_KENNEBEC_ROME_1-1",
      "longitude": -69.9000192999999967,
      "address_line_1": "8 Mercer Road ",
      "address_line_2": null
    },
    {
      "zip": "04330",
      "city": "Sidney ",
      "name": "Sidney Town Office ",
      "state": "ME",
      "latitude": 44.4463050999999965,
      "precinct": "ME_KENNEBEC_SIDNEY_1-1",
      "longitude": -69.7405894000000046,
      "address_line_1": "2986 Middle Road ",
      "address_line_2": null
    },
    {
      "zip": "04989",
      "city": "Vassalboro ",
      "name": "Vassalboro Community School",
      "state": "ME",
      "latitude": 44.4378042000000022,
      "precinct": "ME_KENNEBEC_VASSALBORO_1-1",
      "longitude": -69.6533826000000005,
      "address_line_1": "1116 Webber Pond Road",
      "address_line_2": null
    },
    {
      "zip": "04360",
      "city": "Vienna",
      "name": "Vienna Community Building",
      "state": "ME",
      "latitude": 44.5386668000000014,
      "precinct": "ME_KENNEBEC_VIENNA_1-1",
      "longitude": -69.9848858000000007,
      "address_line_1": "34 Kimball Pond Road",
      "address_line_2": null
    },
    {
      "zip": "04901",
      "city": "Waterville ",
      "name": "Waterville Junior High",
      "state": "ME",
      "latitude": 44.5290018000000032,
      "precinct": "ME_KENNEBEC_WATERVILLE_1-1",
      "longitude": -69.6606988000000058,
      "address_line_1": "100 W. River Road",
      "address_line_2": null
    },
    {
      "zip": "04901",
      "city": "Waterville ",
      "name": "Waterville Junior High",
      "state": "ME",
      "latitude": 44.5290018000000032,
      "precinct": "ME_KENNEBEC_WATERVILLE_2-1",
      "longitude": -69.6606988000000058,
      "address_line_1": "100 W. River Road",
      "address_line_2": null
    },
    {
      "zip": "04901",
      "city": "Waterville ",
      "name": "Waterville Junior High",
      "state": "ME",
      "latitude": 44.5290018000000032,
      "precinct": "ME_KENNEBEC_WATERVILLE_3-1",
      "longitude": -69.6606988000000058,
      "address_line_1": "100 W. River Road",
      "address_line_2": null
    },
    {
      "zip": "04901",
      "city": "Waterville ",
      "name": "Waterville Junior High",
      "state": "ME",
      "latitude": 44.5290018000000032,
      "precinct": "ME_KENNEBEC_WATERVILLE_4-1",
      "longitude": -69.6606988000000058,
      "address_line_1": "100 W. River Road",
      "address_line_2": null
    },
    {
      "zip": "04901",
      "city": "Waterville ",
      "name": "Waterville Junior High",
      "state": "ME",
      "latitude": 44.5290018000000032,
      "precinct": "ME_KENNEBEC_WATERVILLE_5-1",
      "longitude": -69.6606988000000058,
      "address_line_1": "100 W. River Road",
      "address_line_2": null
    },
    {
      "zip": "04901",
      "city": "Waterville ",
      "name": "Waterville Junior High",
      "state": "ME",
      "latitude": 44.5290018000000032,
      "precinct": "ME_KENNEBEC_WATERVILLE_6-1",
      "longitude": -69.6606988000000058,
      "address_line_1": "100 W. River Road",
      "address_line_2": null
    },
    {
      "zip": "04901",
      "city": "Waterville ",
      "name": "Waterville Junior High",
      "state": "ME",
      "latitude": 44.5290018000000032,
      "precinct": "ME_KENNEBEC_WATERVILLE_7-1",
      "longitude": -69.6606988000000058,
      "address_line_1": "100 W. River Road",
      "address_line_2": null
    },
    {
      "zip": "04284",
      "city": "Wayne ",
      "name": "Wayne Elementary School",
      "state": "ME",
      "latitude": 44.354274199999999,
      "precinct": "ME_KENNEBEC_WAYNE_1-1",
      "longitude": -70.0700978999999933,
      "address_line_1": "48 Pond Road",
      "address_line_2": null
    },
    {
      "zip": "04345",
      "city": "West Gardiner ",
      "name": "West Gardiner Town Hall and Fire Department ",
      "state": "ME",
      "latitude": 44.2261552000000009,
      "precinct": "ME_KENNEBEC_WEST GARDINER_1-1",
      "longitude": -69.8777012999999982,
      "address_line_1": "322 Spears Corner Road ",
      "address_line_2": null
    },
    {
      "zip": "04363",
      "city": "Windsor ",
      "name": "Windsor School",
      "state": "ME",
      "latitude": 44.3013224999999977,
      "precinct": "ME_KENNEBEC_WINDSOR_1-1",
      "longitude": -69.5854697999999985,
      "address_line_1": "366 Ridge Road",
      "address_line_2": null
    },
    {
      "zip": "04901",
      "city": "Winslow ",
      "name": "V F W ",
      "state": "ME",
      "latitude": 44.5251390000000029,
      "precinct": "ME_KENNEBEC_WINSLOW_1-1",
      "longitude": -69.6278113999999988,
      "address_line_1": "175 Veteran Drive ",
      "address_line_2": null
    },
    {
      "zip": "04901",
      "city": "Winslow ",
      "name": "V F W ",
      "state": "ME",
      "latitude": 44.5251390000000029,
      "precinct": "ME_KENNEBEC_WINSLOW_2-1",
      "longitude": -69.6278113999999988,
      "address_line_1": "175 Veteran Drive ",
      "address_line_2": null
    },
    {
      "zip": "04901",
      "city": "Winslow ",
      "name": "V F W ",
      "state": "ME",
      "latitude": 44.5251390000000029,
      "precinct": "ME_KENNEBEC_WINSLOW_3-1",
      "longitude": -69.6278113999999988,
      "address_line_1": "175 Veteran Drive ",
      "address_line_2": null
    },
    {
      "zip": "04901",
      "city": "Winslow ",
      "name": "V F W ",
      "state": "ME",
      "latitude": 44.5251390000000029,
      "precinct": "ME_KENNEBEC_WINSLOW_4-1",
      "longitude": -69.6278113999999988,
      "address_line_1": "175 Veteran Drive ",
      "address_line_2": null
    },
    {
      "zip": "04901",
      "city": "Winslow ",
      "name": "V F W ",
      "state": "ME",
      "latitude": 44.5251390000000029,
      "precinct": "ME_KENNEBEC_WINSLOW_5-1",
      "longitude": -69.6278113999999988,
      "address_line_1": "175 Veteran Drive ",
      "address_line_2": null
    },
    {
      "zip": "04364",
      "city": "Winthrop ",
      "name": "Winthrop High School Gym",
      "state": "ME",
      "latitude": 44.300412399999999,
      "precinct": "ME_KENNEBEC_WINTHROP_1-1",
      "longitude": -69.984971900000005,
      "address_line_1": "211 Rambler Road",
      "address_line_2": null
    },
    {
      "zip": "04862",
      "city": "Appleton ",
      "name": "Appleton Fire Station",
      "state": "ME",
      "latitude": 44.2886369000000002,
      "precinct": "ME_KNOX_APPLETON_1-1",
      "longitude": -69.2503458999999992,
      "address_line_1": "2988 Sennebec Road",
      "address_line_2": null
    },
    {
      "zip": "04843",
      "city": "Camden ",
      "name": "Camden Public Safety Building ",
      "state": "ME",
      "latitude": 44.2105861000000004,
      "precinct": "ME_KNOX_CAMDEN_1-1",
      "longitude": -69.0667956000000061,
      "address_line_1": "31 Washington Street ",
      "address_line_2": null
    },
    {
      "zip": "04563",
      "city": "Cushing ",
      "name": "Cushing Community Center ",
      "state": "ME",
      "latitude": 44.0209997999999985,
      "precinct": "ME_KNOX_CUSHING_1-1",
      "longitude": -69.2499238000000048,
      "address_line_1": "39 Cross Road ",
      "address_line_2": null
    },
    {
      "zip": "04547",
      "city": "Friendship ",
      "name": "Friendship Town Office",
      "state": "ME",
      "latitude": 43.9834358000000023,
      "precinct": "ME_KNOX_FRIENDSHIP_1-1",
      "longitude": -69.3344201000000027,
      "address_line_1": "6 Harbor Road",
      "address_line_2": null
    },
    {
      "zip": "04847",
      "city": "Hope ",
      "name": "Hope Town Office ",
      "state": "ME",
      "latitude": 44.2646063999999981,
      "precinct": "ME_KNOX_HOPE_1-1",
      "longitude": -69.1574729000000019,
      "address_line_1": "441 Camden Road ",
      "address_line_2": null
    },
    {
      "zip": "04851",
      "city": "Matinicus Isle",
      "name": "Matinicus Town Office",
      "state": "ME",
      "latitude": 43.8592604999999978,
      "precinct": "ME_KNOX_MATINICUS ISLE PLT_1-1",
      "longitude": -68.8938825999999978,
      "address_line_1": "17 South Road",
      "address_line_2": null
    },
    {
      "zip": "04853",
      "city": "North Haven",
      "name": "North Haven Town Office",
      "state": "ME",
      "latitude": 44.125034399999997,
      "precinct": "ME_KNOX_NORTH HAVEN_1-1",
      "longitude": -69.0994450000000029,
      "address_line_1": "16 Town Office Square",
      "address_line_2": null
    },
    {
      "zip": "04854",
      "city": "Owls Head ",
      "name": "Owls Head Community Building ",
      "state": "ME",
      "latitude": 44.0633277000000021,
      "precinct": "ME_KNOX_OWLS HEAD_1-1",
      "longitude": -69.0922261999999989,
      "address_line_1": "224 Ash Point Drive ",
      "address_line_2": null
    },
    {
      "zip": "04860",
      "city": "St. George ",
      "name": "Tenant's Harbor Fire Station - Meeting Room",
      "state": "ME",
      "latitude": 43.9652158000000028,
      "precinct": "ME_KNOX_SAINT GEORGE_1-1",
      "longitude": -69.212318499999995,
      "address_line_1": "3 School Street ",
      "address_line_2": null
    },
    {
      "zip": "04858",
      "city": "South Thomaston ",
      "name": "South Thomaston Municipal Building ",
      "state": "ME",
      "latitude": 44.0461279000000019,
      "precinct": "ME_KNOX_SOUTH THOMASTON_1-1",
      "longitude": -69.1335657999999995,
      "address_line_1": "125 Spruce Head Road ",
      "address_line_2": null
    },
    {
      "zip": "04861",
      "city": "Thomaston ",
      "name": "Thomaston Municipal Building",
      "state": "ME",
      "latitude": 44.0800020000000004,
      "precinct": "ME_KNOX_THOMASTON_1-1",
      "longitude": -69.1861870000000039,
      "address_line_1": "13 Valley Street",
      "address_line_2": null
    },
    {
      "zip": "04862",
      "city": "Union ",
      "name": "William Pullen Municipal Building ",
      "state": "ME",
      "latitude": 44.2121232000000006,
      "precinct": "ME_KNOX_UNION_1-1",
      "longitude": -69.2652480999999938,
      "address_line_1": "567 Common Road ",
      "address_line_2": null
    },
    {
      "zip": "04863",
      "city": "Vinalhaven ",
      "name": "Vinalhaven Town Office",
      "state": "ME",
      "latitude": 44.0491620000000026,
      "precinct": "ME_KNOX_VINALHAVEN_1-1",
      "longitude": -68.8378316999999953,
      "address_line_1": "19 Washington School Road ",
      "address_line_2": null
    },
    {
      "zip": "04864",
      "city": "Warren ",
      "name": "Masonic Hall",
      "state": "ME",
      "latitude": 44.1181260999999978,
      "precinct": "ME_KNOX_WARREN_1-1",
      "longitude": -69.259882300000001,
      "address_line_1": "105 Camden Road",
      "address_line_2": null
    },
    {
      "zip": "04574",
      "city": "Washington ",
      "name": "Bryant Room - Gibbs Library",
      "state": "ME",
      "latitude": 44.2733544000000023,
      "precinct": "ME_KNOX_WASHINGTON_1-1",
      "longitude": -69.3639014000000032,
      "address_line_1": "40 Old Union Road ",
      "address_line_2": null
    },
    {
      "zip": "04535",
      "city": "Alna ",
      "name": "Alna Fire Station",
      "state": "ME",
      "latitude": 44.0794045999999966,
      "precinct": "ME_LINCOLN_ALNA_1-1",
      "longitude": -69.6176272999999952,
      "address_line_1": "1579 Alna Road ",
      "address_line_2": null
    },
    {
      "zip": "04538",
      "city": "Boothbay Harbor ",
      "name": "Boothbay Harbor Municipal Building Fire Station",
      "state": "ME",
      "latitude": 43.8521301999999977,
      "precinct": "ME_LINCOLN_BOOTHBAY HARBOR_1-1",
      "longitude": -69.6295549000000022,
      "address_line_1": "11 Howard Street ",
      "address_line_2": null
    },
    {
      "zip": "04551",
      "city": "Bremen ",
      "name": "Bremen Town Center ",
      "state": "ME",
      "latitude": 44.0368528999999995,
      "precinct": "ME_LINCOLN_BREMEN_1-1",
      "longitude": -69.413910400000006,
      "address_line_1": "208 Waldoboro Road ",
      "address_line_2": null
    },
    {
      "zip": "04543",
      "city": "Damariscotta ",
      "name": "Damariscotta Town Hall ",
      "state": "ME",
      "latitude": 44.0335268999999982,
      "precinct": "ME_LINCOLN_DAMARISCOTTA_1-1",
      "longitude": -69.5189225999999962,
      "address_line_1": "21 School Street ",
      "address_line_2": null
    },
    {
      "zip": "04556",
      "city": "Edgecomb ",
      "name": "Edgecomb Town Hall ",
      "state": "ME",
      "latitude": 43.9827693000000011,
      "precinct": "ME_LINCOLN_EDGECOMB_1-1",
      "longitude": -69.6313858000000039,
      "address_line_1": "16 Town Hall Road ",
      "address_line_2": null
    },
    {
      "zip": "04348",
      "city": "Jefferson ",
      "name": "Jefferson Village School",
      "state": "ME",
      "latitude": 44.2041826000000029,
      "precinct": "ME_LINCOLN_JEFFERSON_1-1",
      "longitude": -69.4548268000000064,
      "address_line_1": "48 Washington Road",
      "address_line_2": null
    },
    {
      "zip": "04553",
      "city": "Newcastle ",
      "name": "Community Meeting Room in Fire Station",
      "state": "ME",
      "latitude": 44.030124899999997,
      "precinct": "ME_LINCOLN_NEWCASTLE_1-1",
      "longitude": -69.5444784999999968,
      "address_line_1": "86 River Road ",
      "address_line_2": null
    },
    {
      "zip": "04555",
      "city": "Nobleboro ",
      "name": "Nobleboro Town Office Meeting Room",
      "state": "ME",
      "latitude": 44.0994560000000035,
      "precinct": "ME_LINCOLN_NOBLEBORO_1-1",
      "longitude": -69.4544608000000068,
      "address_line_1": "192 US Highway 1 ",
      "address_line_2": null
    },
    {
      "zip": "04348",
      "city": "Somerville ",
      "name": "Somerville Town Office",
      "state": "ME",
      "latitude": 44.3135217000000026,
      "precinct": "ME_LINCOLN_SOMERVILLE_1-1",
      "longitude": -69.4547314999999941,
      "address_line_1": "72 Sand Hill Road",
      "address_line_2": null
    },
    {
      "zip": "04573",
      "city": "Walpole",
      "name": "South Bristol Town Office",
      "state": "ME",
      "latitude": 43.9294087000000033,
      "precinct": "ME_LINCOLN_SOUTH BRISTOL_1-1",
      "longitude": -69.5569507000000016,
      "address_line_1": "470 Clarks Cove Road",
      "address_line_2": null
    },
    {
      "zip": "04576",
      "city": "Southport ",
      "name": "Southport Town Hall ",
      "state": "ME",
      "latitude": 43.8269573999999977,
      "precinct": "ME_LINCOLN_SOUTHPORT_1-1",
      "longitude": -69.671022899999997,
      "address_line_1": "361 Hendricks Hill Road ",
      "address_line_2": null
    },
    {
      "zip": "04572",
      "city": "Waldoboro ",
      "name": "Waldoboro Municipal Building",
      "state": "ME",
      "latitude": 44.1031200999999982,
      "precinct": "ME_LINCOLN_WALDOBORO_1-1",
      "longitude": -69.3790510999999981,
      "address_line_1": "1600 Atlantic Highway ",
      "address_line_2": null
    },
    {
      "zip": "04578",
      "city": "Westport Island",
      "name": "Westport Island Old Town Hall",
      "state": "ME",
      "latitude": 43.8975091000000006,
      "precinct": "ME_LINCOLN_WESTPORT ISLAND_1-1",
      "longitude": -69.7084083999999962,
      "address_line_1": "1217 Main Road",
      "address_line_2": null
    },
    {
      "zip": "04353",
      "city": "Whitefield",
      "name": "Central Fire Station",
      "state": "ME",
      "latitude": 44.2219009000000014,
      "precinct": "ME_LINCOLN_WHITEFIELD_1-1",
      "longitude": -69.6076436000000029,
      "address_line_1": "24 Townhouse Road",
      "address_line_2": null
    },
    {
      "zip": "04578",
      "city": "Wiscasset ",
      "name": "Wiscasset Community Center",
      "state": "ME",
      "latitude": 44.0217369000000005,
      "precinct": "ME_LINCOLN_WISCASSET_1-1",
      "longitude": -69.6705436999999961,
      "address_line_1": "242 Gardiner Road ",
      "address_line_2": null
    },
    {
      "zip": "04217",
      "city": "Albany Twp",
      "name": "Albany Twp Town House",
      "state": "ME",
      "latitude": 44.3241402000000022,
      "precinct": "ME_OXFORD_ALBANY TWP_1-1",
      "longitude": -70.7689704999999947,
      "address_line_1": "1581 Hunts Corner Road",
      "address_line_2": null
    },
    {
      "zip": "04217",
      "city": "Bethel ",
      "name": "Mundt Allen Post#81 American Legion",
      "state": "ME",
      "latitude": 44.4063181,
      "precinct": "ME_OXFORD_BETHEL_1-1",
      "longitude": -70.7817064000000045,
      "address_line_1": "85 Vernon Street",
      "address_line_2": null
    },
    {
      "zip": "04220",
      "city": "Buckfield ",
      "name": "Buckfield Municipal Center ",
      "state": "ME",
      "latitude": 44.2890718000000021,
      "precinct": "ME_OXFORD_BUCKFIELD_1-1",
      "longitude": -70.3620825999999937,
      "address_line_1": "34 Turner Street ",
      "address_line_2": null
    },
    {
      "zip": "04275",
      "city": "Byron ",
      "name": "Byron Town Hall ",
      "state": "ME",
      "latitude": 44.7210374000000002,
      "precinct": "ME_OXFORD_BYRON_1-1",
      "longitude": -70.6284353000000067,
      "address_line_1": "1 Byron Village Road ",
      "address_line_2": null
    },
    {
      "zip": "04022",
      "city": "Denmark ",
      "name": "Denmark Municipal Building",
      "state": "ME",
      "latitude": 43.9718534000000005,
      "precinct": "ME_OXFORD_DENMARK_1-1",
      "longitude": -70.798098600000003,
      "address_line_1": "62 East Main Street ",
      "address_line_2": null
    },
    {
      "zip": "04224",
      "city": "Dixfield",
      "name": "American Legion",
      "state": "ME",
      "latitude": 44.5305959000000016,
      "precinct": "ME_OXFORD_DIXFIELD_1-1",
      "longitude": -70.4573287999999991,
      "address_line_1": "8 River Lane",
      "address_line_2": null
    },
    {
      "zip": "04037",
      "city": "Fryeburg ",
      "name": "Fryeburg Recreation Dept",
      "state": "ME",
      "latitude": 44.0174748000000022,
      "precinct": "ME_OXFORD_FRYEBURG_1-1",
      "longitude": -70.956986999999998,
      "address_line_1": "59 Recreation Drive",
      "address_line_2": null
    },
    {
      "zip": "04217",
      "city": "Gilead ",
      "name": "Gilead Town Hall ",
      "state": "ME",
      "latitude": 44.3945109000000002,
      "precinct": "ME_OXFORD_GILEAD_1-1",
      "longitude": -70.9726605999999975,
      "address_line_1": "10 Depot Street ",
      "address_line_2": null
    },
    {
      "zip": "04255",
      "city": "Greenwood ",
      "name": "Greenwood Town Office",
      "state": "ME",
      "latitude": 44.4012493999999975,
      "precinct": "ME_OXFORD_GREENWOOD_1-1",
      "longitude": -70.6912156000000067,
      "address_line_1": "593 Gore Road",
      "address_line_2": null
    },
    {
      "zip": "04237",
      "city": "Hanover ",
      "name": "Hanover Town Office ",
      "state": "ME",
      "latitude": 44.4939583000000027,
      "precinct": "ME_OXFORD_HANOVER_1-1",
      "longitude": -70.6949910999999958,
      "address_line_1": "21 Ferry Road ",
      "address_line_2": null
    },
    {
      "zip": "04220",
      "city": "Hartford ",
      "name": "Hartford Town Hall ",
      "state": "ME",
      "latitude": 44.3760070000000013,
      "precinct": "ME_OXFORD_HARTFORD_1-1",
      "longitude": -70.3471320999999961,
      "address_line_1": "1190 Main Street ",
      "address_line_2": null
    },
    {
      "zip": "04238",
      "city": "Hebron ",
      "name": "Hebron Town Office ",
      "state": "ME",
      "latitude": 44.1969670000000008,
      "precinct": "ME_OXFORD_HEBRON_1-1",
      "longitude": -70.4062100999999956,
      "address_line_1": "351 Paris Road ",
      "address_line_2": null
    },
    {
      "zip": "03579",
      "city": "Lincoln Plt",
      "name": "Lincoln Plt Town Hall",
      "state": "ME",
      "latitude": 44.9318197999999995,
      "precinct": "ME_OXFORD_LINCOLN PLT_1-1",
      "longitude": -71.0291265000000038,
      "address_line_1": "260 Wilsons Mills Road",
      "address_line_2": null
    },
    {
      "zip": "04231",
      "city": "Lovell ",
      "name": "Lovell Town House",
      "state": "ME",
      "latitude": 44.1841110000000015,
      "precinct": "ME_OXFORD_LOVELL_1-1",
      "longitude": -70.8902790000000067,
      "address_line_1": "1133 Main Street ",
      "address_line_2": null
    },
    {
      "zip": "03579",
      "city": "Lincoln Plt",
      "name": "Lincoln Plantation Town Office",
      "state": "ME",
      "latitude": 44.9270799999999966,
      "precinct": "ME_OXFORD_MAGALLOWAY PLT_1-1",
      "longitude": -71.0293987000000016,
      "address_line_1": "226 Wilsons Mills Road",
      "address_line_2": null
    },
    {
      "zip": "04257",
      "city": "Mexico ",
      "name": "Calvin P. Lyons Hall ",
      "state": "ME",
      "latitude": 44.5560048999999978,
      "precinct": "ME_OXFORD_MEXICO_1-1",
      "longitude": -70.5411083000000048,
      "address_line_1": "134 Main Street ",
      "address_line_2": null
    },
    {
      "zip": "04261",
      "city": "Newry ",
      "name": "Raymond C. Foster Municipal Building",
      "state": "ME",
      "latitude": 44.5038444999999996,
      "precinct": "ME_OXFORD_NEWRY_1-1",
      "longitude": -70.818667199999993,
      "address_line_1": "422 Bear River Road ",
      "address_line_2": null
    },
    {
      "zip": "04268",
      "city": "Norway ",
      "name": "Norway Fire Station ",
      "state": "ME",
      "latitude": 44.2142108999999977,
      "precinct": "ME_OXFORD_NORWAY_1-1",
      "longitude": -70.5385009999999966,
      "address_line_1": "19 Danforth Street",
      "address_line_2": null
    },
    {
      "zip": "04270",
      "city": "Otisfield",
      "name": "Otisfield Community Hall",
      "state": "ME",
      "latitude": 44.1318324000000004,
      "precinct": "ME_OXFORD_OTISFIELD_1-1",
      "longitude": -70.4966763999999984,
      "address_line_1": "292 State Route 121",
      "address_line_2": null
    },
    {
      "zip": "04270",
      "city": "Oxford ",
      "name": "Oxford Public Safety Building",
      "state": "ME",
      "latitude": 44.145667600000003,
      "precinct": "ME_OXFORD_OXFORD_1-1",
      "longitude": -70.4784142999999972,
      "address_line_1": "701 Main Street",
      "address_line_2": null
    },
    {
      "zip": "04281",
      "city": "Paris ",
      "name": "Paris Fire Department ",
      "state": "ME",
      "latitude": 44.2258132999999987,
      "precinct": "ME_OXFORD_PARIS_1-1",
      "longitude": -70.5179792999999933,
      "address_line_1": "137 Western Avenue ",
      "address_line_2": null
    },
    {
      "zip": "04224",
      "city": "Peru ",
      "name": "Peru Town Office ",
      "state": "ME",
      "latitude": 44.5247063999999995,
      "precinct": "ME_OXFORD_PERU_1-1",
      "longitude": -70.4648116000000044,
      "address_line_1": "26 Main Street ",
      "address_line_2": null
    },
    {
      "zip": "04068",
      "city": "Porter ",
      "name": "Porter Town Hall",
      "state": "ME",
      "latitude": 43.8101365999999999,
      "precinct": "ME_OXFORD_PORTER_1-1",
      "longitude": -70.8852310999999986,
      "address_line_1": "71 Main Street",
      "address_line_2": null
    },
    {
      "zip": "04276",
      "city": "Rumford ",
      "name": "American Legion",
      "state": "ME",
      "latitude": 44.5476371000000029,
      "precinct": "ME_OXFORD_RUMFORD_1-1",
      "longitude": -70.5455364000000031,
      "address_line_1": "184 Congress Street",
      "address_line_2": null
    },
    {
      "zip": "04231",
      "city": "Stoneham ",
      "name": "Stoneham Fire Station ",
      "state": "ME",
      "latitude": 44.2516083000000009,
      "precinct": "ME_OXFORD_STONEHAM_1-1",
      "longitude": -70.8190907999999979,
      "address_line_1": "22 Butters Hill Road ",
      "address_line_2": null
    },
    {
      "zip": "04037",
      "city": "Stow ",
      "name": "Stow Municipal Office ",
      "state": "ME",
      "latitude": 44.1681504000000018,
      "precinct": "ME_OXFORD_STOW_1-1",
      "longitude": -70.9843975,
      "address_line_1": "710 Stow Road ",
      "address_line_2": null
    },
    {
      "zip": "04292",
      "city": "Sumner ",
      "name": "Bisbee-Dyer Municipal Center (Town Office)",
      "state": "ME",
      "latitude": 44.3784025,
      "precinct": "ME_OXFORD_SUMNER_1-1",
      "longitude": -70.4231834999999933,
      "address_line_1": "633 Main Street ",
      "address_line_2": null
    },
    {
      "zip": "04009",
      "city": "Sweden ",
      "name": "Sweden Town Office",
      "state": "ME",
      "latitude": 44.1332054000000014,
      "precinct": "ME_OXFORD_SWEDEN_1-1",
      "longitude": -70.8067319999999967,
      "address_line_1": "147 Bridgton Road ",
      "address_line_2": null
    },
    {
      "zip": "04088",
      "city": "Waterford ",
      "name": "Waterford Municipal Building ",
      "state": "ME",
      "latitude": 44.203519,
      "precinct": "ME_OXFORD_WATERFORD_1-1",
      "longitude": -70.7336630000000071,
      "address_line_1": "366 Valley Road ",
      "address_line_2": null
    },
    {
      "zip": "04289",
      "city": "West Paris ",
      "name": "West Paris Town Office - Meeting Room ",
      "state": "ME",
      "latitude": 44.3255381000000028,
      "precinct": "ME_OXFORD_WEST PARIS_1-1",
      "longitude": -70.5710227000000003,
      "address_line_1": "25 Kingsbury Street ",
      "address_line_2": null
    },
    {
      "zip": "04468",
      "city": "Alton ",
      "name": "Alton Municipal Building ",
      "state": "ME",
      "latitude": 45.0277117999999987,
      "precinct": "ME_PENOBSCOT_ALTON_1-1",
      "longitude": -68.7268188999999978,
      "address_line_1": "3352 Bennoch Road ",
      "address_line_2": null
    },
    {
      "zip": "04401",
      "city": "Bangor ",
      "name": "Cross Insurance Center Concourse",
      "state": "ME",
      "latitude": 44.7888019000000028,
      "precinct": "ME_PENOBSCOT_BANGOR_1-1",
      "longitude": -68.7792895000000044,
      "address_line_1": "515 Main Street",
      "address_line_2": null
    },
    {
      "zip": "04410",
      "city": "Bradford",
      "name": "Bradford Town Office ",
      "state": "ME",
      "latitude": 45.0698620000000005,
      "precinct": "ME_PENOBSCOT_BRADFORD_1-1",
      "longitude": -68.9153034999999932,
      "address_line_1": "345 East Road",
      "address_line_2": null
    },
    {
      "zip": "04411",
      "city": "Bradley ",
      "name": "Bradley Fire Station",
      "state": "ME",
      "latitude": 44.9043283000000031,
      "precinct": "ME_PENOBSCOT_BRADLEY_1-1",
      "longitude": -68.6354938000000061,
      "address_line_1": "171 Main Street",
      "address_line_2": null
    },
    {
      "zip": "04412",
      "city": "Brewer ",
      "name": "Joseph I Ferris Community Center",
      "state": "ME",
      "latitude": 44.7880211000000017,
      "precinct": "ME_PENOBSCOT_BREWER_1-1",
      "longitude": -68.7556055000000015,
      "address_line_1": "318 Wilson Street",
      "address_line_2": null
    },
    {
      "zip": "04417",
      "city": "Burlington ",
      "name": "Burlington Municipal Building ",
      "state": "ME",
      "latitude": 45.2128867999999997,
      "precinct": "ME_PENOBSCOT_BURLINGTON_1-1",
      "longitude": -68.4249343000000039,
      "address_line_1": "1523 Long Ridge Road ",
      "address_line_2": null
    },
    {
      "zip": "04422",
      "city": "Charleston ",
      "name": "Charleston Community Center ",
      "state": "ME",
      "latitude": 45.0842645999999974,
      "precinct": "ME_PENOBSCOT_CHARLESTON_1-1",
      "longitude": -69.0519646999999992,
      "address_line_1": "125 School Road ",
      "address_line_2": null
    },
    {
      "zip": "04457",
      "city": "Chester ",
      "name": "Marianne Municipal Building ",
      "state": "ME",
      "latitude": 45.4295320000000018,
      "precinct": "ME_PENOBSCOT_CHESTER_1-1",
      "longitude": -68.4737559999999945,
      "address_line_1": "43 South Chester Road ",
      "address_line_2": null
    },
    {
      "zip": "04428",
      "city": "Clifton ",
      "name": "Clifton Municipal Building",
      "state": "ME",
      "latitude": 44.7951204000000018,
      "precinct": "ME_PENOBSCOT_CLIFTON_1-1",
      "longitude": -68.5566570999999954,
      "address_line_1": "135 Airline Road ",
      "address_line_2": null
    },
    {
      "zip": "04928",
      "city": "Corinna ",
      "name": "Eastland Elementary School",
      "state": "ME",
      "latitude": 44.918529999999997,
      "precinct": "ME_PENOBSCOT_CORINNA_1-1",
      "longitude": -69.2560799000000031,
      "address_line_1": "42 Stetson Road",
      "address_line_2": null
    },
    {
      "zip": "04427",
      "city": "Corinth ",
      "name": "Corinth Town Office Conference Room",
      "state": "ME",
      "latitude": 45.0024608000000015,
      "precinct": "ME_PENOBSCOT_CORINTH_1-1",
      "longitude": -69.0261189000000002,
      "address_line_1": "31 Exeter Road ",
      "address_line_2": null
    },
    {
      "zip": "04930",
      "city": "Dexter ",
      "name": "V.F.W. Hall",
      "state": "ME",
      "latitude": 45.0166715000000011,
      "precinct": "ME_PENOBSCOT_DEXTER_1-1",
      "longitude": -69.2940471999999943,
      "address_line_1": "20 Cedar Street",
      "address_line_2": null
    },
    {
      "zip": "04932",
      "city": "Dixmont ",
      "name": "Dixmont Gold Crest Riders Snowmobile Club",
      "state": "ME",
      "latitude": 44.6885763000000011,
      "precinct": "ME_PENOBSCOT_DIXMONT_1-1",
      "longitude": -69.164439900000005,
      "address_line_1": "31 Cates Road",
      "address_line_2": null
    },
    {
      "zip": "04497",
      "city": "Drew Plt",
      "name": "Drew Plt Fire Building",
      "state": "ME",
      "latitude": 45.6279688999999991,
      "precinct": "ME_PENOBSCOT_DREW PLT_1-1",
      "longitude": -68.070705899999993,
      "address_line_1": "65 Center Street",
      "address_line_2": null
    },
    {
      "zip": "04428",
      "city": "Eddington ",
      "name": "Eddington Municipal Building - Fire Station",
      "state": "ME",
      "latitude": 44.8136081000000033,
      "precinct": "ME_PENOBSCOT_EDDINGTON_1-1",
      "longitude": -68.6219597999999991,
      "address_line_1": "906 Main Road ",
      "address_line_2": null
    },
    {
      "zip": "04493",
      "city": "Enfield ",
      "name": "Cole Memorial Building",
      "state": "ME",
      "latitude": 45.2483487000000011,
      "precinct": "ME_PENOBSCOT_ENFIELD_1-1",
      "longitude": -68.5884795000000054,
      "address_line_1": "789 Hammett Road ",
      "address_line_2": null
    },
    {
      "zip": "04434",
      "city": "Etna",
      "name": "Etna Community Hall",
      "state": "ME",
      "latitude": 44.815429899999998,
      "precinct": "ME_PENOBSCOT_ETNA_1-1",
      "longitude": -69.1176935000000014,
      "address_line_1": "17 Shadow Lane",
      "address_line_2": null
    },
    {
      "zip": "04435",
      "city": "Exeter ",
      "name": "Exeter Town Office ",
      "state": "ME",
      "latitude": 44.9694456000000002,
      "precinct": "ME_PENOBSCOT_EXETER_1-1",
      "longitude": -69.1402929999999998,
      "address_line_1": "1221 Stetson Road ",
      "address_line_2": null
    },
    {
      "zip": "04939",
      "city": "Garland ",
      "name": "Garland Town Office ",
      "state": "ME",
      "latitude": 45.0345616000000035,
      "precinct": "ME_PENOBSCOT_GARLAND_1-1",
      "longitude": -69.155440200000001,
      "address_line_1": "108 Corinth Road",
      "address_line_2": null
    },
    {
      "zip": "04401",
      "city": "Glenburn ",
      "name": "Glenburn School Gym",
      "state": "ME",
      "latitude": 44.9173716999999968,
      "precinct": "ME_PENOBSCOT_GLENBURN_1-1",
      "longitude": -68.8469247999999965,
      "address_line_1": "991 Hudson Road",
      "address_line_2": null
    },
    {
      "zip": "04418",
      "city": "Greenbush ",
      "name": "Greenbush Town Hall ",
      "state": "ME",
      "latitude": 45.1207998000000003,
      "precinct": "ME_PENOBSCOT_GREENBUSH_1-1",
      "longitude": -68.6094563000000051,
      "address_line_1": "132 Military Road ",
      "address_line_2": null
    },
    {
      "zip": "04444",
      "city": "Hampden ",
      "name": "Skehan Recreation Center",
      "state": "ME",
      "latitude": 44.7395254999999992,
      "precinct": "ME_PENOBSCOT_HAMPDEN_1-1",
      "longitude": -68.8375785000000064,
      "address_line_1": "1 Main Road North",
      "address_line_2": null
    },
    {
      "zip": "04444",
      "city": "Hampden ",
      "name": "Skehan Recreation Center",
      "state": "ME",
      "latitude": 44.7395254999999992,
      "precinct": "ME_PENOBSCOT_HAMPDEN_2-1",
      "longitude": -68.8375785000000064,
      "address_line_1": "1 Main Road North",
      "address_line_2": null
    },
    {
      "zip": "04444",
      "city": "Hampden ",
      "name": "Skehan Recreation Center",
      "state": "ME",
      "latitude": 44.7395254999999992,
      "precinct": "ME_PENOBSCOT_HAMPDEN_3-1",
      "longitude": -68.8375785000000064,
      "address_line_1": "1 Main Road North",
      "address_line_2": null
    },
    {
      "zip": "04444",
      "city": "Hampden ",
      "name": "Skehan Recreation Center",
      "state": "ME",
      "latitude": 44.7395254999999992,
      "precinct": "ME_PENOBSCOT_HAMPDEN_4-1",
      "longitude": -68.8375785000000064,
      "address_line_1": "1 Main Road North",
      "address_line_2": null
    },
    {
      "zip": "04401",
      "city": "Hermon ",
      "name": "Patricia A. Duran School",
      "state": "ME",
      "latitude": 44.820351500000001,
      "precinct": "ME_PENOBSCOT_HERMON_1-1",
      "longitude": -68.8935022999999944,
      "address_line_1": "235 Billings Road ",
      "address_line_2": null
    },
    {
      "zip": "04429",
      "city": "Holden ",
      "name": "Holden Municipal Building ",
      "state": "ME",
      "latitude": 44.7559492000000034,
      "precinct": "ME_PENOBSCOT_HOLDEN_1-1",
      "longitude": -68.6626945999999947,
      "address_line_1": "570 Main Road ",
      "address_line_2": null
    },
    {
      "zip": "04448",
      "city": "Howland ",
      "name": "Howland Town Office",
      "state": "ME",
      "latitude": 45.2413688999999977,
      "precinct": "ME_PENOBSCOT_HOWLAND_1-1",
      "longitude": -68.6570025000000044,
      "address_line_1": "8 Main Street ",
      "address_line_2": null
    },
    {
      "zip": "04450",
      "city": "Kenduskeag ",
      "name": "Kenduskeag Town Office ",
      "state": "ME",
      "latitude": 44.9223679999999987,
      "precinct": "ME_PENOBSCOT_KENDUSKEAG_1-1",
      "longitude": -68.932614099999995,
      "address_line_1": "4010 Broadway ",
      "address_line_2": null
    },
    {
      "zip": "04487",
      "city": "Lakeville ",
      "name": "Lakeville Town Office (McKinley School House)",
      "state": "ME",
      "latitude": 45.3341256000000001,
      "precinct": "ME_PENOBSCOT_LAKEVILLE_1-1",
      "longitude": -68.0804416999999944,
      "address_line_1": "829 Bottle Lake Road ",
      "address_line_2": null
    },
    {
      "zip": "04455",
      "city": "Lee ",
      "name": "Eula Ham Municipal Building ",
      "state": "ME",
      "latitude": 45.3617957000000018,
      "precinct": "ME_PENOBSCOT_LEE_1-1",
      "longitude": -68.2853774999999956,
      "address_line_1": "29 Winn Road ",
      "address_line_2": null
    },
    {
      "zip": "04456",
      "city": "Levant ",
      "name": "Levant Town Office",
      "state": "ME",
      "latitude": 44.881798400000001,
      "precinct": "ME_PENOBSCOT_LEVANT_1-1",
      "longitude": -68.9672139999999985,
      "address_line_1": "691 Townhouse Road ",
      "address_line_2": null
    },
    {
      "zip": "04457",
      "city": "Lincoln ",
      "name": "Mattanawcook Academy Gymnasium",
      "state": "ME",
      "latitude": 45.3784865000000011,
      "precinct": "ME_PENOBSCOT_LINCOLN_1-1",
      "longitude": -68.496485100000001,
      "address_line_1": "33 Reed Drive ",
      "address_line_2": null
    },
    {
      "zip": "04493",
      "city": "Lowell ",
      "name": "Lowell Town Office ",
      "state": "ME",
      "latitude": 45.2125660999999965,
      "precinct": "ME_PENOBSCOT_LOWELL_1-1",
      "longitude": -68.473277600000003,
      "address_line_1": "129 West Old Main Road",
      "address_line_2": null
    },
    {
      "zip": "04459",
      "city": "Mattawamkeag ",
      "name": "Mattawamkeag Municipal Building ",
      "state": "ME",
      "latitude": 45.517544700000002,
      "precinct": "ME_PENOBSCOT_MATTAWAMKEAG_1-1",
      "longitude": -68.3535717000000034,
      "address_line_1": "327 Main Street ",
      "address_line_2": null
    },
    {
      "zip": "04453",
      "city": "Maxfield ",
      "name": "Maxfield Town Office ",
      "state": "ME",
      "latitude": 45.2721194000000011,
      "precinct": "ME_PENOBSCOT_MAXFIELD_1-1",
      "longitude": -68.7740212000000071,
      "address_line_1": "231 River Road ",
      "address_line_2": null
    },
    {
      "zip": "04462",
      "city": "Millinocket ",
      "name": "Stearns High School ",
      "state": "ME",
      "latitude": 45.662551999999998,
      "precinct": "ME_PENOBSCOT_MILLINOCKET_1-1",
      "longitude": -68.7052742999999992,
      "address_line_1": "199 State Street ",
      "address_line_2": null
    },
    {
      "zip": "04462",
      "city": "Millinocket ",
      "name": "Stearns High School ",
      "state": "ME",
      "latitude": 45.662551999999998,
      "precinct": "ME_PENOBSCOT_MILLINOCKET_1-2",
      "longitude": -68.7052742999999992,
      "address_line_1": "199 State Street ",
      "address_line_2": null
    },
    {
      "zip": "04765",
      "city": "Mount Chase ",
      "name": "Mount Chase Town Office ",
      "state": "ME",
      "latitude": 46.0588842000000014,
      "precinct": "ME_PENOBSCOT_MOUNT CHASE_1-1",
      "longitude": -68.5270402000000018,
      "address_line_1": "1094 Shin Pond Road ",
      "address_line_2": null
    },
    {
      "zip": "04444",
      "city": "Newburgh ",
      "name": "Newburgh Town Office (former Elementary School)",
      "state": "ME",
      "latitude": 44.7313035999999968,
      "precinct": "ME_PENOBSCOT_NEWBURGH_1-1",
      "longitude": -68.9798370999999975,
      "address_line_1": "2220 Western Avenue ",
      "address_line_2": null
    },
    {
      "zip": "04953",
      "city": "Newport ",
      "name": "Public Safety Building - Multi-Purpose Room",
      "state": "ME",
      "latitude": 44.8364240000000009,
      "precinct": "ME_PENOBSCOT_NEWPORT_1-1",
      "longitude": -69.2739454000000023,
      "address_line_1": "21 Water Street",
      "address_line_2": null
    },
    {
      "zip": "04468",
      "city": "Old Town ",
      "name": "Elks Lodges",
      "state": "ME",
      "latitude": 44.9319917999999987,
      "precinct": "ME_PENOBSCOT_OLD TOWN_1-1",
      "longitude": -68.6488310000000013,
      "address_line_1": "37 Fourth Street",
      "address_line_2": null
    },
    {
      "zip": "04473",
      "city": "Orono ",
      "name": "New Balance Field House & Memorial Gym",
      "state": "ME",
      "latitude": 44.9037525999999971,
      "precinct": "ME_PENOBSCOT_ORONO_1-1",
      "longitude": -68.669979799999993,
      "address_line_1": "18 Gym Drive",
      "address_line_2": null
    },
    {
      "zip": "04473",
      "city": "Orono ",
      "name": "New Balance Field House & Memorial Gym",
      "state": "ME",
      "latitude": 44.9037525999999971,
      "precinct": "ME_PENOBSCOT_ORONO_1-2",
      "longitude": -68.669979799999993,
      "address_line_1": "18 Gym Drive",
      "address_line_2": null
    },
    {
      "zip": "04473",
      "city": "Orono ",
      "name": "New Balance Field House & Memorial Gym",
      "state": "ME",
      "latitude": 44.9037525999999971,
      "precinct": "ME_PENOBSCOT_ORONO_1-3",
      "longitude": -68.669979799999993,
      "address_line_1": "18 Gym Drive",
      "address_line_2": null
    },
    {
      "zip": "04474",
      "city": "Orrington ",
      "name": "Center Drive School",
      "state": "ME",
      "latitude": 44.7270646999999997,
      "precinct": "ME_PENOBSCOT_ORRINGTON_1-1",
      "longitude": -68.8152800000000013,
      "address_line_1": "17 School Street",
      "address_line_2": null
    },
    {
      "zip": "04475",
      "city": "Passadumkeag ",
      "name": "Passadumkeag Town Offfice ",
      "state": "ME",
      "latitude": 45.1849598000000015,
      "precinct": "ME_PENOBSCOT_PASSADUMKEAG_1-1",
      "longitude": -68.6143663999999944,
      "address_line_1": "34 Pleasant Street",
      "address_line_2": null
    },
    {
      "zip": "04765",
      "city": "Patten ",
      "name": "Patten Fire Station",
      "state": "ME",
      "latitude": 45.995539100000002,
      "precinct": "ME_PENOBSCOT_PATTEN_1-1",
      "longitude": -68.4486691000000036,
      "address_line_1": "27 Dearborn Street ",
      "address_line_2": null
    },
    {
      "zip": "04468",
      "city": "Indian Island",
      "name": "Nicholas Sapiei Conf. Room",
      "state": "ME",
      "latitude": 44.9523130999999978,
      "precinct": "ME_PENOBSCOT_PENOBSCOT NATION VOTING DISTRICT_1-1",
      "longitude": -68.6479015000000032,
      "address_line_1": "12 Wabanaki Way ",
      "address_line_2": null
    },
    {
      "zip": "04969",
      "city": "Plymouth ",
      "name": "Plymouth Grange Hall ",
      "state": "ME",
      "latitude": 44.7741152999999983,
      "precinct": "ME_PENOBSCOT_PLYMOUTH_1-1",
      "longitude": -69.2109271000000064,
      "address_line_1": "1927 Moosehead Trail ",
      "address_line_2": null
    },
    {
      "zip": "04487",
      "city": "Webster Plt",
      "name": "Webster Plt Town Office",
      "state": "ME",
      "latitude": 45.4654839000000024,
      "precinct": "ME_PENOBSCOT_PRENTISS TWP T7 R3 NBPP_1-1",
      "longitude": -68.1416490999999951,
      "address_line_1": "583 Tucker Ridge Road",
      "address_line_2": null
    },
    {
      "zip": "04448",
      "city": "Seboeis Plt ",
      "name": "Kenneth B. Brown Community Building ",
      "state": "ME",
      "latitude": 45.3166670999999965,
      "precinct": "ME_PENOBSCOT_SEBOEIS PLT_1-1",
      "longitude": -68.6989746999999937,
      "address_line_1": "1144 Seboeis Road ",
      "address_line_2": null
    },
    {
      "zip": "04401",
      "city": "Veazie ",
      "name": "Veazie Municipal Building - Council Chambers ",
      "state": "ME",
      "latitude": 44.8412282000000033,
      "precinct": "ME_PENOBSCOT_VEAZIE_1-1",
      "longitude": -68.7025529000000006,
      "address_line_1": "1084 Main Street ",
      "address_line_2": null
    },
    {
      "zip": "04457",
      "city": "Woodville ",
      "name": "South Woodville Schoolhouse ",
      "state": "ME",
      "latitude": 45.5022122000000024,
      "precinct": "ME_PENOBSCOT_WOODVILLE_1-1",
      "longitude": -68.4695514999999943,
      "address_line_1": "624 Woodville Road ",
      "address_line_2": null
    },
    {
      "zip": "04481",
      "city": "Sebec",
      "name": "Harland Ladd Municipal Building",
      "state": "ME",
      "latitude": 45.2403994000000012,
      "precinct": "ME_PISCATAQUIS_ATKINSON TWP_1-1",
      "longitude": -69.1073343999999992,
      "address_line_1": "29 North Road",
      "address_line_2": null
    },
    {
      "zip": "04414",
      "city": "Brownville ",
      "name": "American Legion Post # 92",
      "state": "ME",
      "latitude": 45.3503647000000001,
      "precinct": "ME_PISCATAQUIS_BROWNVILLE_1-1",
      "longitude": -69.0555813999999941,
      "address_line_1": "67 Railroad Avenue",
      "address_line_2": null
    },
    {
      "zip": "04426",
      "city": "Dover-Foxcroft ",
      "name": "Dover-Foxcroft Municipal Gymnasium",
      "state": "ME",
      "latitude": 45.1923893000000021,
      "precinct": "ME_PISCATAQUIS_DOVER-FOXCROFT_1-1",
      "longitude": -69.2296481000000057,
      "address_line_1": "48 Morton Avenue ",
      "address_line_2": null
    },
    {
      "zip": "04441",
      "city": "Greenville ",
      "name": "Greenville Town Hall ",
      "state": "ME",
      "latitude": 45.4581634999999977,
      "precinct": "ME_PISCATAQUIS_GREENVILLE_1-1",
      "longitude": -69.5909757999999954,
      "address_line_1": "7 Minden Street",
      "address_line_2": null
    },
    {
      "zip": "04414",
      "city": "Brownville ",
      "name": "Lake View Town Office",
      "state": "ME",
      "latitude": 45.3066580999999999,
      "precinct": "ME_PISCATAQUIS_LAKE VIEW PLT_1-1",
      "longitude": -69.0331810999999931,
      "address_line_1": "27 Church Street",
      "address_line_2": null
    },
    {
      "zip": "04463",
      "city": "Medford ",
      "name": "Medford Community Center",
      "state": "ME",
      "latitude": 45.2594595999999996,
      "precinct": "ME_PISCATAQUIS_MEDFORD_1-1",
      "longitude": -68.8403509000000042,
      "address_line_1": "9 Trestle Road",
      "address_line_2": null
    },
    {
      "zip": "04464",
      "city": "Monson ",
      "name": "Monson Gym",
      "state": "ME",
      "latitude": 45.2885099000000011,
      "precinct": "ME_PISCATAQUIS_MONSON_1-1",
      "longitude": -69.5022493000000026,
      "address_line_1": "35 Greenville Road",
      "address_line_2": null
    },
    {
      "zip": "04443",
      "city": "Parkman ",
      "name": "Parkman Town Office - Lower Level",
      "state": "ME",
      "latitude": 45.1284515999999982,
      "precinct": "ME_PISCATAQUIS_PARKMAN_1-1",
      "longitude": -69.4384778999999952,
      "address_line_1": "771 State Highway 150 ",
      "address_line_2": null
    },
    {
      "zip": "04479",
      "city": "Sangerville",
      "name": "Sangerville Town Hall Community Room",
      "state": "ME",
      "latitude": 45.165463299999999,
      "precinct": "ME_PISCATAQUIS_SANGERVILLE_1-1",
      "longitude": -69.3582166000000058,
      "address_line_1": "1 Town Hall Avenue",
      "address_line_2": null
    },
    {
      "zip": "04481",
      "city": "Sebec ",
      "name": "Harland Ladd Municipal Building ",
      "state": "ME",
      "latitude": 45.2403994000000012,
      "precinct": "ME_PISCATAQUIS_SEBEC_1-1",
      "longitude": -69.1073343999999992,
      "address_line_1": "29 North Road ",
      "address_line_2": null
    },
    {
      "zip": "04485",
      "city": "Shirley ",
      "name": "Shirley Town Hall",
      "state": "ME",
      "latitude": 45.3658854999999974,
      "precinct": "ME_PISCATAQUIS_SHIRLEY_1-1",
      "longitude": -69.6211275000000001,
      "address_line_1": "25 West Road ",
      "address_line_2": null
    },
    {
      "zip": "04530",
      "city": "Arrowsic ",
      "name": "Arrowsic Town Hall ",
      "state": "ME",
      "latitude": 43.8877243000000021,
      "precinct": "ME_SAGADAHOC_ARROWSIC_1-1",
      "longitude": -69.7879231999999945,
      "address_line_1": "340 Arrowsic Road ",
      "address_line_2": null
    },
    {
      "zip": "04530",
      "city": "Bath ",
      "name": "Bath Middle School ",
      "state": "ME",
      "latitude": 43.9192253000000008,
      "precinct": "ME_SAGADAHOC_BATH_1-1",
      "longitude": -69.8294563000000039,
      "address_line_1": "6 Old Brunswick Road ",
      "address_line_2": null
    },
    {
      "zip": "04530",
      "city": "Bath ",
      "name": "Bath Middle School ",
      "state": "ME",
      "latitude": 43.9192253000000008,
      "precinct": "ME_SAGADAHOC_BATH_2-1",
      "longitude": -69.8294563000000039,
      "address_line_1": "6 Old Brunswick Road ",
      "address_line_2": null
    },
    {
      "zip": "04530",
      "city": "Bath ",
      "name": "Bath Middle School ",
      "state": "ME",
      "latitude": 43.9192253000000008,
      "precinct": "ME_SAGADAHOC_BATH_3-1",
      "longitude": -69.8294563000000039,
      "address_line_1": "6 Old Brunswick Road ",
      "address_line_2": null
    },
    {
      "zip": "04530",
      "city": "Bath ",
      "name": "Bath Middle School ",
      "state": "ME",
      "latitude": 43.9192253000000008,
      "precinct": "ME_SAGADAHOC_BATH_4-1",
      "longitude": -69.8294563000000039,
      "address_line_1": "6 Old Brunswick Road ",
      "address_line_2": null
    },
    {
      "zip": "04530",
      "city": "Bath ",
      "name": "Bath Middle School ",
      "state": "ME",
      "latitude": 43.9192253000000008,
      "precinct": "ME_SAGADAHOC_BATH_5-1",
      "longitude": -69.8294563000000039,
      "address_line_1": "6 Old Brunswick Road ",
      "address_line_2": null
    },
    {
      "zip": "04530",
      "city": "Bath ",
      "name": "Bath Middle School ",
      "state": "ME",
      "latitude": 43.9192253000000008,
      "precinct": "ME_SAGADAHOC_BATH_6-1",
      "longitude": -69.8294563000000039,
      "address_line_1": "6 Old Brunswick Road ",
      "address_line_2": null
    },
    {
      "zip": "04530",
      "city": "Bath ",
      "name": "Bath Middle School ",
      "state": "ME",
      "latitude": 43.9192253000000008,
      "precinct": "ME_SAGADAHOC_BATH_7-1",
      "longitude": -69.8294563000000039,
      "address_line_1": "6 Old Brunswick Road ",
      "address_line_2": null
    },
    {
      "zip": "04008",
      "city": "Bowdoinham ",
      "name": "Bowdoinham Community School",
      "state": "ME",
      "latitude": 44.0123419000000027,
      "precinct": "ME_SAGADAHOC_BOWDOINHAM_1-1",
      "longitude": -69.8953843000000035,
      "address_line_1": "23 Cemetery Road",
      "address_line_2": null
    },
    {
      "zip": "04562",
      "city": "Phippsburg ",
      "name": "Fire Department",
      "state": "ME",
      "latitude": 43.8080956000000015,
      "precinct": "ME_SAGADAHOC_PHIPPSBURG_1-1",
      "longitude": -69.8204259999999977,
      "address_line_1": "1060 Main Road",
      "address_line_2": null
    },
    {
      "zip": "04357",
      "city": "Richmond ",
      "name": "Richmond Town Office",
      "state": "ME",
      "latitude": 44.0862709000000024,
      "precinct": "ME_SAGADAHOC_RICHMOND_1-1",
      "longitude": -69.8062867999999952,
      "address_line_1": "26 Gardiner Street",
      "address_line_2": null
    },
    {
      "zip": "04530",
      "city": "West Bath ",
      "name": "West Bath Fire Hall ",
      "state": "ME",
      "latitude": 43.9033038999999974,
      "precinct": "ME_SAGADAHOC_WEST BATH_1-1",
      "longitude": -69.8497100000000017,
      "address_line_1": "192 State Road ",
      "address_line_2": null
    },
    {
      "zip": "04579",
      "city": "Woolwich ",
      "name": "Woolwich Central School",
      "state": "ME",
      "latitude": 43.9413565999999989,
      "precinct": "ME_SAGADAHOC_WOOLWICH_1-1",
      "longitude": -69.7823573999999951,
      "address_line_1": "137 Nequasset Road ",
      "address_line_2": null
    },
    {
      "zip": "04911",
      "city": "Anson ",
      "name": "Anson Town Hall ",
      "state": "ME",
      "latitude": 44.7976558000000011,
      "precinct": "ME_SOMERSET_ANSON_1-1",
      "longitude": -69.8897218000000038,
      "address_line_1": "5 Kennebec Street",
      "address_line_2": null
    },
    {
      "zip": "04920",
      "city": "Bingham ",
      "name": "Quimby Middle School Gym",
      "state": "ME",
      "latitude": 45.0546304000000006,
      "precinct": "ME_SOMERSET_BINGHAM_1-1",
      "longitude": -69.882781499999993,
      "address_line_1": "263 Maine Street",
      "address_line_2": null
    },
    {
      "zip": "04923",
      "city": "Cambridge ",
      "name": "Cambridge Municipal Building ",
      "state": "ME",
      "latitude": 45.0227563999999987,
      "precinct": "ME_SOMERSET_CAMBRIDGE_1-1",
      "longitude": -69.4535513000000009,
      "address_line_1": "202 Ripley Road ",
      "address_line_2": null
    },
    {
      "zip": "04924",
      "city": "Canaan ",
      "name": "Calvary Church",
      "state": "ME",
      "latitude": 44.7625075999999993,
      "precinct": "ME_SOMERSET_CANAAN_1-1",
      "longitude": -69.5606259999999992,
      "address_line_1": "299 Main Street",
      "address_line_2": null
    },
    {
      "zip": "04925",
      "city": "Caratunk ",
      "name": "Caratunk Town Office ",
      "state": "ME",
      "latitude": 45.2336548999999977,
      "precinct": "ME_SOMERSET_CARATUNK_1-1",
      "longitude": -69.992614599999996,
      "address_line_1": "11 School Street ",
      "address_line_2": null
    },
    {
      "zip": "04976",
      "city": "Cornville ",
      "name": "Cornville Town Hall ",
      "state": "ME",
      "latitude": 44.8462789000000015,
      "precinct": "ME_SOMERSET_CORNVILLE_1-1",
      "longitude": -69.676294200000001,
      "address_line_1": "493 West Ridge Road ",
      "address_line_2": null
    },
    {
      "zip": "04945",
      "city": "Moose River ",
      "name": "Moose River Town Office ",
      "state": "ME",
      "latitude": 45.7768675000000016,
      "precinct": "ME_SOMERSET_DENNISTOWN PLT_1-1",
      "longitude": -70.3419324999999986,
      "address_line_1": "705 Main Street ",
      "address_line_2": null
    },
    {
      "zip": "04929",
      "city": "Detroit ",
      "name": "DRCS Town Hall ",
      "state": "ME",
      "latitude": 44.7898899999999998,
      "precinct": "ME_SOMERSET_DETROIT_1-1",
      "longitude": -69.2892504999999943,
      "address_line_1": "35 South Main Street ",
      "address_line_2": null
    },
    {
      "zip": "04958",
      "city": "Embden ",
      "name": "Embden Community Center",
      "state": "ME",
      "latitude": 44.902101799999997,
      "precinct": "ME_SOMERSET_EMBDEN_1-1",
      "longitude": -69.9385855000000021,
      "address_line_1": "797 Embden Pond Road ",
      "address_line_2": null
    },
    {
      "zip": "04937",
      "city": "Fairfield ",
      "name": "Fairfield Community Center ",
      "state": "ME",
      "latitude": 44.5854114999999993,
      "precinct": "ME_SOMERSET_FAIRFIELD_1-1",
      "longitude": -69.594676800000002,
      "address_line_1": "61 Water Street ",
      "address_line_2": null
    },
    {
      "zip": "04945",
      "city": "Jackman ",
      "name": "Jackman Municipal Conference Room",
      "state": "ME",
      "latitude": 45.6211355000000012,
      "precinct": "ME_SOMERSET_JACKMAN_1-1",
      "longitude": -70.2483687000000003,
      "address_line_1": "369 Main Street ",
      "address_line_2": null
    },
    {
      "zip": "04945",
      "city": "Jackman ",
      "name": "Jackman Municipal Conference Room",
      "state": "ME",
      "latitude": 45.6211355000000012,
      "precinct": "ME_SOMERSET_JACKMAN_1-2",
      "longitude": -70.2483687000000003,
      "address_line_1": "369 Main Street ",
      "address_line_2": null
    },
    {
      "zip": "04950",
      "city": "Madison ",
      "name": "Old Point Avenue Building",
      "state": "ME",
      "latitude": 44.7891773999999998,
      "precinct": "ME_SOMERSET_MADISON_1-1",
      "longitude": -69.8826109999999971,
      "address_line_1": "108 Old Point Avenue",
      "address_line_2": null
    },
    {
      "zip": "04957",
      "city": "Mercer ",
      "name": "Mercer Town Office ",
      "state": "ME",
      "latitude": 44.6753603000000012,
      "precinct": "ME_SOMERSET_MERCER_1-1",
      "longitude": -69.9286191000000059,
      "address_line_1": "1015 Beech Hill Road ",
      "address_line_2": null
    },
    {
      "zip": "04945",
      "city": "Moose River ",
      "name": "Moose River Town Office ",
      "state": "ME",
      "latitude": 45.7768675000000016,
      "precinct": "ME_SOMERSET_MOOSE RIVER_1-1",
      "longitude": -70.3419324999999986,
      "address_line_1": "705 Main Street ",
      "address_line_2": null
    },
    {
      "zip": "04957",
      "city": "Norridgewock ",
      "name": "Mill Stream Elementary School",
      "state": "ME",
      "latitude": 44.7119968000000014,
      "precinct": "ME_SOMERSET_NORRIDGEWOCK_1-1",
      "longitude": -69.7980964000000057,
      "address_line_1": "26 Mercer Road",
      "address_line_2": null
    },
    {
      "zip": "04965",
      "city": "Palmyra ",
      "name": "Town Office and Community Center",
      "state": "ME",
      "latitude": 44.8444720999999973,
      "precinct": "ME_SOMERSET_PALMYRA_1-1",
      "longitude": -69.3830590000000029,
      "address_line_1": "4 Madawaska Road",
      "address_line_2": null
    },
    {
      "zip": "04967",
      "city": "Pittsfield ",
      "name": "Pittsfield Town Office ",
      "state": "ME",
      "latitude": 44.7840863999999996,
      "precinct": "ME_SOMERSET_PITTSFIELD_1-1",
      "longitude": -69.3822667999999965,
      "address_line_1": "112 Somerset Avenue ",
      "address_line_2": null
    },
    {
      "zip": "04967",
      "city": "Pittsfield ",
      "name": "Pittsfield Town Office ",
      "state": "ME",
      "latitude": 44.7840863999999996,
      "precinct": "ME_SOMERSET_PITTSFIELD_1-2",
      "longitude": -69.3822667999999965,
      "address_line_1": "112 Somerset Avenue ",
      "address_line_2": null
    },
    {
      "zip": "04967",
      "city": "Pittsfield ",
      "name": "Pittsfield Town Office ",
      "state": "ME",
      "latitude": 44.7840863999999996,
      "precinct": "ME_SOMERSET_PITTSFIELD_1-3",
      "longitude": -69.3822667999999965,
      "address_line_1": "112 Somerset Avenue ",
      "address_line_2": null
    },
    {
      "zip": "04967",
      "city": "Pittsfield ",
      "name": "Pittsfield Town Office ",
      "state": "ME",
      "latitude": 44.7840863999999996,
      "precinct": "ME_SOMERSET_PITTSFIELD_1-4",
      "longitude": -69.3822667999999965,
      "address_line_1": "112 Somerset Avenue ",
      "address_line_2": null
    },
    {
      "zip": "04920",
      "city": "Pleasant Ridge Plt",
      "name": "Pleasant Ridge Plantation Town Office",
      "state": "ME",
      "latitude": 45.0710459000000014,
      "precinct": "ME_SOMERSET_PLEASANT RIDGE PLT_1-1",
      "longitude": -69.9704885999999959,
      "address_line_1": "343 Rowe Pond Road",
      "address_line_2": null
    },
    {
      "zip": "04971",
      "city": "Ripley",
      "name": "Courser Memorial School",
      "state": "ME",
      "latitude": 44.9886910999999969,
      "precinct": "ME_SOMERSET_RIPLEY_1-1",
      "longitude": -69.3792179000000004,
      "address_line_1": "47 West Ripley Road",
      "address_line_2": null
    },
    {
      "zip": "04478",
      "city": "Rockwood Strip Twp ",
      "name": "Rockwood Community Center ",
      "state": "ME",
      "latitude": 45.6778941999999972,
      "precinct": "ME_SOMERSET_ROCKWOOD STRIP TWP_1-1",
      "longitude": -69.7434618000000057,
      "address_line_1": "3638 Rockwood Road (to Education Lane)",
      "address_line_2": null
    },
    {
      "zip": "04971",
      "city": "St. Albans ",
      "name": "Saint Albans Town Hall ",
      "state": "ME",
      "latitude": 44.9118361000000021,
      "precinct": "ME_SOMERSET_SAINT ALBANS_1-1",
      "longitude": -69.4096732000000003,
      "address_line_1": "7 Water Street ",
      "address_line_2": null
    },
    {
      "zip": "04978",
      "city": "Smithfield ",
      "name": "Smithfield Municipal Building ",
      "state": "ME",
      "latitude": 44.6366522000000003,
      "precinct": "ME_SOMERSET_SMITHFIELD_1-1",
      "longitude": -69.8258404999999982,
      "address_line_1": "926 Village Road ",
      "address_line_2": null
    },
    {
      "zip": "04979",
      "city": "Solon ",
      "name": "Solon Town Office ",
      "state": "ME",
      "latitude": 44.9436328000000032,
      "precinct": "ME_SOMERSET_SOLON_1-1",
      "longitude": -69.8516269999999935,
      "address_line_1": "121 South Main Street ",
      "address_line_2": null
    },
    {
      "zip": "04911",
      "city": "Starks ",
      "name": "Starks Community Center",
      "state": "ME",
      "latitude": 44.7306876000000031,
      "precinct": "ME_SOMERSET_STARKS_1-1",
      "longitude": -69.959272299999995,
      "address_line_1": "57 Anson Road",
      "address_line_2": null
    },
    {
      "zip": "04985",
      "city": "West Forks Plt",
      "name": "West Forks Town Hall ",
      "state": "ME",
      "latitude": 45.3407935999999978,
      "precinct": "ME_SOMERSET_WEST FORKS PLT_1-1",
      "longitude": -69.9722806000000048,
      "address_line_1": "2955 US Route 201 ",
      "address_line_2": null
    },
    {
      "zip": "04915",
      "city": "Belfast ",
      "name": "The Belfast Boathouse",
      "state": "ME",
      "latitude": 44.4258122000000029,
      "precinct": "ME_WALDO_BELFAST_1-1",
      "longitude": -69.0003042999999963,
      "address_line_1": "34 Commercial Street",
      "address_line_2": null
    },
    {
      "zip": "04915",
      "city": "Belfast ",
      "name": "The Belfast Boathouse",
      "state": "ME",
      "latitude": 44.4258122000000029,
      "precinct": "ME_WALDO_BELFAST_2-1",
      "longitude": -69.0003042999999963,
      "address_line_1": "34 Commercial Street",
      "address_line_2": null
    },
    {
      "zip": "04915",
      "city": "Belfast ",
      "name": "Crosby Center",
      "state": "ME",
      "latitude": 44.4243674000000013,
      "precinct": "ME_WALDO_BELFAST_3-1",
      "longitude": -69.0063446000000056,
      "address_line_1": "96 Church Street",
      "address_line_2": null
    },
    {
      "zip": "04915",
      "city": "Belfast ",
      "name": "Crosby Center",
      "state": "ME",
      "latitude": 44.4243674000000013,
      "precinct": "ME_WALDO_BELFAST_4-1",
      "longitude": -69.0063446000000056,
      "address_line_1": "96 Church Street",
      "address_line_2": null
    },
    {
      "zip": "04915",
      "city": "Belfast ",
      "name": "United Methodist Church",
      "state": "ME",
      "latitude": 44.4366568000000015,
      "precinct": "ME_WALDO_BELFAST_5-1",
      "longitude": -68.9971278000000012,
      "address_line_1": "23 Mill Lane",
      "address_line_2": null
    },
    {
      "zip": "04952",
      "city": "Belmont ",
      "name": "Belmont Community Building ",
      "state": "ME",
      "latitude": 44.3749161000000001,
      "precinct": "ME_WALDO_BELMONT_1-1",
      "longitude": -69.1315302999999943,
      "address_line_1": "613 Back Belmont Road ",
      "address_line_2": null
    },
    {
      "zip": "04921",
      "city": "Brooks ",
      "name": "Brooks Town Office",
      "state": "ME",
      "latitude": 44.5528965000000028,
      "precinct": "ME_WALDO_BROOKS_1-1",
      "longitude": -69.124020999999999,
      "address_line_1": "15 Purple Heart Hwy",
      "address_line_2": null
    },
    {
      "zip": "04922",
      "city": "Burnham ",
      "name": "Reynolds Corner Municipal Building",
      "state": "ME",
      "latitude": 44.6619396999999978,
      "precinct": "ME_WALDO_BURNHAM_1-1",
      "longitude": -69.3619118999999955,
      "address_line_1": "247 South Horseback Road",
      "address_line_2": null
    },
    {
      "zip": "04438",
      "city": "Frankfort ",
      "name": "Frankfort Congregational Church",
      "state": "ME",
      "latitude": 44.6076175000000035,
      "precinct": "ME_WALDO_FRANKFORT_1-1",
      "longitude": -68.873587299999997,
      "address_line_1": "42 Main Road South",
      "address_line_2": null
    },
    {
      "zip": "04848",
      "city": "Islesboro ",
      "name": "Islesboro Public Safety Meeting Room",
      "state": "ME",
      "latitude": 44.2928872999999967,
      "precinct": "ME_WALDO_ISLESBORO_1-1",
      "longitude": -68.9073257000000012,
      "address_line_1": "150 Main Road ",
      "address_line_2": null
    },
    {
      "zip": "04921",
      "city": "Jackson ",
      "name": "Jackson Town Office ",
      "state": "ME",
      "latitude": 44.6006539999999987,
      "precinct": "ME_WALDO_JACKSON_1-1",
      "longitude": -69.1432898000000051,
      "address_line_1": "730 Moosehead Trail ",
      "address_line_2": null
    },
    {
      "zip": "04986",
      "city": "Knox ",
      "name": "Knox Town Office ",
      "state": "ME",
      "latitude": 44.5240526999999986,
      "precinct": "ME_WALDO_KNOX_1-1",
      "longitude": -69.245522500000007,
      "address_line_1": "10 Abbott Road ",
      "address_line_2": null
    },
    {
      "zip": "04849",
      "city": "Lincolnville ",
      "name": "Lincolnville Central School ",
      "state": "ME",
      "latitude": 44.2945193999999987,
      "precinct": "ME_WALDO_LINCOLNVILLE_1-1",
      "longitude": -69.1105005999999946,
      "address_line_1": "523 Hope Road ",
      "address_line_2": null
    },
    {
      "zip": "04951",
      "city": "Monroe ",
      "name": "Monroe Town Hall ",
      "state": "ME",
      "latitude": 44.6144431000000026,
      "precinct": "ME_WALDO_MONROE_1-1",
      "longitude": -69.0177378000000061,
      "address_line_1": "8 Swanlake Avenue ",
      "address_line_2": null
    },
    {
      "zip": "04941",
      "city": "Montville ",
      "name": "Montville Town House (Town Hall)",
      "state": "ME",
      "latitude": 44.4462171999999995,
      "precinct": "ME_WALDO_MONTVILLE_1-1",
      "longitude": -69.2462115000000011,
      "address_line_1": "418 Center Road ",
      "address_line_2": null
    },
    {
      "zip": "04952",
      "city": "Morrill ",
      "name": "Morrill Community Center ",
      "state": "ME",
      "latitude": 44.4427426999999966,
      "precinct": "ME_WALDO_MORRILL_1-1",
      "longitude": -69.1492156000000051,
      "address_line_1": "4 North Main Street",
      "address_line_2": null
    },
    {
      "zip": "04849",
      "city": "Northport ",
      "name": "Northport Town Office ",
      "state": "ME",
      "latitude": 44.3359623999999997,
      "precinct": "ME_WALDO_NORTHPORT_1-1",
      "longitude": -68.9965944000000064,
      "address_line_1": "16 Beech Hill Road ",
      "address_line_2": null
    },
    {
      "zip": "04354",
      "city": "Palermo",
      "name": "Palermo Town Office",
      "state": "ME",
      "latitude": 44.4076854999999995,
      "precinct": "ME_WALDO_PALERMO_1-1",
      "longitude": -69.4712915000000066,
      "address_line_1": "45 North Palermo Road",
      "address_line_2": null
    },
    {
      "zip": "04981",
      "city": "Prospect ",
      "name": "Prospect Municipal Office ",
      "state": "ME",
      "latitude": 44.5530023000000028,
      "precinct": "ME_WALDO_PROSPECT_1-1",
      "longitude": -68.8646815999999973,
      "address_line_1": "958 Bangor Road ",
      "address_line_2": null
    },
    {
      "zip": "04973",
      "city": "Searsmont ",
      "name": "Searsmont Community Building",
      "state": "ME",
      "latitude": 44.3614310999999972,
      "precinct": "ME_WALDO_SEARSMONT_1-1",
      "longitude": -69.1923737999999986,
      "address_line_1": "37 Main Street South ",
      "address_line_2": null
    },
    {
      "zip": "04974",
      "city": "Searsport ",
      "name": "Searsport Lion's Club Community Building",
      "state": "ME",
      "latitude": 44.4581546000000003,
      "precinct": "ME_WALDO_SEARSPORT_1-1",
      "longitude": -68.9356219999999951,
      "address_line_1": "42 Prospect Street",
      "address_line_2": null
    },
    {
      "zip": "04981",
      "city": "Stockton Springs ",
      "name": "Stockton Springs Town Office ",
      "state": "ME",
      "latitude": 44.4896803999999975,
      "precinct": "ME_WALDO_STOCKTON SPRINGS_1-1",
      "longitude": -68.8556332999999938,
      "address_line_1": "217 Main Street ",
      "address_line_2": null
    },
    {
      "zip": "04986",
      "city": "Thorndike ",
      "name": "Thorndike Town Office ",
      "state": "ME",
      "latitude": 44.5740600000000029,
      "precinct": "ME_WALDO_THORNDIKE_1-1",
      "longitude": -69.2784673999999967,
      "address_line_1": "125 Mount View Road ",
      "address_line_2": null
    },
    {
      "zip": "04987",
      "city": "Troy ",
      "name": "Troy Town Office ",
      "state": "ME",
      "latitude": 44.6708805000000027,
      "precinct": "ME_WALDO_TROY_1-1",
      "longitude": -69.2620864000000012,
      "address_line_1": "129 Rogers Road ",
      "address_line_2": null
    },
    {
      "zip": "04988",
      "city": "Unity ",
      "name": "Unity Community Center",
      "state": "ME",
      "latitude": 44.6113130999999967,
      "precinct": "ME_WALDO_UNITY_1-1",
      "longitude": -69.3359039999999993,
      "address_line_1": "32 School Street",
      "address_line_2": null
    },
    {
      "zip": "04915",
      "city": "Waldo ",
      "name": "Waldo Town Office ",
      "state": "ME",
      "latitude": 44.4877277000000007,
      "precinct": "ME_WALDO_WALDO_1-1",
      "longitude": -69.1050500999999997,
      "address_line_1": "629 Waldo Station Road ",
      "address_line_2": null
    },
    {
      "zip": "04606",
      "city": "Addison ",
      "name": "Addison Town Hall ",
      "state": "ME",
      "latitude": 44.6185636000000017,
      "precinct": "ME_WASHINGTON_ADDISON_1-1",
      "longitude": -67.7429778000000056,
      "address_line_1": "334 Water Street ",
      "address_line_2": null
    },
    {
      "zip": "04694",
      "city": "Alexander ",
      "name": "Alexander Municipal Building ",
      "state": "ME",
      "latitude": 45.090594099999997,
      "precinct": "ME_WASHINGTON_ALEXANDER_1-1",
      "longitude": -67.4691008000000068,
      "address_line_1": "50 Cooper Road ",
      "address_line_2": null
    },
    {
      "zip": "04694",
      "city": "Baileyville ",
      "name": "F. Doug Jones Memorial Municipal Building ",
      "state": "ME",
      "latitude": 45.1544428999999994,
      "precinct": "ME_WASHINGTON_BAILEYVILLE_1-1",
      "longitude": -67.4082470000000029,
      "address_line_1": "63 Broadway Street ",
      "address_line_2": null
    },
    {
      "zip": "04694",
      "city": "Baring Plt ",
      "name": "Baring Baptist Church ",
      "state": "ME",
      "latitude": 45.1349648999999999,
      "precinct": "ME_WASHINGTON_BARING PLT_1-1",
      "longitude": -67.3146512999999942,
      "address_line_1": "47 Front Street ",
      "address_line_2": null
    },
    {
      "zip": "04622",
      "city": "Beddington ",
      "name": "Beddington Community Building ",
      "state": "ME",
      "latitude": 44.7988305000000011,
      "precinct": "ME_WASHINGTON_BEDDINGTON_1-1",
      "longitude": -68.0448104000000029,
      "address_line_1": "1978 State Highway 193 ",
      "address_line_2": null
    },
    {
      "zip": "04619",
      "city": "Calais ",
      "name": "Calais Elementary School",
      "state": "ME",
      "latitude": 45.1799272000000016,
      "precinct": "ME_WASHINGTON_CALAIS_1-1",
      "longitude": -67.2821179000000029,
      "address_line_1": "53 Garfield Street",
      "address_line_2": null
    },
    {
      "zip": "04623",
      "city": "Columbia ",
      "name": "Columbia Town Hall ",
      "state": "ME",
      "latitude": 44.6827639999999988,
      "precinct": "ME_WASHINGTON_COLUMBIA_1-1",
      "longitude": -67.7773312000000061,
      "address_line_1": "106 Epping Road ",
      "address_line_2": null
    },
    {
      "zip": "04623",
      "city": "Columbia Falls ",
      "name": "Columbia Falls Municipal Building",
      "state": "ME",
      "latitude": 44.6513269000000008,
      "precinct": "ME_WASHINGTON_COLUMBIA FALLS_1-1",
      "longitude": -67.7297475999999961,
      "address_line_1": "8 Point Street",
      "address_line_2": null
    },
    {
      "zip": "04694",
      "city": "Crawford ",
      "name": "Crawford Town Hall ",
      "state": "ME",
      "latitude": 45.0554612000000034,
      "precinct": "ME_WASHINGTON_CRAWFORD_1-1",
      "longitude": -67.5502369999999956,
      "address_line_1": "3190 Airline Road ",
      "address_line_2": null
    },
    {
      "zip": "04626",
      "city": "Cutler ",
      "name": "Cutler Town Office and Library ",
      "state": "ME",
      "latitude": 44.6578210999999996,
      "precinct": "ME_WASHINGTON_CUTLER_1-1",
      "longitude": -67.2101813999999962,
      "address_line_1": "2655 Cutler Road ",
      "address_line_2": null
    },
    {
      "zip": "04630",
      "city": "East Machias ",
      "name": "East Machias Municipal Building ",
      "state": "ME",
      "latitude": 44.7356131000000019,
      "precinct": "ME_WASHINGTON_EAST MACHIAS_1-1",
      "longitude": -67.393763100000001,
      "address_line_1": "571 Main Street ",
      "address_line_2": null
    },
    {
      "zip": "04631",
      "city": "Eastport ",
      "name": "Shead High School ",
      "state": "ME",
      "latitude": 44.9074480000000023,
      "precinct": "ME_WASHINGTON_EASTPORT_1-1",
      "longitude": -66.9891810000000021,
      "address_line_1": "89 High Street ",
      "address_line_2": null
    },
    {
      "zip": "04668",
      "city": "Grand Lake Stream Plt",
      "name": "James Brite Schoolhouse",
      "state": "ME",
      "latitude": 45.1779263999999969,
      "precinct": "ME_WASHINGTON_GRAND LAKE STREAM PLT_1-1",
      "longitude": -67.7741105000000061,
      "address_line_1": "15 Water Street",
      "address_line_2": null
    },
    {
      "zip": "04643",
      "city": "Harrington ",
      "name": "Harrington Town Office ",
      "state": "ME",
      "latitude": 44.6194940000000031,
      "precinct": "ME_WASHINGTON_HARRINGTON_1-1",
      "longitude": -67.8010967000000022,
      "address_line_1": "114 East Main Street ",
      "address_line_2": null
    },
    {
      "zip": "04668",
      "city": "Indian Twp",
      "name": "Indian Twp Tribal Office",
      "state": "ME",
      "latitude": 45.227095300000002,
      "precinct": "ME_WASHINGTON_INDIAN TOWNSHIP_1-1",
      "longitude": -67.5760984000000064,
      "address_line_1": "8 Kennabasis Road",
      "address_line_2": null
    },
    {
      "zip": "04648",
      "city": "Jonesboro ",
      "name": "Jonesboro Town Office",
      "state": "ME",
      "latitude": 44.6644107999999989,
      "precinct": "ME_WASHINGTON_JONESBORO_1-1",
      "longitude": -67.5737536000000034,
      "address_line_1": "23 Station Road ",
      "address_line_2": null
    },
    {
      "zip": "04649",
      "city": "Jonesport",
      "name": "Jonesport Town Office",
      "state": "ME",
      "latitude": 44.5547447000000005,
      "precinct": "ME_WASHINGTON_JONESPORT_1-1",
      "longitude": -67.6181674000000044,
      "address_line_1": "70 Snare Creek Lane",
      "address_line_2": null
    },
    {
      "zip": "04652",
      "city": "Lubec ",
      "name": "Lubec Town Office",
      "state": "ME",
      "latitude": 44.8596951000000033,
      "precinct": "ME_WASHINGTON_LUBEC_1-1",
      "longitude": -66.9874460000000056,
      "address_line_1": "40 School Street",
      "address_line_2": null
    },
    {
      "zip": "04654",
      "city": "Machias ",
      "name": "Machias Town Office ",
      "state": "ME",
      "latitude": 44.7184957999999995,
      "precinct": "ME_WASHINGTON_MACHIAS_1-1",
      "longitude": -67.4532535000000024,
      "address_line_1": "7 Court Street, Suite 1 ",
      "address_line_2": null
    },
    {
      "zip": "04655",
      "city": "Machiasport ",
      "name": "Machiasport Municipal Complex ",
      "state": "ME",
      "latitude": 44.6780649000000025,
      "precinct": "ME_WASHINGTON_MACHIASPORT_1-1",
      "longitude": -67.4054572999999948,
      "address_line_1": "8 Unity Square ",
      "address_line_2": null
    },
    {
      "zip": "04657",
      "city": "Meddybemps ",
      "name": "Meddybemps Community Center ",
      "state": "ME",
      "latitude": 45.0377507999999978,
      "precinct": "ME_WASHINGTON_MEDDYBEMPS_1-1",
      "longitude": -67.3540081999999956,
      "address_line_1": "849 Main Street ",
      "address_line_2": null
    },
    {
      "zip": "04658",
      "city": "Milbridge ",
      "name": "Milbridge Safety Complex",
      "state": "ME",
      "latitude": 44.5391606999999965,
      "precinct": "ME_WASHINGTON_MILBRIDGE_1-1",
      "longitude": -67.8815831999999943,
      "address_line_1": "16 School Street ",
      "address_line_2": null
    },
    {
      "zip": "04654",
      "city": "Northfield ",
      "name": "Northfield Town Hall ",
      "state": "ME",
      "latitude": 44.8359122000000028,
      "precinct": "ME_WASHINGTON_NORTHFIELD_1-1",
      "longitude": -67.5757080999999999,
      "address_line_1": "1940 Northfield Road ",
      "address_line_2": null
    },
    {
      "zip": "04666",
      "city": "Pembroke ",
      "name": "Pembroke Municipal Building",
      "state": "ME",
      "latitude": 44.9472876999999968,
      "precinct": "ME_WASHINGTON_PEMBROKE_1-1",
      "longitude": -67.180120400000007,
      "address_line_1": "48 Old County Road",
      "address_line_2": null
    },
    {
      "zip": "04667",
      "city": "Perry ",
      "name": "Perry Municipal Building",
      "state": "ME",
      "latitude": 44.9673956000000032,
      "precinct": "ME_WASHINGTON_PERRY_1-1",
      "longitude": -67.0770378999999934,
      "address_line_1": "898 US Route 1 ",
      "address_line_2": null
    },
    {
      "zip": "04654",
      "city": "Roque Bluffs ",
      "name": "Roque Bluffs Town Hall ",
      "state": "ME",
      "latitude": 44.6132498999999996,
      "precinct": "ME_WASHINGTON_ROQUE BLUFFS_1-1",
      "longitude": -67.4798303999999973,
      "address_line_1": "3 Roque Bluffs Road ",
      "address_line_2": null
    },
    {
      "zip": "04680",
      "city": "Steuben ",
      "name": "Steuben Fire Station",
      "state": "ME",
      "latitude": 44.5277081999999993,
      "precinct": "ME_WASHINGTON_STEUBEN_1-1",
      "longitude": -67.968738799999997,
      "address_line_1": "49 Smithville Road",
      "address_line_2": null
    },
    {
      "zip": "04691",
      "city": "Whiting",
      "name": "Whiting Community Building",
      "state": "ME",
      "latitude": 44.7909980000000019,
      "precinct": "ME_WASHINGTON_WHITING_1-1",
      "longitude": -67.1777007000000026,
      "address_line_1": "169 US Route 1",
      "address_line_2": null
    },
    {
      "zip": "04654",
      "city": "Whitneyville",
      "name": "Hillgrove Community Building",
      "state": "ME",
      "latitude": 44.7222943000000015,
      "precinct": "ME_WASHINGTON_WHITNEYVILLE_1-1",
      "longitude": -67.5228170999999975,
      "address_line_1": "42 South Main Street",
      "address_line_2": null
    },
    {
      "zip": "04001",
      "city": "Acton ",
      "name": "Acton Town Hall ",
      "state": "ME",
      "latitude": 43.5324774999999988,
      "precinct": "ME_YORK_ACTON_1-1",
      "longitude": -70.9097349999999977,
      "address_line_1": "35 H Road ",
      "address_line_2": null
    },
    {
      "zip": "04002",
      "city": "Alfred ",
      "name": "Alfred Elementary",
      "state": "ME",
      "latitude": 43.4709783999999999,
      "precinct": "ME_YORK_ALFRED_1-1",
      "longitude": -70.7222577999999942,
      "address_line_1": "21 Sanford Road",
      "address_line_2": null
    },
    {
      "zip": "04002",
      "city": "Alfred ",
      "name": "Alfred Elementary",
      "state": "ME",
      "latitude": 43.4709783999999999,
      "precinct": "ME_YORK_ALFRED_1-2",
      "longitude": -70.7222577999999942,
      "address_line_1": "21 Sanford Road",
      "address_line_2": null
    },
    {
      "zip": "04046",
      "city": "Arundel ",
      "name": "Arundel Municipal Office",
      "state": "ME",
      "latitude": 43.4223775000000032,
      "precinct": "ME_YORK_ARUNDEL_1-1",
      "longitude": -70.5309831999999943,
      "address_line_1": "257 Limerick Road",
      "address_line_2": null
    },
    {
      "zip": "03901",
      "city": "Berwick ",
      "name": "Berwick Town Hall ",
      "state": "ME",
      "latitude": 43.2668200999999968,
      "precinct": "ME_YORK_BERWICK_1-1",
      "longitude": -70.8650894000000022,
      "address_line_1": "11 Sullivan Street",
      "address_line_2": null
    },
    {
      "zip": "04005",
      "city": "Biddeford ",
      "name": "Tiger Gym Biddeford High School",
      "state": "ME",
      "latitude": 43.4958302000000003,
      "precinct": "ME_YORK_BIDDEFORD_1-1",
      "longitude": -70.4708665999999937,
      "address_line_1": "10-20 Maplewood Avenue",
      "address_line_2": null
    },
    {
      "zip": "04005",
      "city": "Biddeford ",
      "name": "Tiger Gym Biddeford High School",
      "state": "ME",
      "latitude": 43.4958302000000003,
      "precinct": "ME_YORK_BIDDEFORD_2-1",
      "longitude": -70.4708665999999937,
      "address_line_1": "10-20 Maplewood Avenue",
      "address_line_2": null
    },
    {
      "zip": "04005",
      "city": "Biddeford ",
      "name": "Tiger Gym Biddeford High School",
      "state": "ME",
      "latitude": 43.4958302000000003,
      "precinct": "ME_YORK_BIDDEFORD_3-1",
      "longitude": -70.4708665999999937,
      "address_line_1": "10-20 Maplewood Avenue",
      "address_line_2": null
    },
    {
      "zip": "04005",
      "city": "Biddeford ",
      "name": "Tiger Gym Biddeford High School",
      "state": "ME",
      "latitude": 43.4958302000000003,
      "precinct": "ME_YORK_BIDDEFORD_4-1",
      "longitude": -70.4708665999999937,
      "address_line_1": "10-20 Maplewood Avenue",
      "address_line_2": null
    },
    {
      "zip": "04005",
      "city": "Biddeford ",
      "name": "Tiger Gym Biddeford High School",
      "state": "ME",
      "latitude": 43.4958302000000003,
      "precinct": "ME_YORK_BIDDEFORD_5-1",
      "longitude": -70.4708665999999937,
      "address_line_1": "10-20 Maplewood Avenue",
      "address_line_2": null
    },
    {
      "zip": "04005",
      "city": "Biddeford ",
      "name": "Tiger Gym Biddeford High School",
      "state": "ME",
      "latitude": 43.4958302000000003,
      "precinct": "ME_YORK_BIDDEFORD_6-1",
      "longitude": -70.4708665999999937,
      "address_line_1": "10-20 Maplewood Avenue",
      "address_line_2": null
    },
    {
      "zip": "04005",
      "city": "Biddeford ",
      "name": "Tiger Gym Biddeford High School",
      "state": "ME",
      "latitude": 43.4958302000000003,
      "precinct": "ME_YORK_BIDDEFORD_7-1",
      "longitude": -70.4708665999999937,
      "address_line_1": "10-20 Maplewood Avenue",
      "address_line_2": null
    },
    {
      "zip": "04093",
      "city": "Buxton ",
      "name": "Buxton Municipal Complex (Town Hall)",
      "state": "ME",
      "latitude": 43.6145126999999988,
      "precinct": "ME_YORK_BUXTON_1-1",
      "longitude": -70.5084724000000023,
      "address_line_1": "185 Portland Road ",
      "address_line_2": null
    },
    {
      "zip": "04020",
      "city": "Cornish ",
      "name": "Pike Memorial Hall",
      "state": "ME",
      "latitude": 43.8060582000000025,
      "precinct": "ME_YORK_CORNISH_1-1",
      "longitude": -70.8055997000000019,
      "address_line_1": "17 Maple Street",
      "address_line_2": null
    },
    {
      "zip": "04005",
      "city": "Dayton ",
      "name": "Dayton Town Office ",
      "state": "ME",
      "latitude": 43.5460650999999999,
      "precinct": "ME_YORK_DAYTON_1-1",
      "longitude": -70.5934910000000002,
      "address_line_1": "33 Clarks Mills Road ",
      "address_line_2": null
    },
    {
      "zip": "03904",
      "city": "Eliot ",
      "name": "Marshwood Middle School ",
      "state": "ME",
      "latitude": 43.1076149000000015,
      "precinct": "ME_YORK_ELIOT_1-1",
      "longitude": -70.7490006999999963,
      "address_line_1": "626 Harold L. Dow Highway ",
      "address_line_2": null
    },
    {
      "zip": "04042",
      "city": "Hollis ",
      "name": "Hollis Community Building",
      "state": "ME",
      "latitude": 43.6392375000000001,
      "precinct": "ME_YORK_HOLLIS_1-1",
      "longitude": -70.5995922999999976,
      "address_line_1": "35 Town Farm Road",
      "address_line_2": null
    },
    {
      "zip": "04043",
      "city": "Kennebunk ",
      "name": "Edward C. Winston Auditorium ",
      "state": "ME",
      "latitude": 43.3874430999999987,
      "precinct": "ME_YORK_KENNEBUNK_1-1",
      "longitude": -70.5361692999999974,
      "address_line_1": "1 Summer Street ",
      "address_line_2": null
    },
    {
      "zip": "04043",
      "city": "Kennebunk ",
      "name": "Edward C. Winston Auditorium ",
      "state": "ME",
      "latitude": 43.3874430999999987,
      "precinct": "ME_YORK_KENNEBUNK_1-2",
      "longitude": -70.5361692999999974,
      "address_line_1": "1 Summer Street ",
      "address_line_2": null
    },
    {
      "zip": "04046",
      "city": "Kennebunkport ",
      "name": "Village Fire Station",
      "state": "ME",
      "latitude": 43.3670485999999968,
      "precinct": "ME_YORK_KENNEBUNKPORT_1-1",
      "longitude": -70.475174899999999,
      "address_line_1": "32 North Street",
      "address_line_2": null
    },
    {
      "zip": "03904",
      "city": "Kittery ",
      "name": "Kittery Community Center",
      "state": "ME",
      "latitude": 43.0974012000000002,
      "precinct": "ME_YORK_KITTERY_1-1",
      "longitude": -70.7361290999999994,
      "address_line_1": "120 Rogers Road",
      "address_line_2": null
    },
    {
      "zip": "04027",
      "city": "Lebanon ",
      "name": "Lebanon Elementary School ",
      "state": "ME",
      "latitude": 43.4017142000000007,
      "precinct": "ME_YORK_LEBANON_1-1",
      "longitude": -70.9101988999999975,
      "address_line_1": "65 Upper Guinea Road ",
      "address_line_2": null
    },
    {
      "zip": "04048",
      "city": "Limerick ",
      "name": "Limerick Municipal Building ",
      "state": "ME",
      "latitude": 43.6909893999999994,
      "precinct": "ME_YORK_LIMERICK_1-1",
      "longitude": -70.7914274999999975,
      "address_line_1": "55 Washington Street ",
      "address_line_2": null
    },
    {
      "zip": "04049",
      "city": "Limington ",
      "name": "Limington Municipal Complex ",
      "state": "ME",
      "latitude": 43.7416283000000021,
      "precinct": "ME_YORK_LIMINGTON_1-1",
      "longitude": -70.6898958000000022,
      "address_line_1": "425 Sokokis Avenue ",
      "address_line_2": null
    },
    {
      "zip": "04002",
      "city": "Lyman ",
      "name": "Lyman Elementary School",
      "state": "ME",
      "latitude": 43.4872474000000011,
      "precinct": "ME_YORK_LYMAN_1-1",
      "longitude": -70.6334686000000005,
      "address_line_1": "39 School House Road",
      "address_line_2": null
    },
    {
      "zip": "04095",
      "city": "Newfield ",
      "name": "Newfield Town Hall",
      "state": "ME",
      "latitude": 43.6433160999999998,
      "precinct": "ME_YORK_NEWFIELD_1-1",
      "longitude": -70.923198499999998,
      "address_line_1": "23 South Effingham Road",
      "address_line_2": null
    },
    {
      "zip": "03906",
      "city": "North Berwick ",
      "name": "North Berwick Elementary School ",
      "state": "ME",
      "latitude": 43.3064171999999985,
      "precinct": "ME_YORK_NORTH BERWICK_1-1",
      "longitude": -70.7410830000000033,
      "address_line_1": "25 Varney Road",
      "address_line_2": null
    },
    {
      "zip": "03907",
      "city": "Ogunquit ",
      "name": "Dunaway Community Center ",
      "state": "ME",
      "latitude": 43.2468483999999975,
      "precinct": "ME_YORK_OGUNQUIT_1-1",
      "longitude": -70.5985816999999969,
      "address_line_1": "23 School Street ",
      "address_line_2": null
    },
    {
      "zip": "04064",
      "city": "Old Orchard Beach ",
      "name": "Old Orchard Beach High School ",
      "state": "ME",
      "latitude": 43.5185609999999983,
      "precinct": "ME_YORK_OLD ORCHARD BEACH_1-1",
      "longitude": -70.3966554000000002,
      "address_line_1": "40 E Emerson Cummings Boulevard ",
      "address_line_2": null
    },
    {
      "zip": "04047",
      "city": "Parsonsfield",
      "name": "Parsonsfield Town Office",
      "state": "ME",
      "latitude": 43.759563,
      "precinct": "ME_YORK_PARSONSFIELD_1-1",
      "longitude": -70.929005200000006,
      "address_line_1": "634 North Road",
      "address_line_2": null
    },
    {
      "zip": "04072",
      "city": "Saco ",
      "name": "Thornton Academy Gym",
      "state": "ME",
      "latitude": 43.5075289999999981,
      "precinct": "ME_YORK_SACO_1-1",
      "longitude": -70.4399106999999987,
      "address_line_1": "438 Main Street",
      "address_line_2": null
    },
    {
      "zip": "04072",
      "city": "Saco ",
      "name": "Thornton Academy Gym",
      "state": "ME",
      "latitude": 43.5075289999999981,
      "precinct": "ME_YORK_SACO_2-1",
      "longitude": -70.4399106999999987,
      "address_line_1": "438 Main Street",
      "address_line_2": null
    },
    {
      "zip": "04072",
      "city": "Saco ",
      "name": "Thornton Academy Gym",
      "state": "ME",
      "latitude": 43.5075289999999981,
      "precinct": "ME_YORK_SACO_3-1",
      "longitude": -70.4399106999999987,
      "address_line_1": "438 Main Street",
      "address_line_2": null
    },
    {
      "zip": "04072",
      "city": "Saco ",
      "name": "Thornton Academy Gym",
      "state": "ME",
      "latitude": 43.5075289999999981,
      "precinct": "ME_YORK_SACO_4-1",
      "longitude": -70.4399106999999987,
      "address_line_1": "438 Main Street",
      "address_line_2": null
    },
    {
      "zip": "04072",
      "city": "Saco ",
      "name": "Thornton Academy Gym",
      "state": "ME",
      "latitude": 43.5075289999999981,
      "precinct": "ME_YORK_SACO_5-1",
      "longitude": -70.4399106999999987,
      "address_line_1": "438 Main Street",
      "address_line_2": null
    },
    {
      "zip": "04072",
      "city": "Saco ",
      "name": "Thornton Academy Gym",
      "state": "ME",
      "latitude": 43.5075289999999981,
      "precinct": "ME_YORK_SACO_6-1",
      "longitude": -70.4399106999999987,
      "address_line_1": "438 Main Street",
      "address_line_2": null
    },
    {
      "zip": "04072",
      "city": "Saco ",
      "name": "Thornton Academy Gym",
      "state": "ME",
      "latitude": 43.5075289999999981,
      "precinct": "ME_YORK_SACO_7-1",
      "longitude": -70.4399106999999987,
      "address_line_1": "438 Main Street",
      "address_line_2": null
    },
    {
      "zip": "04083",
      "city": "Springvale",
      "name": "Nasson Community Center - Gym",
      "state": "ME",
      "latitude": 43.4663497000000021,
      "precinct": "ME_YORK_SANFORD_1-1",
      "longitude": -70.7974248999999958,
      "address_line_1": "457 Main Street",
      "address_line_2": null
    },
    {
      "zip": "04073",
      "city": "Sanford ",
      "name": "St. Ignatius Hall - Gym",
      "state": "ME",
      "latitude": 43.4417009000000007,
      "precinct": "ME_YORK_SANFORD_2-1",
      "longitude": -70.7752761999999933,
      "address_line_1": "25 Riverside Avenue",
      "address_line_2": null
    },
    {
      "zip": "04073",
      "city": "Sanford ",
      "name": "Sanford High School & Technical Center/Door 41 Competition Gym",
      "state": "ME",
      "latitude": 43.4198406000000006,
      "precinct": "ME_YORK_SANFORD_3-1",
      "longitude": -70.7475605000000058,
      "address_line_1": "100 Alumni Boulevard",
      "address_line_2": null
    },
    {
      "zip": "04076",
      "city": "Shapleigh ",
      "name": "Shapleigh Memorial School",
      "state": "ME",
      "latitude": 43.5384099999999989,
      "precinct": "ME_YORK_SHAPLEIGH_1-1",
      "longitude": -70.8498763999999994,
      "address_line_1": "467 Shapleigh Corner Road",
      "address_line_2": null
    },
    {
      "zip": "03908",
      "city": "South Berwick ",
      "name": "South Berwick Town Hall - 3rd Floor ",
      "state": "ME",
      "latitude": 43.2335473999999991,
      "precinct": "ME_YORK_SOUTH BERWICK_1-1",
      "longitude": -70.8081202999999988,
      "address_line_1": "180 Main Street ",
      "address_line_2": null
    },
    {
      "zip": "04090",
      "city": "Wells ",
      "name": "Wells Junior High School Gym",
      "state": "ME",
      "latitude": 43.319832599999998,
      "precinct": "ME_YORK_WELLS_1-1",
      "longitude": -70.5829193000000004,
      "address_line_1": "1470 Post Road",
      "address_line_2": null
    },
    {
      "zip": "03909",
      "city": "York ",
      "name": "York High School - Robert E. Butler Gymnasium ",
      "state": "ME",
      "latitude": 43.1549610000000001,
      "precinct": "ME_YORK_YORK_1-1",
      "longitude": -70.6290221000000003,
      "address_line_1": "1 Robert Stevens Drive ",
      "address_line_2": null
    }
  ]
}
