{
  "id": 140,
  "name": "Michigan General Election",
  "updated_at": "2020-10-31T14:13:38.277749+00:00",
  "election_day": "2020-11-03",
  "polling_places": [
    {
      "zip": "48159",
      "city": "MAYBEE",
      "name": "Township Fire Hall",
      "state": "MI",
      "latitude": 42.0360624999999999,
      "precinct": "MI_MONROE_EXETER TOWNSHIP_002",
      "longitude": -83.4760624999999976,
      "address_line_1": "11120 SUMPTER ROAD",
      "address_line_2": null
    },
    {
      "zip": "48624",
      "city": "Gladwin",
      "name": "Gladwin Township Hall",
      "state": "MI",
      "latitude": 44.0303125000000009,
      "precinct": "MI_GLADWIN_GLADWIN TOWNSHIP_001",
      "longitude": -84.4474375000000066,
      "address_line_1": "200l Wagarville Rd",
      "address_line_2": null
    },
    {
      "zip": "49730",
      "city": "ELMIRA",
      "name": "Township Hall",
      "state": "MI",
      "latitude": 45.0593124999999972,
      "precinct": "MI_OTSEGO_ELMIRA TOWNSHIP_001",
      "longitude": -84.8574375000000032,
      "address_line_1": "2035 MT JACK ROAD",
      "address_line_2": null
    },
    {
      "zip": "48505",
      "city": "Flint",
      "name": "Hopewell Baptist Church",
      "state": "MI",
      "latitude": 43.0814374999999998,
      "precinct": "MI_GENESEE_GENESEE TOWNSHIP_005",
      "longitude": -83.5958124999999939,
      "address_line_1": "5162 Belsay Road",
      "address_line_2": null
    },
    {
      "zip": "48610",
      "city": "Alger",
      "name": "Bourret Township Hall",
      "state": "MI",
      "latitude": 44.0954375000000027,
      "precinct": "MI_GLADWIN_BOURRET TOWNSHIP_001",
      "longitude": -84.2674374999999998,
      "address_line_1": "2749 School Road",
      "address_line_2": null
    },
    {
      "zip": "49409",
      "city": "FERRYSBURG",
      "name": "Ferrysburg Cityhall",
      "state": "MI",
      "latitude": 43.0875624999999971,
      "precinct": "MI_OTTAWA_FERRYSBURG CITY_001",
      "longitude": -86.2183124999999961,
      "address_line_1": "17290 ROOSEVELT ROAD",
      "address_line_2": null
    },
    {
      "zip": "49840",
      "city": "Gulliver",
      "name": "Mueller Township Hall",
      "state": "MI",
      "latitude": 46.0556874999999977,
      "precinct": "MI_SCHOOLCRAFT_MUELLER TOWNSHIP_001",
      "longitude": -86.0293125000000032,
      "address_line_1": "1805W Quarry Road",
      "address_line_2": null
    },
    {
      "zip": "48433",
      "city": "Flushing",
      "name": "North Flushing Baptist Church",
      "state": "MI",
      "latitude": 43.1196874999999977,
      "precinct": "MI_GENESEE_FLUSHING TOWNSHIP_001",
      "longitude": -83.8321875000000034,
      "address_line_1": "7500 Mt Morris Rd",
      "address_line_2": null
    },
    {
      "zip": "48433",
      "city": "Flushing",
      "name": "North Flushing Baptist Church",
      "state": "MI",
      "latitude": 43.1196874999999977,
      "precinct": "MI_GENESEE_FLUSHING TOWNSHIP_005",
      "longitude": -83.8321875000000034,
      "address_line_1": "7500 Mt Morris Rd",
      "address_line_2": null
    },
    {
      "zip": "48458",
      "city": "Mt. Morris",
      "name": "Mt Morris Free Methodist Church",
      "state": "MI",
      "latitude": 43.118562500000003,
      "precinct": "MI_GENESEE_MOUNT MORRIS TOWNSHIP_003",
      "longitude": -83.7185625000000044,
      "address_line_1": "2115 W Mt Morris Rd",
      "address_line_2": null
    },
    {
      "zip": "48458",
      "city": "MT MORRIS",
      "name": "Masonic Temple",
      "state": "MI",
      "latitude": 43.1209374999999966,
      "precinct": "MI_GENESEE_MOUNT MORRIS CITY_001",
      "longitude": -83.6918124999999975,
      "address_line_1": "810 NORTH ST.",
      "address_line_2": null
    },
    {
      "zip": "48458",
      "city": "MT MORRIS",
      "name": "Masonic Temple",
      "state": "MI",
      "latitude": 43.1209374999999966,
      "precinct": "MI_GENESEE_MOUNT MORRIS CITY_002",
      "longitude": -83.6918124999999975,
      "address_line_1": "810 NORTH ST.",
      "address_line_2": null
    },
    {
      "zip": "48463",
      "city": "OTISVILLE",
      "name": "Richfield Church Of The Nazarene",
      "state": "MI",
      "latitude": 43.1199374999999989,
      "precinct": "MI_GENESEE_RICHFIELD TOWNSHIP_001",
      "longitude": -83.5595624999999984,
      "address_line_1": "7524 E MT MORRIS RD",
      "address_line_2": null
    },
    {
      "zip": "49456",
      "city": "SPRING LAKE",
      "name": "Fire Station No. 3",
      "state": "MI",
      "latitude": 43.132937499999997,
      "precinct": "MI_MUSKEGON_NORTON SHORES CITY_W01_P004",
      "longitude": -86.2178124999999937,
      "address_line_1": "1100 E PONTALUNA ROAD",
      "address_line_2": null
    },
    {
      "zip": "48460",
      "city": "New Lothrop",
      "name": "Maple Grove Township Hall",
      "state": "MI",
      "latitude": 43.1750625000000028,
      "precinct": "MI_SAGINAW_MAPLE GROVE TOWNSHIP_001",
      "longitude": -83.989437499999994,
      "address_line_1": "17010 Lincoln Rd",
      "address_line_2": null
    },
    {
      "zip": "49891",
      "city": "TRENARY",
      "name": "Community Building",
      "state": "MI",
      "latitude": 46.195187500000003,
      "precinct": "MI_ALGER_MATHIAS TOWNSHIP_001",
      "longitude": -86.9698125000000033,
      "address_line_1": "E2997 STATE RD 67",
      "address_line_2": null
    },
    {
      "zip": "49858",
      "city": "MENOMINEE",
      "name": "Township Hall",
      "state": "MI",
      "latitude": 45.1949375000000018,
      "precinct": "MI_MENOMINEE_MENOMINEE TOWNSHIP_001",
      "longitude": -87.6119374999999962,
      "address_line_1": "2283 O-1 DRIVE",
      "address_line_2": null
    },
    {
      "zip": "49858",
      "city": "MENOMINEE",
      "name": "Township Hall",
      "state": "MI",
      "latitude": 45.1949375000000018,
      "precinct": "MI_MENOMINEE_MENOMINEE TOWNSHIP_002",
      "longitude": -87.6119374999999962,
      "address_line_1": "2283 O-1 DRIVE",
      "address_line_2": null
    },
    {
      "zip": "48423",
      "city": "Otisville",
      "name": "Forest Township Hall",
      "state": "MI",
      "latitude": 43.0347490999999991,
      "precinct": "MI_GENESEE_FOREST TOWNSHIP_001",
      "longitude": -83.5180062999999961,
      "address_line_1": "130 E. Main St",
      "address_line_2": null
    },
    {
      "zip": "48423",
      "city": "Otisville",
      "name": "Forest Township Hall",
      "state": "MI",
      "latitude": 43.0347490999999991,
      "precinct": "MI_GENESEE_FOREST TOWNSHIP_002",
      "longitude": -83.5180062999999961,
      "address_line_1": "130 E. Main St",
      "address_line_2": null
    },
    {
      "zip": "49084",
      "city": "Riverside",
      "name": "Twp. Hall",
      "state": "MI",
      "latitude": 42.1825625000000031,
      "precinct": "MI_BERRIEN_HAGAR TOWNSHIP_001",
      "longitude": -86.3838125000000048,
      "address_line_1": "3900 RIVERSIDE RD",
      "address_line_2": null
    },
    {
      "zip": "49084",
      "city": "Riverside",
      "name": "Twp. Hall",
      "state": "MI",
      "latitude": 42.1825625000000031,
      "precinct": "MI_BERRIEN_HAGAR TOWNSHIP_002",
      "longitude": -86.3838125000000048,
      "address_line_1": "3900 RIVERSIDE RD",
      "address_line_2": null
    },
    {
      "zip": "49230",
      "city": "NORVELL",
      "name": "Norvell Township Hall",
      "state": "MI",
      "latitude": 42.1586874999999992,
      "precinct": "MI_JACKSON_NORVELL TOWNSHIP_001",
      "longitude": -84.1830625000000055,
      "address_line_1": "106 E. Commercial Street",
      "address_line_2": null
    },
    {
      "zip": "48884",
      "city": "FENWICK",
      "name": "Bushnell Twp Hall",
      "state": "MI",
      "latitude": 43.1631874999999994,
      "precinct": "MI_MONTCALM_BUSHNELL TOWNSHIP_001",
      "longitude": -85.0151874999999961,
      "address_line_1": "2983 E. BOYER ROAD",
      "address_line_2": null
    },
    {
      "zip": "48770",
      "city": "WHITTEMORE",
      "name": "Whittemore City Hall",
      "state": "MI",
      "latitude": 44.2288124999999965,
      "precinct": "MI_IOSCO_WHITTEMORE CITY_001",
      "longitude": -83.8029374999999987,
      "address_line_1": "508 S. BULLOCK/M-65",
      "address_line_2": null
    },
    {
      "zip": "48770",
      "city": "Turner",
      "name": "Sherman Township Hall",
      "state": "MI",
      "latitude": 44.2339375000000032,
      "precinct": "MI_IOSCO_SHERMAN TOWNSHIP_001",
      "longitude": -83.7440624999999983,
      "address_line_1": "5396 Whittemore Road",
      "address_line_2": null
    },
    {
      "zip": "48108",
      "city": "ANN ARBOR",
      "name": "Chinmaya Mission (temporary Location)",
      "state": "MI",
      "latitude": 42.2443124999999995,
      "precinct": "MI_WASHTENAW_PITTSFIELD CHARTER TOWNSHIP_003",
      "longitude": -83.6650625000000048,
      "address_line_1": "4760 PACKARD RD",
      "address_line_2": null
    },
    {
      "zip": "48108",
      "city": "ANN ARBOR",
      "name": "Chinmaya Mission (temporary Location)",
      "state": "MI",
      "latitude": 42.2443124999999995,
      "precinct": "MI_WASHTENAW_PITTSFIELD CHARTER TOWNSHIP_004",
      "longitude": -83.6650625000000048,
      "address_line_1": "4760 PACKARD RD",
      "address_line_2": null
    },
    {
      "zip": "48197",
      "city": "YPSILANTI",
      "name": "Rawsonville Sch",
      "state": "MI",
      "latitude": 42.212312500000003,
      "precinct": "MI_WASHTENAW_YPSILANTI TOWNSHIP_011",
      "longitude": -83.5488124999999968,
      "address_line_1": "3110 GROVE RD",
      "address_line_2": null
    },
    {
      "zip": "48197",
      "city": "YPSILANTI",
      "name": "Rawsonville Sch",
      "state": "MI",
      "latitude": 42.212312500000003,
      "precinct": "MI_WASHTENAW_YPSILANTI TOWNSHIP_012",
      "longitude": -83.5488124999999968,
      "address_line_1": "3110 GROVE RD",
      "address_line_2": null
    },
    {
      "zip": "49903",
      "city": "AMASA",
      "name": "Township Hall",
      "state": "MI",
      "latitude": 46.232312499999999,
      "precinct": "MI_IRON_HEMATITE TOWNSHIP_001",
      "longitude": -88.4473124999999953,
      "address_line_1": "109 W. PINE STREET",
      "address_line_2": null
    },
    {
      "zip": "49254",
      "city": "MICHIGAN CENTER",
      "name": "Leoni Township Hall",
      "state": "MI",
      "latitude": 42.2235624999999999,
      "precinct": "MI_JACKSON_LEONI TOWNSHIP_002",
      "longitude": -84.3254375000000067,
      "address_line_1": "​913 Fifth Street",
      "address_line_2": null
    },
    {
      "zip": "49689",
      "city": "Wellston",
      "name": "South Branch Township Fire Hall",
      "state": "MI",
      "latitude": 44.227937500000003,
      "precinct": "MI_WEXFORD_SOUTH BRANCH TOWNSHIP_001",
      "longitude": -86.0031874999999957,
      "address_line_1": "10510 W M 55",
      "address_line_2": null
    },
    {
      "zip": "48466",
      "city": "PECK",
      "name": "Elk Twp. Hall",
      "state": "MI",
      "latitude": 43.2586875000000006,
      "precinct": "MI_SANILAC_ELK TOWNSHIP_001",
      "longitude": -82.8161874999999981,
      "address_line_1": "29 E. LAPEER ST. PECK",
      "address_line_2": null
    },
    {
      "zip": "49079",
      "city": "PAW PAW",
      "name": "Almena Twp Hall",
      "state": "MI",
      "latitude": 42.2650624999999991,
      "precinct": "MI_VAN BUREN_ALMENA TOWNSHIP_001",
      "longitude": -85.8213125000000048,
      "address_line_1": "27625 C R 375",
      "address_line_2": null
    },
    {
      "zip": "49079",
      "city": "PAW PAW",
      "name": "Almena Twp Hall",
      "state": "MI",
      "latitude": 42.2650624999999991,
      "precinct": "MI_VAN BUREN_ALMENA TOWNSHIP_002",
      "longitude": -85.8213125000000048,
      "address_line_1": "27625 C R 375",
      "address_line_2": null
    },
    {
      "zip": "48109",
      "city": "ANN ARBOR",
      "name": "Northwood Comm Ctr",
      "state": "MI",
      "latitude": 42.2974375000000009,
      "precinct": "MI_WASHTENAW_ANN ARBOR CITY_W02_P001",
      "longitude": -83.7091874999999987,
      "address_line_1": "1000 MCINTYRE DR",
      "address_line_2": null
    },
    {
      "zip": "49202",
      "city": "JACKSON",
      "name": "St. John’s Parish Center",
      "state": "MI",
      "latitude": 42.2544375000000016,
      "precinct": "MI_JACKSON_JACKSON CITY_W03_P001",
      "longitude": -84.4035625000000067,
      "address_line_1": "711 N. Francis Street",
      "address_line_2": null
    },
    {
      "zip": "49202",
      "city": "JACKSON",
      "name": "St. John’s Parish Center",
      "state": "MI",
      "latitude": 42.2544375000000016,
      "precinct": "MI_JACKSON_JACKSON CITY_W03_P002",
      "longitude": -84.4035625000000067,
      "address_line_1": "711 N. Francis Street",
      "address_line_2": null
    },
    {
      "zip": "49202",
      "city": "JACKSON",
      "name": "St. John’s Parish Center",
      "state": "MI",
      "latitude": 42.2544375000000016,
      "precinct": "MI_JACKSON_JACKSON CITY_W03_P003",
      "longitude": -84.4035625000000067,
      "address_line_1": "711 N. Francis Street",
      "address_line_2": null
    },
    {
      "zip": "49841",
      "city": "Little Lake",
      "name": "Little Lake Gospel Chapel",
      "state": "MI",
      "latitude": 46.2868125000000035,
      "precinct": "MI_MARQUETTE_FORSYTH TOWNSHIP_002",
      "longitude": -87.3373124999999959,
      "address_line_1": "1761 E. State Hwy M-35",
      "address_line_2": null
    },
    {
      "zip": "49651",
      "city": "Falmouth",
      "name": "Township Hall",
      "state": "MI",
      "latitude": 44.2953125000000014,
      "precinct": "MI_MISSAUKEE_LAKE TOWNSHIP_001",
      "longitude": -85.2574374999999947,
      "address_line_1": "8105 W. Kelly Rd",
      "address_line_2": null
    },
    {
      "zip": "49712",
      "city": "BOYNE CITY",
      "name": "Bay Township Hall",
      "state": "MI",
      "latitude": 45.284812500000001,
      "precinct": "MI_CHARLEVOIX_BAY TOWNSHIP_001",
      "longitude": -85.0781874999999985,
      "address_line_1": "05045 BOYNE CITY ROAD",
      "address_line_2": null
    },
    {
      "zip": "49347",
      "city": "STANTON",
      "name": "Pine Township Hall",
      "state": "MI",
      "latitude": 43.3130625000000009,
      "precinct": "MI_MONTCALM_PINE TOWNSHIP_001",
      "longitude": -85.242312499999997,
      "address_line_1": "7900 W. SECOND STREET",
      "address_line_2": null
    },
    {
      "zip": "49015",
      "city": "SPRINGFIELD",
      "name": "City Hall",
      "state": "MI",
      "latitude": 42.326062499999999,
      "precinct": "MI_CALHOUN_SPRINGFIELD CITY_001",
      "longitude": -85.2408125000000041,
      "address_line_1": "601 AVENUE A",
      "address_line_2": null
    },
    {
      "zip": "49015",
      "city": "SPRINGFIELD",
      "name": "City Hall",
      "state": "MI",
      "latitude": 42.326062499999999,
      "precinct": "MI_CALHOUN_SPRINGFIELD CITY_002",
      "longitude": -85.2408125000000041,
      "address_line_1": "601 AVENUE A",
      "address_line_2": null
    },
    {
      "zip": "49457",
      "city": "MUSKEGON",
      "name": "Dalton Twp Hall",
      "state": "MI",
      "latitude": 43.3393124999999984,
      "precinct": "MI_MUSKEGON_DALTON TOWNSHIP_004",
      "longitude": -86.2015624999999943,
      "address_line_1": "1616 E. RILEY THOMPSON RD.",
      "address_line_2": null
    },
    {
      "zip": "49055",
      "city": "KENDALL",
      "name": "Pine Grove Twp Hall",
      "state": "MI",
      "latitude": 42.361437500000001,
      "precinct": "MI_VAN BUREN_SOUTH HAVEN TOWNSHIP_002",
      "longitude": -85.8094375000000014,
      "address_line_1": "26520 COUNTY ROAD 388",
      "address_line_2": null
    },
    {
      "zip": "49277",
      "city": "RIVES JUNCTION",
      "name": "Tompkins Township Hall",
      "state": "MI",
      "latitude": 42.3783124999999998,
      "precinct": "MI_JACKSON_TOMPKINS TOWNSHIP_001",
      "longitude": -84.5415624999999977,
      "address_line_1": "​ 9999 Tompkins Rd",
      "address_line_2": null
    },
    {
      "zip": "49663",
      "city": "Manton",
      "name": "Cedar Creek Township Hall",
      "state": "MI",
      "latitude": 44.3764375000000015,
      "precinct": "MI_WEXFORD_CEDAR CREEK TOWNSHIP_001",
      "longitude": -85.4075624999999974,
      "address_line_1": "2530 N 41½ Rd",
      "address_line_2": null
    },
    {
      "zip": "49090",
      "city": "SOUTH HAVEN",
      "name": "Township Hall",
      "state": "MI",
      "latitude": 42.3820625000000035,
      "precinct": "MI_VAN BUREN_SOUTH HAVEN CITY_W01_P001",
      "longitude": -86.2694374999999951,
      "address_line_1": "09761 BLUE STAR HIGHWAY",
      "address_line_2": null
    },
    {
      "zip": "49090",
      "city": "SOUTH HAVEN",
      "name": "Township Hall",
      "state": "MI",
      "latitude": 42.3820625000000035,
      "precinct": "MI_VAN BUREN_SOUTH HAVEN CITY_W02_P001",
      "longitude": -86.2694374999999951,
      "address_line_1": "09761 BLUE STAR HIGHWAY",
      "address_line_2": null
    },
    {
      "zip": "49259",
      "city": "MUNITH",
      "name": "Waterloo Township Hall",
      "state": "MI",
      "latitude": 42.3754374999999968,
      "precinct": "MI_JACKSON_WATERLOO TOWNSHIP_001",
      "longitude": -84.2036875000000009,
      "address_line_1": "9773 MT HOPE ROAD",
      "address_line_2": null
    },
    {
      "zip": "48230",
      "city": "GROSSE POINTE SHORES",
      "name": "Municipal Building",
      "state": "MI",
      "latitude": 42.4174374999999984,
      "precinct": "MI_WAYNE_GROSSE POINTE SHORES CITY_001",
      "longitude": -82.882687500000003,
      "address_line_1": "795 LAKESHORE RD",
      "address_line_2": null
    },
    {
      "zip": "48230",
      "city": "GROSSE POINTE SHORES",
      "name": "Municipal Building",
      "state": "MI",
      "latitude": 42.4174374999999984,
      "precinct": "MI_WAYNE_GROSSE POINTE SHORES CITY_002",
      "longitude": -82.882687500000003,
      "address_line_1": "795 LAKESHORE RD",
      "address_line_2": null
    },
    {
      "zip": "48189",
      "city": "Whitmore Lake",
      "name": "Fellowship Baptist Church",
      "state": "MI",
      "latitude": 42.4426874999999981,
      "precinct": "MI_LIVINGSTON_GREEN OAK TOWNSHIP_001",
      "longitude": -83.7369374999999962,
      "address_line_1": "10774 Nine Mile Road",
      "address_line_2": null
    },
    {
      "zip": "49849",
      "city": "ISHPEMING",
      "name": "Tilden Twp. Hall",
      "state": "MI",
      "latitude": 46.4430625000000035,
      "precinct": "MI_MARQUETTE_TILDEN TOWNSHIP_001",
      "longitude": -87.7273124999999965,
      "address_line_1": "COUNTY ROAD PG",
      "address_line_2": null
    },
    {
      "zip": "48757",
      "city": "RICHVILLE",
      "name": "Denmark Twp Hall",
      "state": "MI",
      "latitude": 43.4089375000000004,
      "precinct": "MI_TUSCOLA_MILLINGTON TOWNSHIP_001",
      "longitude": -83.675312500000004,
      "address_line_1": "9386 W SAGINAW RD",
      "address_line_2": null
    },
    {
      "zip": "49862",
      "city": "MUNSING",
      "name": "Seventh-day Adventist School",
      "state": "MI",
      "latitude": 46.4403124999999974,
      "precinct": "MI_ALGER_GRAND ISLAND TOWNSHIP_001",
      "longitude": -86.6626875000000041,
      "address_line_1": "E8799 M-28 W",
      "address_line_2": null
    },
    {
      "zip": "48152",
      "city": "LIVONIA",
      "name": "Hoover School",
      "state": "MI",
      "latitude": 42.4025625000000019,
      "precinct": "MI_WAYNE_LIVONIA CITY_016A",
      "longitude": -83.4019375000000025,
      "address_line_1": "15900 LEVAN ROAD",
      "address_line_2": null
    },
    {
      "zip": "49329",
      "city": "HOWARD CITY",
      "name": "Winfield Twp. Hall",
      "state": "MI",
      "latitude": 43.4316875000000024,
      "precinct": "MI_MONTCALM_WINFIELD TOWNSHIP_001",
      "longitude": -85.3879375000000067,
      "address_line_1": "15212 W. M-46",
      "address_line_2": null
    },
    {
      "zip": "48240",
      "city": "REDFORD",
      "name": "Hilbert Middle School",
      "state": "MI",
      "latitude": 42.4073125000000033,
      "precinct": "MI_WAYNE_REDFORD TOWNSHIP_008",
      "longitude": -83.3030624999999958,
      "address_line_1": "26440 PURITAN",
      "address_line_2": null
    },
    {
      "zip": "49950",
      "city": "MOHAWK",
      "name": "Houghton Township Hall",
      "state": "MI",
      "latitude": 47.4128125000000011,
      "precinct": "MI_KEWEENAW_HOUGHTON TOWNSHIP_001",
      "longitude": -88.2948125000000061,
      "address_line_1": "5059 Fourth St",
      "address_line_2": null
    },
    {
      "zip": "49740",
      "city": "HARBOR SPRINGS",
      "name": "West Traverse Twp Hall",
      "state": "MI",
      "latitude": 45.4350625000000008,
      "precinct": "MI_EMMET_WEST TRAVERSE TOWNSHIP_001",
      "longitude": -85.0290624999999949,
      "address_line_1": "8000 S M-119 HWY",
      "address_line_2": null
    },
    {
      "zip": "48021",
      "city": "Eastpointe",
      "name": "Eaton Academy",
      "state": "MI",
      "latitude": 42.4560625000000016,
      "precinct": "MI_MACOMB_EASTPOINTE CITY_007",
      "longitude": -82.9576875000000058,
      "address_line_1": "2140 Universal Ave",
      "address_line_2": null
    },
    {
      "zip": "48021",
      "city": "Eastpointe",
      "name": "Eaton Academy",
      "state": "MI",
      "latitude": 42.4560625000000016,
      "precinct": "MI_MACOMB_EASTPOINTE CITY_008",
      "longitude": -82.9576875000000058,
      "address_line_1": "2140 Universal Ave",
      "address_line_2": null
    },
    {
      "zip": "48021",
      "city": "Eastpointe",
      "name": "Crescentwood Elementary School",
      "state": "MI",
      "latitude": 42.4594374999999999,
      "precinct": "MI_MACOMB_WARREN CITY_W04_P015",
      "longitude": -82.972187500000004,
      "address_line_1": "14500 Crescentwood Ave",
      "address_line_2": null
    },
    {
      "zip": "48021",
      "city": "Eastpointe",
      "name": "Crescentwood Elementary School",
      "state": "MI",
      "latitude": 42.4594374999999999,
      "precinct": "MI_MACOMB_WARREN CITY_W04_P017",
      "longitude": -82.972187500000004,
      "address_line_1": "14500 Crescentwood Ave",
      "address_line_2": null
    },
    {
      "zip": "49625",
      "city": "COPEMISH",
      "name": "Cleon Township",
      "state": "MI",
      "latitude": 44.4784374999999983,
      "precinct": "MI_MANISTEE_CLEON TOWNSHIP_001",
      "longitude": -85.9263124999999945,
      "address_line_1": "16505 IMHOFF DRIVE",
      "address_line_2": null
    },
    {
      "zip": "48139",
      "city": "Pinckney",
      "name": "Hamburg Township Fire Station 11",
      "state": "MI",
      "latitude": 42.4659375000000026,
      "precinct": "MI_LIVINGSTON_HAMBURG TOWNSHIP_002",
      "longitude": -83.8739374999999967,
      "address_line_1": "3666 E. M-36",
      "address_line_2": null
    },
    {
      "zip": "49076",
      "city": "OLIVET",
      "name": "Walton Township Hall",
      "state": "MI",
      "latitude": 42.4950625000000031,
      "precinct": "MI_EATON_WALTON TOWNSHIP_001",
      "longitude": -84.8953125000000028,
      "address_line_1": "6933 S. STINE ROAD",
      "address_line_2": null
    },
    {
      "zip": "48139",
      "city": "Hamburg",
      "name": "St. Paul Lutheran Church",
      "state": "MI",
      "latitude": 42.452437500000002,
      "precinct": "MI_LIVINGSTON_HAMBURG TOWNSHIP_001",
      "longitude": -83.796187500000002,
      "address_line_1": "7701 E. M-36",
      "address_line_2": null
    },
    {
      "zip": "48139",
      "city": "Hamburg",
      "name": "St. Paul Lutheran Church",
      "state": "MI",
      "latitude": 42.452437500000002,
      "precinct": "MI_LIVINGSTON_HAMBURG TOWNSHIP_005",
      "longitude": -83.796187500000002,
      "address_line_1": "7701 E. M-36",
      "address_line_2": null
    },
    {
      "zip": "48116",
      "city": "Brighton",
      "name": "Green Oak Free Methodist Church",
      "state": "MI",
      "latitude": 42.455187500000001,
      "precinct": "MI_LIVINGSTON_GREEN OAK TOWNSHIP_003",
      "longitude": -83.7515625000000057,
      "address_line_1": "10111 Fieldcrest Rd.",
      "address_line_2": null
    },
    {
      "zip": "48116",
      "city": "Brighton",
      "name": "Green Oak Free Methodist Church",
      "state": "MI",
      "latitude": 42.455187500000001,
      "precinct": "MI_LIVINGSTON_GREEN OAK TOWNSHIP_009",
      "longitude": -83.7515625000000057,
      "address_line_1": "10111 Fieldcrest Rd.",
      "address_line_2": null
    },
    {
      "zip": "48178",
      "city": "South Lyon",
      "name": "Brummer Elementary School",
      "state": "MI",
      "latitude": 42.4601875000000035,
      "precinct": "MI_LIVINGSTON_GREEN OAK TOWNSHIP_004",
      "longitude": -83.6948124999999976,
      "address_line_1": "9919 N. Rushton Rd",
      "address_line_2": null
    },
    {
      "zip": "48178",
      "city": "South Lyon",
      "name": "Brummer Elementary School",
      "state": "MI",
      "latitude": 42.4601875000000035,
      "precinct": "MI_LIVINGSTON_GREEN OAK TOWNSHIP_006",
      "longitude": -83.6948124999999976,
      "address_line_1": "9919 N. Rushton Rd",
      "address_line_2": null
    },
    {
      "zip": "48375",
      "city": "NOVI",
      "name": "St James Catholic Church",
      "state": "MI",
      "latitude": 42.4650625000000019,
      "precinct": "MI_OAKLAND_NOVI CITY_024",
      "longitude": -83.503437500000004,
      "address_line_1": "46325 WEST TEN MILE",
      "address_line_2": null
    },
    {
      "zip": "48375",
      "city": "NOVI",
      "name": "Novi Meadows 6th Grade House",
      "state": "MI",
      "latitude": 42.476437500000003,
      "precinct": "MI_OAKLAND_NOVI CITY_023",
      "longitude": -83.4975625000000008,
      "address_line_1": "25299 TAFT ROAD",
      "address_line_2": null
    },
    {
      "zip": "49841",
      "city": "Sands",
      "name": "Sands Township Hall",
      "state": "MI",
      "latitude": 46.281055600000002,
      "precinct": "MI_MARQUETTE_SANDS TOWNSHIP_001",
      "longitude": -87.4409717999999998,
      "address_line_1": "987 South M-553",
      "address_line_2": null
    },
    {
      "zip": "48331",
      "city": "FARMINGTON HILLS",
      "name": "Hillside Elementary School",
      "state": "MI",
      "latitude": 42.4826874999999973,
      "precinct": "MI_OAKLAND_FARMINGTON HILLS CITY_016",
      "longitude": -83.4114375000000052,
      "address_line_1": "36801 ELEVEN MILE ROAD",
      "address_line_2": null
    },
    {
      "zip": "48335",
      "city": "FARMINGTON HILLS",
      "name": "First Presbyterian Church",
      "state": "MI",
      "latitude": 42.4849375000000009,
      "precinct": "MI_OAKLAND_FARMINGTON HILLS CITY_014",
      "longitude": -83.378562500000001,
      "address_line_1": "26165 FARMINGTON ROAD",
      "address_line_2": null
    },
    {
      "zip": "48334",
      "city": "FARMINGTON HILLS",
      "name": "Farmington Hall Activities Center",
      "state": "MI",
      "latitude": 42.4876874999999998,
      "precinct": "MI_OAKLAND_FARMINGTON HILLS CITY_013",
      "longitude": -83.3318124999999981,
      "address_line_1": "28600 ELEVEN MILE ROAD",
      "address_line_2": null
    },
    {
      "zip": "48034",
      "city": "SOUTHFIELD",
      "name": "Levey Middle School",
      "state": "MI",
      "latitude": 42.4583124999999981,
      "precinct": "MI_OAKLAND_SOUTHFIELD CITY_029",
      "longitude": -83.2920625000000001,
      "address_line_1": "25300 W 9 MILE RD",
      "address_line_2": null
    },
    {
      "zip": "48034",
      "city": "SOUTHFIELD",
      "name": "Levey Middle School",
      "state": "MI",
      "latitude": 42.4583124999999981,
      "precinct": "MI_OAKLAND_SOUTHFIELD CITY_032",
      "longitude": -83.2920625000000001,
      "address_line_1": "25300 W 9 MILE RD",
      "address_line_2": null
    },
    {
      "zip": "49050",
      "city": "Dowling",
      "name": "Johnstown Township Hall",
      "state": "MI",
      "latitude": 42.455187500000001,
      "precinct": "MI_BARRY_JOHNSTOWN TOWNSHIP_001",
      "longitude": -85.2484374999999943,
      "address_line_1": "13641 S M-37 HWY",
      "address_line_2": null
    },
    {
      "zip": "48220",
      "city": "FERNDALE",
      "name": "Grant School",
      "state": "MI",
      "latitude": 42.4501874999999984,
      "precinct": "MI_OAKLAND_ROYAL OAK TOWNSHIP_001",
      "longitude": -83.1593124999999986,
      "address_line_1": "211131 GARDEN LANE",
      "address_line_2": null
    },
    {
      "zip": "49967",
      "city": "TROUT CREEK",
      "name": "Township Hall",
      "state": "MI",
      "latitude": 46.482312499999999,
      "precinct": "MI_ONTONAGON_INTERIOR TOWNSHIP_001",
      "longitude": -89.0115624999999966,
      "address_line_1": "103 OLD M 28",
      "address_line_2": null
    },
    {
      "zip": "48883",
      "city": "Mt. Pleasant",
      "name": "Township Hall",
      "state": "MI",
      "latitude": 43.5170625000000015,
      "precinct": "MI_ISABELLA_LINCOLN TOWNSHIP_001",
      "longitude": -84.7868124999999964,
      "address_line_1": "8500 S. Crawford Rd.",
      "address_line_2": null
    },
    {
      "zip": "48419",
      "city": "DECKERVILLE",
      "name": "Forester Twp Hall",
      "state": "MI",
      "latitude": 43.5014375000000015,
      "precinct": "MI_SANILAC_FORESTER TOWNSHIP_001",
      "longitude": -82.5685624999999987,
      "address_line_1": "2470 N. LAKESHORE RD",
      "address_line_2": null
    },
    {
      "zip": "49344",
      "city": "Plainwell",
      "name": "Orangeville Township Hall",
      "state": "MI",
      "latitude": 42.5225624999999994,
      "precinct": "MI_BARRY_ORANGEVILLE TOWNSHIP_001",
      "longitude": -85.5129375000000067,
      "address_line_1": "7350 LINDSEY RD",
      "address_line_2": null
    },
    {
      "zip": "49058",
      "city": "Hastings",
      "name": "Baltimore Township Hall",
      "state": "MI",
      "latitude": 42.522062499999997,
      "precinct": "MI_BARRY_BALTIMORE TOWNSHIP_001",
      "longitude": -85.2281875000000042,
      "address_line_1": "3100 E DOWLING RD",
      "address_line_2": null
    },
    {
      "zip": "49455",
      "city": "ROTHBURY",
      "name": "Otto Twp Hall",
      "state": "MI",
      "latitude": 43.5445624999999978,
      "precinct": "MI_OCEANA_OTTO TOWNSHIP_001",
      "longitude": -86.2381874999999951,
      "address_line_1": "5458 S128TH AVE",
      "address_line_2": null
    },
    {
      "zip": "48043",
      "city": "MOUNT CLEMENS",
      "name": "Seminole School",
      "state": "MI",
      "latitude": 42.5805624999999992,
      "precinct": "MI_MACOMB_MOUNT CLEMENS CITY_009",
      "longitude": -82.9004374999999953,
      "address_line_1": "1500 MULBERRY",
      "address_line_2": null
    },
    {
      "zip": "48036",
      "city": "Clinton Township",
      "name": "Tenniswood Elementary School",
      "state": "MI",
      "latitude": 42.5595624999999984,
      "precinct": "MI_MACOMB_CLINTON TOWNSHIP_022",
      "longitude": -82.8765625000000057,
      "address_line_1": "23450 Glenwood Ave",
      "address_line_2": null
    },
    {
      "zip": "48036",
      "city": "Clinton Township",
      "name": "Tenniswood Elementary School",
      "state": "MI",
      "latitude": 42.5595624999999984,
      "precinct": "MI_MACOMB_CLINTON TOWNSHIP_030",
      "longitude": -82.8765625000000057,
      "address_line_1": "23450 Glenwood Ave",
      "address_line_2": null
    },
    {
      "zip": "48038",
      "city": "Clinton Township",
      "name": "Continuing Education",
      "state": "MI",
      "latitude": 42.5624375000000015,
      "precinct": "MI_MACOMB_CLINTON TOWNSHIP_012",
      "longitude": -82.8911875000000009,
      "address_line_1": "22280 Price Drive",
      "address_line_2": null
    },
    {
      "zip": "48043",
      "city": "Mt Clemens",
      "name": "Clinton Valley Elementary",
      "state": "MI",
      "latitude": 42.5828125000000028,
      "precinct": "MI_MACOMB_CLINTON TOWNSHIP_002",
      "longitude": -82.8988125000000053,
      "address_line_1": "1260 Mulberry St",
      "address_line_2": null
    },
    {
      "zip": "48043",
      "city": "Mt Clemens",
      "name": "Clinton Valley Elementary School",
      "state": "MI",
      "latitude": 42.5828125000000028,
      "precinct": "MI_MACOMB_CLINTON TOWNSHIP_014",
      "longitude": -82.8988125000000053,
      "address_line_1": "1260 Mulberry St",
      "address_line_2": null
    },
    {
      "zip": "48043",
      "city": "Mt Clemens",
      "name": "Clinton Valley Elementary School",
      "state": "MI",
      "latitude": 42.5828125000000028,
      "precinct": "MI_MACOMB_CLINTON TOWNSHIP_033",
      "longitude": -82.8988125000000053,
      "address_line_1": "1260 Mulberry St",
      "address_line_2": null
    },
    {
      "zip": "48043",
      "city": "MOUNT CLEMENS",
      "name": "City Hall",
      "state": "MI",
      "latitude": 42.5963125000000034,
      "precinct": "MI_MACOMB_MOUNT CLEMENS CITY_006",
      "longitude": -82.8759375000000063,
      "address_line_1": "ONE CROCKER BLVD.",
      "address_line_2": null
    },
    {
      "zip": "48381",
      "city": "MILFORD",
      "name": "Milford Civic Center",
      "state": "MI",
      "latitude": 42.5866874999999965,
      "precinct": "MI_OAKLAND_MILFORD TOWNSHIP_006",
      "longitude": -83.5884374999999977,
      "address_line_1": "1100 ATLANTIC ST",
      "address_line_2": null
    },
    {
      "zip": "48382",
      "city": "COMMERCE TOWNSHIP",
      "name": "Fire Station #4",
      "state": "MI",
      "latitude": 42.5573125000000019,
      "precinct": "MI_OAKLAND_COMMERCE TOWNSHIP_012",
      "longitude": -83.516437499999995,
      "address_line_1": "2401 GLENGARY RD",
      "address_line_2": null
    },
    {
      "zip": "48323",
      "city": "WEST BLOOMFIELD",
      "name": "Doherty Elementary",
      "state": "MI",
      "latitude": 42.5561875000000001,
      "precinct": "MI_OAKLAND_WEST BLOOMFIELD TOWNSHIP_007",
      "longitude": -83.3539375000000007,
      "address_line_1": "3575 WALNUT LAKE ROAD",
      "address_line_2": null
    },
    {
      "zip": "48323",
      "city": "WEST BLOOMFIELD",
      "name": "Lone Pine Elementary",
      "state": "MI",
      "latitude": 42.5734374999999972,
      "precinct": "MI_OAKLAND_WEST BLOOMFIELD TOWNSHIP_013",
      "longitude": -83.3406875000000014,
      "address_line_1": "3100 LANE PINE ROAD",
      "address_line_2": null
    },
    {
      "zip": "48038",
      "city": "Clinton Township",
      "name": "Erie Elementary School",
      "state": "MI",
      "latitude": 42.6084375000000009,
      "precinct": "MI_MACOMB_CLINTON TOWNSHIP_034",
      "longitude": -82.9310624999999959,
      "address_line_1": "12276 Romeo Plank Road",
      "address_line_2": null
    },
    {
      "zip": "48858",
      "city": "MT PLEASANT",
      "name": "Union Township Hall",
      "state": "MI",
      "latitude": 43.6111874999999998,
      "precinct": "MI_ISABELLA_UNION TOWNSHIP_001",
      "longitude": -84.8084374999999966,
      "address_line_1": "2010 S LINCOLN RD",
      "address_line_2": null
    },
    {
      "zip": "48821",
      "city": "Dimondale",
      "name": "Dimondale Elementary School (Oak St Entrance)",
      "state": "MI",
      "latitude": 42.6451874999999987,
      "precinct": "MI_EATON_WINDSOR CHARTER TOWNSHIP_003",
      "longitude": -84.6551874999999967,
      "address_line_1": "300 Oak St",
      "address_line_2": null
    },
    {
      "zip": "48322",
      "city": "WEST BLOOMFIELD",
      "name": "Spirit Of Grace Church",
      "state": "MI",
      "latitude": 42.6089375000000032,
      "precinct": "MI_OAKLAND_WEST BLOOMFIELD TOWNSHIP_003",
      "longitude": -83.3314375000000069,
      "address_line_1": "2399 FIGA LANE",
      "address_line_2": null
    },
    {
      "zip": "48329",
      "city": "WATERFORD",
      "name": "Donelson Hills Elementary School",
      "state": "MI",
      "latitude": 42.6421874999999986,
      "precinct": "MI_OAKLAND_WATERFORD TOWNSHIP_015",
      "longitude": -83.3398124999999936,
      "address_line_1": "2690 WEWOKA RD",
      "address_line_2": null
    },
    {
      "zip": "48341",
      "city": "PONTIAC",
      "name": "Salvation Army",
      "state": "MI",
      "latitude": 42.6253124999999997,
      "precinct": "MI_OAKLAND_PONTIAC CITY_W07_P019",
      "longitude": -83.2678125000000051,
      "address_line_1": "469 MLK BLVD S",
      "address_line_2": null
    },
    {
      "zip": "48341",
      "city": "PONTIAC",
      "name": "Salvation Army",
      "state": "MI",
      "latitude": 42.6253124999999997,
      "precinct": "MI_OAKLAND_PONTIAC CITY_W07_P020",
      "longitude": -83.2678125000000051,
      "address_line_1": "469 MLK BLVD S",
      "address_line_2": null
    },
    {
      "zip": "48341",
      "city": "PONTIAC",
      "name": "Salvation Army",
      "state": "MI",
      "latitude": 42.6253124999999997,
      "precinct": "MI_OAKLAND_PONTIAC CITY_W07_P021",
      "longitude": -83.2678125000000051,
      "address_line_1": "469 MLK BLVD S",
      "address_line_2": null
    },
    {
      "zip": "49628",
      "city": "Elberta",
      "name": "Township Hall - Elberta Community Building",
      "state": "MI",
      "latitude": 44.6121874999999974,
      "precinct": "MI_BENZIE_GILMORE TOWNSHIP_001",
      "longitude": -86.2225624999999951,
      "address_line_1": "401 FIRST STREET",
      "address_line_2": null
    },
    {
      "zip": "49740",
      "city": "CROSS VILLAGE",
      "name": "Cross Village Twp Community Center",
      "state": "MI",
      "latitude": 45.4316759000000019,
      "precinct": "MI_EMMET_CROSS VILLAGE TOWNSHIP_001",
      "longitude": -84.9919991999999951,
      "address_line_1": "5954 WADSWORTH STREET",
      "address_line_2": null
    },
    {
      "zip": "48047",
      "city": "New Baltimore",
      "name": "Chesterfield Township Office Complex",
      "state": "MI",
      "latitude": 42.6503124999999983,
      "precinct": "MI_MACOMB_CHESTERFIELD TOWNSHIP_011",
      "longitude": -82.8234374999999972,
      "address_line_1": "472575 Sugarbush Road",
      "address_line_2": null
    },
    {
      "zip": "48047",
      "city": "New Baltimore",
      "name": "Chesterfield Township Office Complex",
      "state": "MI",
      "latitude": 42.6503124999999983,
      "precinct": "MI_MACOMB_CHESTERFIELD TOWNSHIP_018",
      "longitude": -82.8234374999999972,
      "address_line_1": "472575 Sugarbush Road",
      "address_line_2": null
    },
    {
      "zip": "48911",
      "city": "LANSING",
      "name": "Pleasant View School",
      "state": "MI",
      "latitude": 42.6886875000000003,
      "precinct": "MI_INGHAM_LANSING CITY_W03_P027",
      "longitude": -84.5818124999999981,
      "address_line_1": "4501 PLEASANT GROVE ROAD",
      "address_line_2": null
    },
    {
      "zip": "48911",
      "city": "LANSING",
      "name": "Cavanaugh School",
      "state": "MI",
      "latitude": 42.6894374999999968,
      "precinct": "MI_INGHAM_LANSING CITY_W02_P013",
      "longitude": -84.5558125000000018,
      "address_line_1": "300 W. CAVANAUGH ROAD",
      "address_line_2": null
    },
    {
      "zip": "48386",
      "city": "WHITE LAKE",
      "name": "White Lake Oaks Golf",
      "state": "MI",
      "latitude": 42.6574375000000003,
      "precinct": "MI_OAKLAND_WHITE LAKE TOWNSHIP_006",
      "longitude": -83.4440625000000011,
      "address_line_1": "991 WILLIAMS LAKE RD",
      "address_line_2": null
    },
    {
      "zip": "48327",
      "city": "WATERFORD",
      "name": "Kettering High School",
      "state": "MI",
      "latitude": 42.6801875000000024,
      "precinct": "MI_OAKLAND_WATERFORD TOWNSHIP_006",
      "longitude": -83.3920624999999944,
      "address_line_1": "2800 KETTERING DR",
      "address_line_2": null
    },
    {
      "zip": "48327",
      "city": "WATERFORD",
      "name": "Kettering High School",
      "state": "MI",
      "latitude": 42.6801875000000024,
      "precinct": "MI_OAKLAND_WATERFORD TOWNSHIP_009",
      "longitude": -83.3920624999999944,
      "address_line_1": "2800 KETTERING DR",
      "address_line_2": null
    },
    {
      "zip": "48094",
      "city": "Shelby Township",
      "name": "Morgan Elementary School",
      "state": "MI",
      "latitude": 42.6898125000000022,
      "precinct": "MI_MACOMB_SHELBY CHARTER TOWNSHIP_007",
      "longitude": -83.0526875000000047,
      "address_line_1": "53800 Mound Rd",
      "address_line_2": null
    },
    {
      "zip": "48317",
      "city": "Shelby Township",
      "name": "Shelby Junior High School",
      "state": "MI",
      "latitude": 42.6734374999999986,
      "precinct": "MI_MACOMB_SHELBY CHARTER TOWNSHIP_005",
      "longitude": -83.0285625000000067,
      "address_line_1": "51700 Van Dyke",
      "address_line_2": null
    },
    {
      "zip": "48315",
      "city": "Shelby Charter Township",
      "name": "Shelby Junior High School",
      "state": "MI",
      "latitude": 42.6734374999999986,
      "precinct": "MI_MACOMB_SHELBY CHARTER TOWNSHIP_030",
      "longitude": -83.0285625000000067,
      "address_line_1": "51700 Van Dyke Ave",
      "address_line_2": null
    },
    {
      "zip": "48094",
      "city": "Shelby Township",
      "name": "Crissman Elementary School",
      "state": "MI",
      "latitude": 42.6884374999999991,
      "precinct": "MI_MACOMB_SHELBY CHARTER TOWNSHIP_001",
      "longitude": -83.0260624999999948,
      "address_line_1": "53550 Wolf",
      "address_line_2": null
    },
    {
      "zip": "48094",
      "city": "Shelby Township",
      "name": "Eisenhower High School",
      "state": "MI",
      "latitude": 42.6965624999999989,
      "precinct": "MI_MACOMB_SHELBY CHARTER TOWNSHIP_008",
      "longitude": -83.0481874999999974,
      "address_line_1": "6500 25 Mile Rd",
      "address_line_2": null
    },
    {
      "zip": "48094",
      "city": "Shelby Township",
      "name": "Eisenhower High School",
      "state": "MI",
      "latitude": 42.6965624999999989,
      "precinct": "MI_MACOMB_SHELBY CHARTER TOWNSHIP_017",
      "longitude": -83.0481874999999974,
      "address_line_1": "6500 25 Mile Rd",
      "address_line_2": null
    },
    {
      "zip": "49684",
      "city": "TRAVERSE CITY",
      "name": "Public Service Building",
      "state": "MI",
      "latitude": 44.7248124999999987,
      "precinct": "MI_GRAND TRAVERSE_GARFIELD TOWNSHIP_004",
      "longitude": -85.6039375000000007,
      "address_line_1": "2650 LAFRANIER ROAD",
      "address_line_2": null
    },
    {
      "zip": "49686",
      "city": "TRAVERSE CITY",
      "name": "East Bay Town Hall",
      "state": "MI",
      "latitude": 44.7143124999999984,
      "precinct": "MI_GRAND TRAVERSE_EAST BAY TOWNSHIP_001",
      "longitude": -85.5578124999999972,
      "address_line_1": "1965 THREE MILE ROAD NORTH",
      "address_line_2": null
    },
    {
      "zip": "49686",
      "city": "TRAVERSE CITY",
      "name": "East Bay Town Hall",
      "state": "MI",
      "latitude": 44.7143124999999984,
      "precinct": "MI_GRAND TRAVERSE_EAST BAY TOWNSHIP_004",
      "longitude": -85.5578124999999972,
      "address_line_1": "1965 THREE MILE ROAD NORTH",
      "address_line_2": null
    },
    {
      "zip": "48910",
      "city": "LANSING",
      "name": "Mt Hope School",
      "state": "MI",
      "latitude": 42.712312500000003,
      "precinct": "MI_INGHAM_LANSING CITY_W02_P015",
      "longitude": -84.5345625000000069,
      "address_line_1": "1215 E MT HOPE AVENUE",
      "address_line_2": null
    },
    {
      "zip": "49333",
      "city": "Middleville",
      "name": "Thornapple Twp Emergency Services",
      "state": "MI",
      "latitude": 42.7135625000000019,
      "precinct": "MI_BARRY_THORNAPPLE TOWNSHIP_001",
      "longitude": -85.4656875000000014,
      "address_line_1": "128 N HIGH ST",
      "address_line_2": null
    },
    {
      "zip": "48825",
      "city": "EAST LANSING",
      "name": "Brody Hall",
      "state": "MI",
      "latitude": 42.7313125000000014,
      "precinct": "MI_INGHAM_EAST LANSING CITY_001",
      "longitude": -84.4953124999999972,
      "address_line_1": "241 BRODY SERVICE RD",
      "address_line_2": null
    },
    {
      "zip": "48094",
      "city": "Washington",
      "name": "St John & Paul Parish",
      "state": "MI",
      "latitude": 42.7436875000000001,
      "precinct": "MI_MACOMB_WASHINGTON TOWNSHIP_011",
      "longitude": -83.039187499999997,
      "address_line_1": "777 28 Mile Rd.",
      "address_line_2": null
    },
    {
      "zip": "49684",
      "city": "T.C.",
      "name": "Health & Science Building (Northwestern Michigan College)",
      "state": "MI",
      "latitude": 44.7654374999999973,
      "precinct": "MI_GRAND TRAVERSE_TRAVERSE CITY CITY_009",
      "longitude": -85.585812500000003,
      "address_line_1": "1705 E. Front St.",
      "address_line_2": null
    },
    {
      "zip": "48823",
      "city": "EAST LANSING",
      "name": "New Hope Church",
      "state": "MI",
      "latitude": 42.7659374999999997,
      "precinct": "MI_INGHAM_MERIDIAN TOWNSHIP_020",
      "longitude": -84.4308125000000018,
      "address_line_1": "2170 E SAGINAW HWY",
      "address_line_2": null
    },
    {
      "zip": "48628",
      "city": "Edenville",
      "name": "Swanton Memorial Center",
      "state": "MI",
      "latitude": 43.798937500000001,
      "precinct": "MI_MIDLAND_EDENVILLE TOWNSHIP_001",
      "longitude": -84.3866874999999936,
      "address_line_1": "6422 N Water Road",
      "address_line_2": null
    },
    {
      "zip": "48363",
      "city": "OAKLAND",
      "name": "Woodlands Mhp",
      "state": "MI",
      "latitude": 42.799062499999998,
      "precinct": "MI_OAKLAND_OAKLAND CHARTER TOWNSHIP_002",
      "longitude": -83.1664375000000007,
      "address_line_1": "1441 W ROMEO RD",
      "address_line_2": null
    },
    {
      "zip": "49099",
      "city": "WHITE PIGEON",
      "name": "Mottville Twp Hall",
      "state": "MI",
      "latitude": 41.8003124999999969,
      "precinct": "MI_ST JOSEPH_MOTTVILLE TOWNSHIP_001",
      "longitude": -85.7500624999999985,
      "address_line_1": "68596 THOMAS ST",
      "address_line_2": null
    },
    {
      "zip": "49509",
      "city": "WYOMING",
      "name": "Westwood Apartments",
      "state": "MI",
      "latitude": 42.898562499999997,
      "precinct": "MI_KENT_WYOMING CITY_W03_P022",
      "longitude": -85.726437500000003,
      "address_line_1": "2450 36TH STREET SW",
      "address_line_2": null
    },
    {
      "zip": "49509",
      "city": "WYOMING",
      "name": "Ideal Park Church",
      "state": "MI",
      "latitude": 42.8619375000000034,
      "precinct": "MI_KENT_WYOMING CITY_W01_P006",
      "longitude": -85.6719374999999985,
      "address_line_1": "320 56TH STREET SW",
      "address_line_2": null
    },
    {
      "zip": "49509",
      "city": "WYOMING",
      "name": "Ideal Park Church",
      "state": "MI",
      "latitude": 42.8619375000000034,
      "precinct": "MI_KENT_WYOMING CITY_W01_P008",
      "longitude": -85.6719374999999985,
      "address_line_1": "320 56TH STREET SW",
      "address_line_2": null
    },
    {
      "zip": "49548",
      "city": "GRAND RAPIDS",
      "name": "Heritage Baptist Church",
      "state": "MI",
      "latitude": 42.8539375000000007,
      "precinct": "MI_KENT_GAINES TOWNSHIP_004",
      "longitude": -85.6271875000000051,
      "address_line_1": "1570 60th St SE",
      "address_line_2": null
    },
    {
      "zip": "49548",
      "city": "GRAND RAPIDS",
      "name": "Heritage Baptist Church",
      "state": "MI",
      "latitude": 42.8539375000000007,
      "precinct": "MI_KENT_GAINES TOWNSHIP_005",
      "longitude": -85.6271875000000051,
      "address_line_1": "1570 60th St SE",
      "address_line_2": null
    },
    {
      "zip": "49125",
      "city": "Harbert",
      "name": "Chikaming Twp. Center",
      "state": "MI",
      "latitude": 41.872937499999999,
      "precinct": "MI_BERRIEN_CHIKAMING TOWNSHIP_001",
      "longitude": -86.6250624999999985,
      "address_line_1": "13535 RED ARROW HWY",
      "address_line_2": null
    },
    {
      "zip": "49508",
      "city": "KENTWOOD",
      "name": "Kentwood Library",
      "state": "MI",
      "latitude": 42.8738124999999997,
      "precinct": "MI_KENT_KENTWOOD CITY_W02_P012",
      "longitude": -85.5958124999999939,
      "address_line_1": "4950 BRETON AVE SE",
      "address_line_2": null
    },
    {
      "zip": "49125",
      "city": "New Troy",
      "name": "Twp. Hall",
      "state": "MI",
      "latitude": 41.874312500000002,
      "precinct": "MI_BERRIEN_WEESAW TOWNSHIP_001",
      "longitude": -86.5485625000000027,
      "address_line_1": "13518 STATE ST",
      "address_line_2": null
    },
    {
      "zip": "49801",
      "city": "IRN MTN.",
      "name": "North Breitung Fire Hall",
      "state": "MI",
      "latitude": 45.8761875000000003,
      "precinct": "MI_DICKINSON_BREITUNG TOWNSHIP_002",
      "longitude": -88.0555624999999935,
      "address_line_1": "N4327 HGWY. M-95",
      "address_line_2": null
    },
    {
      "zip": "49507",
      "city": "GRAND RAPIDS",
      "name": "First Christian Reformed Church (franklin Ent.)",
      "state": "MI",
      "latitude": 42.9486874999999984,
      "precinct": "MI_KENT_GRAND RAPIDS CITY_W03_P066",
      "longitude": -85.6525625000000019,
      "address_line_1": "650 BATES SE",
      "address_line_2": null
    },
    {
      "zip": "49765",
      "city": "OSSINEKE",
      "name": "Ossineke Township Hall (near Wolf Creek Intersection)",
      "state": "MI",
      "latitude": 44.9025625000000019,
      "precinct": "MI_ALPENA_OSSINEKE TOWNSHIP_001",
      "longitude": -83.6286874999999981,
      "address_line_1": "9041 NICHOLSON HILL ROAD",
      "address_line_2": null
    },
    {
      "zip": "48438",
      "city": "GOODRICH",
      "name": "St. Mark Catholic Church",
      "state": "MI",
      "latitude": 42.9241875000000022,
      "precinct": "MI_GENESEE_ATLAS TOWNSHIP_001",
      "longitude": -83.5356874999999945,
      "address_line_1": "7296 GALE RD",
      "address_line_2": null
    },
    {
      "zip": "49028",
      "city": "Bronson",
      "name": "Township Hall",
      "state": "MI",
      "latitude": 41.941062500000001,
      "precinct": "MI_BRANCH_MATTESON TOWNSHIP_001",
      "longitude": -85.2343125000000015,
      "address_line_1": "M-86 AND ATHENS RD",
      "address_line_2": null
    },
    {
      "zip": "49659",
      "city": "BELLAIRE",
      "name": "Custer Township Hall",
      "state": "MI",
      "latitude": 44.9029375000000002,
      "precinct": "MI_ANTRIM_CUSTER TOWNSHIP_001",
      "longitude": -85.1518125000000055,
      "address_line_1": "2949 ALDEN HWY",
      "address_line_2": null
    },
    {
      "zip": "49659",
      "city": "MANCELONA",
      "name": "Star Township Hall",
      "state": "MI",
      "latitude": 44.9746875000000017,
      "precinct": "MI_ANTRIM_STAR TOWNSHIP_001",
      "longitude": -84.952437500000002,
      "address_line_1": "6775 ALBA HWY",
      "address_line_2": null
    },
    {
      "zip": "48507",
      "city": "FLINT",
      "name": "New Creation Church Of God",
      "state": "MI",
      "latitude": 42.9881875000000022,
      "precinct": "MI_GENESEE_FLINT TOWNSHIP_006",
      "longitude": -83.7504375000000039,
      "address_line_1": "G-3472 LENNON RD",
      "address_line_2": null
    },
    {
      "zip": "48507",
      "city": "FLINT",
      "name": "New Creation Church Of God",
      "state": "MI",
      "latitude": 42.9881875000000022,
      "precinct": "MI_GENESEE_FLINT TOWNSHIP_011",
      "longitude": -83.7504375000000039,
      "address_line_1": "G-3472 LENNON RD",
      "address_line_2": null
    },
    {
      "zip": "49834",
      "city": "FOSTER CITY",
      "name": "Mission Covenant Church Fellowship Hall",
      "state": "MI",
      "latitude": 45.9653125000000031,
      "precinct": "MI_DICKINSON_BREEN TOWNSHIP_001",
      "longitude": -87.7353125000000063,
      "address_line_1": "W2376 CEMETERY ROAD",
      "address_line_2": null
    },
    {
      "zip": "49503",
      "city": "GRAND RAPIDS",
      "name": "Kent County Recycling & Education Center",
      "state": "MI",
      "latitude": 42.9570624999999993,
      "precinct": "MI_KENT_GRAND RAPIDS CITY_W01_P001",
      "longitude": -85.6919374999999945,
      "address_line_1": "977 Wealthy SW",
      "address_line_2": null
    },
    {
      "zip": "49503",
      "city": "GRAND RAPIDS",
      "name": "4th Reformed Church",
      "state": "MI",
      "latitude": 42.9854375000000033,
      "precinct": "MI_KENT_GRAND RAPIDS CITY_W02_P032",
      "longitude": -85.6540624999999949,
      "address_line_1": "1226 UNION NE",
      "address_line_2": null
    },
    {
      "zip": "49546",
      "city": "GRAND RAPIDS",
      "name": "Forest Hills Baptist Church",
      "state": "MI",
      "latitude": 42.9605625000000018,
      "precinct": "MI_KENT_GRAND RAPIDS CHARTER TOWNSHIP_003",
      "longitude": -85.5724375000000066,
      "address_line_1": "3900 E FULTON ST",
      "address_line_2": null
    },
    {
      "zip": "48455",
      "city": "Hadley",
      "name": "Township Office Building",
      "state": "MI",
      "latitude": 42.9543125000000003,
      "precinct": "MI_LAPEER_HADLEY TOWNSHIP_001",
      "longitude": -83.3905625000000015,
      "address_line_1": "4293 Pratt Road",
      "address_line_2": null
    },
    {
      "zip": "49271",
      "city": "Osseo",
      "name": "Ransom Township Hall",
      "state": "MI",
      "latitude": 41.7746874999999989,
      "precinct": "MI_HILLSDALE_RANSOM TOWNSHIP_001",
      "longitude": -84.5349374999999981,
      "address_line_1": "5959 Mill St",
      "address_line_2": null
    },
    {
      "zip": "49271",
      "city": "Pittsford",
      "name": "Pittford Township Hall",
      "state": "MI",
      "latitude": 41.8548125000000013,
      "precinct": "MI_HILLSDALE_PITTSFORD TOWNSHIP_001",
      "longitude": -84.4188125000000014,
      "address_line_1": "5015 S. Waldron Rd",
      "address_line_2": null
    },
    {
      "zip": "48191",
      "city": "WHITTAKER",
      "name": "Augusta Twp. Hall",
      "state": "MI",
      "latitude": 42.1286874999999981,
      "precinct": "MI_WASHTENAW_AUGUSTA TOWNSHIP_003",
      "longitude": -83.5994374999999934,
      "address_line_1": "8021 TALLADAY RD.",
      "address_line_2": null
    },
    {
      "zip": "48043",
      "city": "Mt Clemens",
      "name": "Wilson School Gymnasium",
      "state": "MI",
      "latitude": 42.595937499999998,
      "precinct": "MI_MACOMB_MOUNT CLEMENS CITY_002",
      "longitude": -82.8909375000000068,
      "address_line_1": "58 S Wilson",
      "address_line_2": null
    },
    {
      "zip": "49423",
      "city": "HOLLAND",
      "name": "Township Hall",
      "state": "MI",
      "latitude": 42.7398124999999993,
      "precinct": "MI_ALLEGAN_OVERISEL TOWNSHIP_001",
      "longitude": -85.9699375000000003,
      "address_line_1": "A-4307 144TH AVENUE",
      "address_line_2": null
    },
    {
      "zip": "48064",
      "city": "CASCO",
      "name": "Casco Townhsip",
      "state": "MI",
      "latitude": 42.7671874999999986,
      "precinct": "MI_ST CLAIR_CASCO TOWNSHIP_001",
      "longitude": -82.6731874999999974,
      "address_line_1": "4512 MELDRUM ROAD",
      "address_line_2": null
    },
    {
      "zip": "48064",
      "city": "CASCO",
      "name": "Casco Townhsip",
      "state": "MI",
      "latitude": 42.7671874999999986,
      "precinct": "MI_ST CLAIR_CASCO TOWNSHIP_002",
      "longitude": -82.6731874999999974,
      "address_line_1": "4512 MELDRUM ROAD",
      "address_line_2": null
    },
    {
      "zip": "48054",
      "city": "CHINA",
      "name": "Township Hall",
      "state": "MI",
      "latitude": 42.7713125000000005,
      "precinct": "MI_ST CLAIR_CHINA TOWNSHIP_001",
      "longitude": -82.5526875000000047,
      "address_line_1": "4560 INDIAN TRAIL RD",
      "address_line_2": null
    },
    {
      "zip": "48054",
      "city": "CHINA",
      "name": "Township Hall",
      "state": "MI",
      "latitude": 42.7713125000000005,
      "precinct": "MI_ST CLAIR_CHINA TOWNSHIP_002",
      "longitude": -82.5526875000000047,
      "address_line_1": "4560 INDIAN TRAIL RD",
      "address_line_2": null
    },
    {
      "zip": "48469",
      "city": "Carsonville",
      "name": "Township Hall",
      "state": "MI",
      "latitude": 43.404187499999999,
      "precinct": "MI_SANILAC_WORTH TOWNSHIP_001",
      "longitude": -82.5401875000000018,
      "address_line_1": "6903 S. Lakeshore Rd",
      "address_line_2": null
    },
    {
      "zip": "48469",
      "city": "Carsonville",
      "name": "Township Hall",
      "state": "MI",
      "latitude": 43.404187499999999,
      "precinct": "MI_SANILAC_WORTH TOWNSHIP_002",
      "longitude": -82.5401875000000018,
      "address_line_1": "6903 S. Lakeshore Rd",
      "address_line_2": null
    },
    {
      "zip": "49459",
      "city": "BITELY",
      "name": "Township Hall",
      "state": "MI",
      "latitude": 43.6993124999999978,
      "precinct": "MI_NEWAYGO_BEAVER TOWNSHIP_001",
      "longitude": -86.0195625000000064,
      "address_line_1": "7991 N DICKINSON AVE",
      "address_line_2": null
    },
    {
      "zip": "48445",
      "city": "FILION",
      "name": "Township Hall",
      "state": "MI",
      "latitude": 43.8978125000000006,
      "precinct": "MI_HURON_LINCOLN TOWNSHIP_001",
      "longitude": -82.9455624999999941,
      "address_line_1": "1975 E FILION RD",
      "address_line_2": null
    },
    {
      "zip": "49665",
      "city": "Marion",
      "name": "Community Center",
      "state": "MI",
      "latitude": 44.1026875000000018,
      "precinct": "MI_SANILAC_MARION TOWNSHIP_001",
      "longitude": -85.148312500000003,
      "address_line_1": "3451 Main St",
      "address_line_2": null
    },
    {
      "zip": "48656",
      "city": "SAINT HELEN",
      "name": "Ausable Twp Hall",
      "state": "MI",
      "latitude": 44.4691874999999968,
      "precinct": "MI_ROSCOMMON_AU SABLE TOWNSHIP_001",
      "longitude": -84.4510625000000061,
      "address_line_1": "9181 N. KENO RD.",
      "address_line_2": null
    },
    {
      "zip": "49727",
      "city": "JOHANNESBURG",
      "name": "Vienna Twp Hall",
      "state": "MI",
      "latitude": 45.1028124999999989,
      "precinct": "MI_MONTMORENCY_VIENNA TOWNSHIP_001",
      "longitude": -85.0459374999999937,
      "address_line_1": "2734 M-32",
      "address_line_2": null
    },
    {
      "zip": "49760",
      "city": "MORAN",
      "name": "Community Center",
      "state": "MI",
      "latitude": 45.9934374999999989,
      "precinct": "MI_MACKINAC_BREVORT TOWNSHIP_001",
      "longitude": -84.8326875000000058,
      "address_line_1": "4020N CHURCH ST.",
      "address_line_2": null
    },
    {
      "zip": "49814",
      "city": "Ewen",
      "name": "Matchwood Township Hall",
      "state": "MI",
      "latitude": 46.4926875000000024,
      "precinct": "MI_ONTONAGON_MATCHWOOD TOWNSHIP_001",
      "longitude": -87.8635625000000005,
      "address_line_1": "28968 M28",
      "address_line_2": null
    },
    {
      "zip": "49970",
      "city": "Sidnaw",
      "name": "Kenton Town Hall",
      "state": "MI",
      "latitude": 46.5068125000000023,
      "precinct": "MI_HOUGHTON_DUNCAN TOWNSHIP_001",
      "longitude": -88.7134374999999977,
      "address_line_1": "13405 Highway M28",
      "address_line_2": null
    },
    {
      "zip": "49912",
      "city": "Sidnaw",
      "name": "Sidnaw Community Center",
      "state": "MI",
      "latitude": 46.534812500000001,
      "precinct": "MI_HOUGHTON_DUNCAN TOWNSHIP_002",
      "longitude": -89.1855625000000032,
      "address_line_1": "5377 Highway M28",
      "address_line_2": null
    },
    {
      "zip": "49288",
      "city": "Waldron",
      "name": "Wright-Waldron Municipal Building",
      "state": "MI",
      "latitude": 41.7280625000000001,
      "precinct": "MI_HILLSDALE_WRIGHT TOWNSHIP_001",
      "longitude": -84.4199375000000032,
      "address_line_1": "112 E. Center St",
      "address_line_2": null
    },
    {
      "zip": "49286",
      "city": "Tecumseh",
      "name": "Civic Auditorium",
      "state": "MI",
      "latitude": 42.0090624999999989,
      "precinct": "MI_LENAWEE_TECUMSEH CITY_W01_P002",
      "longitude": -83.9400624999999962,
      "address_line_1": "404 N. Maumee St",
      "address_line_2": null
    },
    {
      "zip": "49017",
      "city": "BATTLE CREEK",
      "name": "Fire Station # 3",
      "state": "MI",
      "latitude": 42.3551874999999995,
      "precinct": "MI_CALHOUN_BEDFORD TOWNSHIP_003",
      "longitude": -85.182437500000006,
      "address_line_1": "5902 MORGAN RD",
      "address_line_2": null
    },
    {
      "zip": "48371",
      "city": "OXFORD",
      "name": "Fire Station #2",
      "state": "MI",
      "latitude": 42.7524374999999992,
      "precinct": "MI_OAKLAND_BRANDON TOWNSHIP_004",
      "longitude": -83.3810624999999987,
      "address_line_1": "3065 S SASHABAW ROAD",
      "address_line_2": null
    },
    {
      "zip": "48890",
      "city": "PORTLAND",
      "name": "Sebewa Township Hall",
      "state": "MI",
      "latitude": 42.8141875000000027,
      "precinct": "MI_IONIA_SEBEWA TOWNSHIP_001",
      "longitude": -85.0150624999999991,
      "address_line_1": "2975 BIPPLEY ROAD",
      "address_line_2": null
    },
    {
      "zip": "49509",
      "city": "WYOMING",
      "name": "Gezon Fire Station - Community Room",
      "state": "MI",
      "latitude": 42.8621874999999974,
      "precinct": "MI_KENT_WYOMING CITY_W03_P028",
      "longitude": -85.7214374999999933,
      "address_line_1": "2300 Gezon Parkway SW",
      "address_line_2": null
    },
    {
      "zip": "48473",
      "city": "SWARTZ CREEK",
      "name": "Fire Central",
      "state": "MI",
      "latitude": 42.9180624999999978,
      "precinct": "MI_GENESEE_MUNDY TOWNSHIP_004",
      "longitude": -83.7483124999999973,
      "address_line_1": "8017 S. LINDEN RD",
      "address_line_2": null
    },
    {
      "zip": "48473",
      "city": "SWARTZ CREEK",
      "name": "Fire Central",
      "state": "MI",
      "latitude": 42.9180624999999978,
      "precinct": "MI_GENESEE_MUNDY TOWNSHIP_009",
      "longitude": -83.7483124999999973,
      "address_line_1": "8017 S. LINDEN RD",
      "address_line_2": null
    },
    {
      "zip": "49544",
      "city": "GRAND RAPIDS",
      "name": "Tallmadge Township",
      "state": "MI",
      "latitude": 42.9901874999999976,
      "precinct": "MI_OTTAWA_TALLMADGE TOWNSHIP_001",
      "longitude": -85.8251874999999984,
      "address_line_1": "0-1451 LEONARD STREET NW",
      "address_line_2": null
    },
    {
      "zip": "49544",
      "city": "GRAND RAPIDS",
      "name": "Tallmadge Township",
      "state": "MI",
      "latitude": 42.9901874999999976,
      "precinct": "MI_OTTAWA_TALLMADGE TOWNSHIP_002",
      "longitude": -85.8251874999999984,
      "address_line_1": "0-1451 LEONARD STREET NW",
      "address_line_2": null
    },
    {
      "zip": "49544",
      "city": "GRAND RAPIDS",
      "name": "Tallmadge Township",
      "state": "MI",
      "latitude": 42.9901874999999976,
      "precinct": "MI_OTTAWA_TALLMADGE TOWNSHIP_003",
      "longitude": -85.8251874999999984,
      "address_line_1": "0-1451 LEONARD STREET NW",
      "address_line_2": null
    },
    {
      "zip": "48505",
      "city": "FLINT",
      "name": "Greater Holy Temple Cogic",
      "state": "MI",
      "latitude": 43.0739374999999995,
      "precinct": "MI_GENESEE_FLINT CITY_W03_P020",
      "longitude": -83.6728125000000063,
      "address_line_1": "6702 N. DORT HWY",
      "address_line_2": null
    },
    {
      "zip": "48505",
      "city": "FLINT",
      "name": "Greater Holy Temple Cogic",
      "state": "MI",
      "latitude": 43.0739374999999995,
      "precinct": "MI_GENESEE_FLINT CITY_W03_P021",
      "longitude": -83.6728125000000063,
      "address_line_1": "6702 N. DORT HWY",
      "address_line_2": null
    },
    {
      "zip": "48505",
      "city": "Flint",
      "name": "San Juan Diego Center",
      "state": "MI",
      "latitude": 43.090187499999999,
      "precinct": "MI_GENESEE_MOUNT MORRIS TOWNSHIP_008",
      "longitude": -83.7260624999999976,
      "address_line_1": "6041 Ballard Dr",
      "address_line_2": null
    },
    {
      "zip": "48505",
      "city": "Flint",
      "name": "San Juan Diego Center",
      "state": "MI",
      "latitude": 43.090187499999999,
      "precinct": "MI_GENESEE_MOUNT MORRIS TOWNSHIP_009",
      "longitude": -83.7260624999999976,
      "address_line_1": "6041 Ballard Dr",
      "address_line_2": null
    },
    {
      "zip": "48505",
      "city": "Flint",
      "name": "San Juan Diego Center",
      "state": "MI",
      "latitude": 43.090187499999999,
      "precinct": "MI_GENESEE_MOUNT MORRIS TOWNSHIP_010",
      "longitude": -83.7260624999999976,
      "address_line_1": "6041 Ballard Dr",
      "address_line_2": null
    },
    {
      "zip": "48505",
      "city": "Flint",
      "name": "San Juan Diego Center",
      "state": "MI",
      "latitude": 43.090187499999999,
      "precinct": "MI_GENESEE_MOUNT MORRIS TOWNSHIP_011",
      "longitude": -83.7260624999999976,
      "address_line_1": "6041 Ballard Dr",
      "address_line_2": null
    },
    {
      "zip": "49459",
      "city": "WALKERVILLE",
      "name": "Township Hall",
      "state": "MI",
      "latitude": 43.7416874999999976,
      "precinct": "MI_NEWAYGO_TROY TOWNSHIP_001",
      "longitude": -86.0189375000000069,
      "address_line_1": "10350 N DICKINSON AVE",
      "address_line_2": null
    },
    {
      "zip": "48613",
      "city": "Bentley",
      "name": "Grim Township Hall",
      "state": "MI",
      "latitude": 43.9236874999999998,
      "precinct": "MI_GLADWIN_GRIM TOWNSHIP_001",
      "longitude": -84.1664375000000007,
      "address_line_1": "6399 Bay-Gladwin Line",
      "address_line_2": null
    },
    {
      "zip": "49458",
      "city": "Walhalla",
      "name": "Branch Township Hall",
      "state": "MI",
      "latitude": 43.9526875000000032,
      "precinct": "MI_MASON_BRANCH TOWNSHIP_001",
      "longitude": -86.1148124999999993,
      "address_line_1": "6688 E. First St",
      "address_line_2": null
    },
    {
      "zip": "49405",
      "city": "CUSTER",
      "name": "Custer Township Hall",
      "state": "MI",
      "latitude": 43.9550624999999968,
      "precinct": "MI_MASON_CUSTER TOWNSHIP_001",
      "longitude": -86.2310624999999931,
      "address_line_1": "1950 E US HWY 10",
      "address_line_2": null
    },
    {
      "zip": "49660",
      "city": "FREE SOIL",
      "name": "Grant Township Hall",
      "state": "MI",
      "latitude": 44.2218050999999974,
      "precinct": "MI_MASON_GRANT TOWNSHIP_001",
      "longitude": -86.2995848999999993,
      "address_line_1": "843 W. HOAGUE ROAD",
      "address_line_2": null
    },
    {
      "zip": "48770",
      "city": "Whittemore",
      "name": "Burleigh Township Hall",
      "state": "MI",
      "latitude": 44.2749375000000001,
      "precinct": "MI_IOSCO_BURLEIGH TOWNSHIP_001",
      "longitude": -83.7838124999999962,
      "address_line_1": "2492 S Powerline Road",
      "address_line_2": null
    },
    {
      "zip": "49651",
      "city": "LAKE CITY",
      "name": "Reeder Twp Hall",
      "state": "MI",
      "latitude": 44.294812499999999,
      "precinct": "MI_MISSAUKEE_REEDER TOWNSHIP_001",
      "longitude": -85.1543125000000032,
      "address_line_1": "2970 W KELLY RD",
      "address_line_2": null
    },
    {
      "zip": "48629",
      "city": "HOUGHTON LAKE",
      "name": "Lake Township Hall",
      "state": "MI",
      "latitude": 44.3561874999999972,
      "precinct": "MI_ROSCOMMON_LAKE TOWNSHIP_001",
      "longitude": -84.828937499999995,
      "address_line_1": "1380 N. MICHELSON RD.",
      "address_line_2": null
    },
    {
      "zip": "49649",
      "city": "KINGSLEY",
      "name": "Township Hall",
      "state": "MI",
      "latitude": 44.5839374999999976,
      "precinct": "MI_GRAND TRAVERSE_PARADISE TOWNSHIP_001",
      "longitude": -85.5291875000000061,
      "address_line_1": "2300 E M 113",
      "address_line_2": null
    },
    {
      "zip": "49649",
      "city": "KINGSLEY",
      "name": "Township Hall",
      "state": "MI",
      "latitude": 44.5839374999999976,
      "precinct": "MI_GRAND TRAVERSE_PARADISE TOWNSHIP_002",
      "longitude": -85.5291875000000061,
      "address_line_1": "2300 E M 113",
      "address_line_2": null
    },
    {
      "zip": "48745",
      "city": "MIKADO",
      "name": "Mikado Twp. Hall",
      "state": "MI",
      "latitude": 44.5894375000000025,
      "precinct": "MI_ALCONA_MILLEN TOWNSHIP_001",
      "longitude": -83.4219374999999985,
      "address_line_1": "2291 S. F-41 POB 60",
      "address_line_2": null
    },
    {
      "zip": "49735",
      "city": "WATERS",
      "name": "Township Hall",
      "state": "MI",
      "latitude": 44.8779375000000016,
      "precinct": "MI_OTSEGO_OTSEGO LAKE TOWNSHIP_001",
      "longitude": -84.6990624999999966,
      "address_line_1": "10584 OLD 27 S",
      "address_line_2": null
    },
    {
      "zip": "48762",
      "city": "OSSINEKE",
      "name": "Sanborn Township Hall",
      "state": "MI",
      "latitude": 44.9018124999999984,
      "precinct": "MI_ALPENA_SANBORN TOWNSHIP_001",
      "longitude": -83.442562499999994,
      "address_line_1": "12025 US HIGHWAY 23 S",
      "address_line_2": null
    },
    {
      "zip": "49727",
      "city": "EAST JORDAN",
      "name": "Echo Township Hall",
      "state": "MI",
      "latitude": 45.0584374999999966,
      "precinct": "MI_ANTRIM_ECHO TOWNSHIP_001",
      "longitude": -85.1630624999999952,
      "address_line_1": "1720 SIX MILE LAKE RD",
      "address_line_2": null
    },
    {
      "zip": "49743",
      "city": "HAWKS",
      "name": "Belknap Twp. Hall",
      "state": "MI",
      "latitude": 45.3324374999999975,
      "precinct": "MI_PRESQUE ISLE_BELKNAP TOWNSHIP_001",
      "longitude": -83.8371874999999989,
      "address_line_1": "1720 W. 638 HWY.",
      "address_line_2": null
    },
    {
      "zip": "49892",
      "city": "LORETTO",
      "name": "Loretto Town Hall",
      "state": "MI",
      "latitude": 45.7838125000000034,
      "precinct": "MI_DICKINSON_WAUCEDAH TOWNSHIP_001",
      "longitude": -87.820437499999997,
      "address_line_1": "W3930 MORGAN ST",
      "address_line_2": null
    },
    {
      "zip": "49781",
      "city": "ST IGNACE",
      "name": "Moran Township Hall",
      "state": "MI",
      "latitude": 45.8624374999999986,
      "precinct": "MI_MACKINAC_MORAN TOWNSHIP_001",
      "longitude": -84.7911875000000066,
      "address_line_1": "W1362 US 2",
      "address_line_2": null
    },
    {
      "zip": "49817",
      "city": "COOKS",
      "name": "Inwood Township Hall",
      "state": "MI",
      "latitude": 45.9180624999999978,
      "precinct": "MI_SCHOOLCRAFT_INWOOD TOWNSHIP_001",
      "longitude": -86.4730624999999975,
      "address_line_1": "1040S COUNTY ROAD 442",
      "address_line_2": null
    },
    {
      "zip": "49840",
      "city": "GULLIVER",
      "name": "Doyle Township Hall",
      "state": "MI",
      "latitude": 45.9960625000000007,
      "precinct": "MI_SCHOOLCRAFT_DOYLE TOWNSHIP_001",
      "longitude": -86.0119375000000019,
      "address_line_1": "1159N N.GULLIVER RD.",
      "address_line_2": null
    },
    {
      "zip": "49854",
      "city": "Manistique",
      "name": "Hiawatha Township Hall",
      "state": "MI",
      "latitude": 46.0043124999999975,
      "precinct": "MI_SCHOOLCRAFT_HIAWATHA TOWNSHIP_001",
      "longitude": -86.2816875000000039,
      "address_line_1": "1595N Highway M94",
      "address_line_2": null
    },
    {
      "zip": "49819",
      "city": "ARNOLD",
      "name": "Wells Twp Firehall",
      "state": "MI",
      "latitude": 46.0505624999999981,
      "precinct": "MI_MARQUETTE_WELLS TOWNSHIP_001",
      "longitude": -87.4908125000000041,
      "address_line_1": "38299 COUNTY ROAD 426",
      "address_line_2": null
    },
    {
      "zip": "49762",
      "city": "NAUBINWAY",
      "name": "Naubinway Pavilion",
      "state": "MI",
      "latitude": 46.0933125000000032,
      "precinct": "MI_MACKINAC_GARFIELD TOWNSHIP_002",
      "longitude": -85.4458125000000024,
      "address_line_1": "W11609 MAIN STREET",
      "address_line_2": null
    },
    {
      "zip": "49877",
      "city": "RALPH",
      "name": "Ralph Town Hall",
      "state": "MI",
      "latitude": 46.1000624999999999,
      "precinct": "MI_DICKINSON_WEST BRANCH TOWNSHIP_001",
      "longitude": -87.7879374999999982,
      "address_line_1": "N10604 COUNTRY ROAD 581",
      "address_line_2": null
    },
    {
      "zip": "49762",
      "city": "NAUBINWAY",
      "name": "Community Center",
      "state": "MI",
      "latitude": 46.1610624999999999,
      "precinct": "MI_MACKINAC_HUDSON TOWNSHIP_001",
      "longitude": -85.2398124999999993,
      "address_line_1": "N7961 CHURCH STREET",
      "address_line_2": null
    },
    {
      "zip": "49820",
      "city": "CURTIS",
      "name": "Curtis Community Bld",
      "state": "MI",
      "latitude": 46.2065624999999969,
      "precinct": "MI_MACKINAC_PORTAGE TOWNSHIP_001",
      "longitude": -85.749187500000005,
      "address_line_1": "W17353 DAVIS ST",
      "address_line_2": null
    },
    {
      "zip": "49816",
      "city": "CHATHAM",
      "name": "Township Hall",
      "state": "MI",
      "latitude": 46.2643125000000026,
      "precinct": "MI_ALGER_LIMESTONE TOWNSHIP_001",
      "longitude": -86.9278125000000017,
      "address_line_1": "N3010 STATE RD 67",
      "address_line_2": null
    },
    {
      "zip": "49969",
      "city": "WATERSMEET",
      "name": "Watersmeet Polling Building",
      "state": "MI",
      "latitude": 46.2686874999999986,
      "precinct": "MI_GOGEBIC_WATERSMEET TOWNSHIP_001",
      "longitude": -89.1796875,
      "address_line_1": "N4699 1ST ST",
      "address_line_2": null
    },
    {
      "zip": "49816",
      "city": "CHATHAM",
      "name": "Township Hall",
      "state": "MI",
      "latitude": 46.3465624999999974,
      "precinct": "MI_ALGER_ROCK RIVER TOWNSHIP_001",
      "longitude": -86.9284375000000011,
      "address_line_1": "E3667 STATE RD 94",
      "address_line_2": null
    },
    {
      "zip": "49938",
      "city": "IRONWOOD",
      "name": "Erwin Town Hall",
      "state": "MI",
      "latitude": 46.4188125000000014,
      "precinct": "MI_GOGEBIC_ERWIN TOWNSHIP_001",
      "longitude": -90.1354374999999948,
      "address_line_1": "N8908 VANBUSKIRK RD",
      "address_line_2": null
    },
    {
      "zip": "49861",
      "city": "Michigamme",
      "name": "Spurr Township Hall",
      "state": "MI",
      "latitude": 46.5390625,
      "precinct": "MI_BARAGA_SPURR TOWNSHIP_001",
      "longitude": -88.1294374999999945,
      "address_line_1": "29257 U.S. Hwy 41",
      "address_line_2": null
    },
    {
      "zip": "49839",
      "city": "GRAND MARAIS",
      "name": "Community Building",
      "state": "MI",
      "latitude": 46.6728124999999991,
      "precinct": "MI_ALGER_BURT TOWNSHIP_001",
      "longitude": -85.9866875000000022,
      "address_line_1": "E21738 BRAZEL ST",
      "address_line_2": null
    },
    {
      "zip": "49948",
      "city": "Mass City",
      "name": "Bohemia Township Hall",
      "state": "MI",
      "latitude": 46.7161874999999966,
      "precinct": "MI_ONTONAGON_BOHEMIA TOWNSHIP_001",
      "longitude": -88.9844374999999985,
      "address_line_1": "5741 Rousseau Rd",
      "address_line_2": null
    },
    {
      "zip": "49958",
      "city": "PELKIE",
      "name": "Laird Township Hall",
      "state": "MI",
      "latitude": 46.7654374999999973,
      "precinct": "MI_HOUGHTON_LAIRD TOWNSHIP_001",
      "longitude": -88.7526874999999933,
      "address_line_1": "2480 ALSTON AVE",
      "address_line_2": null
    },
    {
      "zip": "49808",
      "city": "BIG BAY",
      "name": "Halfway Firehall",
      "state": "MI",
      "latitude": 46.8025625000000005,
      "precinct": "MI_MARQUETTE_POWELL TOWNSHIP_002",
      "longitude": -87.7290624999999977,
      "address_line_1": "COUNTY ROAD 550",
      "address_line_2": null
    },
    {
      "zip": "49908",
      "city": "Baraga",
      "name": "Keweenaw Bay Fire Hall",
      "state": "MI",
      "latitude": 46.8640625000000028,
      "precinct": "MI_BARAGA_BARAGA TOWNSHIP_002",
      "longitude": -88.485187499999995,
      "address_line_1": "13529 Old 41 Road",
      "address_line_2": null
    },
    {
      "zip": "49931",
      "city": "HOUGHTON",
      "name": "Doelle Senior Center",
      "state": "MI",
      "latitude": 46.9329375000000013,
      "precinct": "MI_HOUGHTON_PORTAGE TOWNSHIP_004",
      "longitude": -88.5866874999999965,
      "address_line_1": "35604 PIKE RIVER RD",
      "address_line_2": null
    },
    {
      "zip": "49905",
      "city": "BALTIC",
      "name": "Adams Township Hall",
      "state": "MI",
      "latitude": 47.0691874999999982,
      "precinct": "MI_HOUGHTON_ADAMS TOWNSHIP_001",
      "longitude": -88.6354374999999948,
      "address_line_1": "17118 FIRST STREET",
      "address_line_2": null
    },
    {
      "zip": "49727",
      "city": "EAST JORDAN",
      "name": "Township Hall",
      "state": "MI",
      "latitude": 45.2560624999999987,
      "precinct": "MI_CHARLEVOIX_EVELINE TOWNSHIP_006",
      "longitude": -85.1501875000000013,
      "address_line_1": "08525 FERRY ROAD",
      "address_line_2": null
    },
    {
      "zip": "49720",
      "city": "CHARLEVOIX",
      "name": "Hayes Township Hall",
      "state": "MI",
      "latitude": 45.3519374999999982,
      "precinct": "MI_CHARLEVOIX_HAYES TOWNSHIP_007",
      "longitude": -85.163937500000003,
      "address_line_1": "09195 OLD U.S. 31",
      "address_line_2": null
    },
    {
      "zip": "49720",
      "city": "CHARLEVOIX",
      "name": "Marion Township Hall",
      "state": "MI",
      "latitude": 45.2601875000000007,
      "precinct": "MI_CHARLEVOIX_MARION TOWNSHIP_009",
      "longitude": -85.2655625000000015,
      "address_line_1": "03735 MARION CENTER ROAD",
      "address_line_2": null
    },
    {
      "zip": "49796",
      "city": "WALLOON LAKE",
      "name": "Township Hall",
      "state": "MI",
      "latitude": 45.2650624999999991,
      "precinct": "MI_CHARLEVOIX_MELROSE TOWNSHIP_010",
      "longitude": -84.9323124999999948,
      "address_line_1": "04289 M-75 NORTH",
      "address_line_2": null
    },
    {
      "zip": "49727",
      "city": "EAST JORDAN",
      "name": "South Arm Township Hall",
      "state": "MI",
      "latitude": 45.1636875000000018,
      "precinct": "MI_CHARLEVOIX_SOUTH ARM TOWNSHIP_014",
      "longitude": -85.1529374999999931,
      "address_line_1": "02811 S. M-66 HWY",
      "address_line_2": null
    },
    {
      "zip": "49712",
      "city": "BOYNE CITY",
      "name": "Wilson Township Hall",
      "state": "MI",
      "latitude": 45.1684375000000031,
      "precinct": "MI_CHARLEVOIX_WILSON TOWNSHIP_015",
      "longitude": -84.9868124999999992,
      "address_line_1": "02530 FALL PARK RD",
      "address_line_2": null
    },
    {
      "zip": "49765",
      "city": "TOWER",
      "name": "Forest Township Hall",
      "state": "MI",
      "latitude": 45.3556875000000019,
      "precinct": "MI_CHEBOYGAN_FOREST TOWNSHIP_001",
      "longitude": -84.2981874999999974,
      "address_line_1": "9511 M-68/33",
      "address_line_2": null
    },
    {
      "zip": "49721",
      "city": "CHEBOYGAN",
      "name": "Hebron Townhall",
      "state": "MI",
      "latitude": 45.679562500000003,
      "precinct": "MI_CHEBOYGAN_HEBRON TOWNSHIP_001",
      "longitude": -84.6716875000000044,
      "address_line_1": "9022 HEBRON TOWNHALL ROAD",
      "address_line_2": null
    },
    {
      "zip": "49791",
      "city": "TOPINABEE",
      "name": "Mullett Townhall",
      "state": "MI",
      "latitude": 45.4841874999999973,
      "precinct": "MI_CHEBOYGAN_MULLETT TOWNSHIP_001",
      "longitude": -84.5931874999999991,
      "address_line_1": "1491 N STRAITS HWY",
      "address_line_2": null
    },
    {
      "zip": "49783",
      "city": "Sault Ste Marie",
      "name": "Township Community Center",
      "state": "MI",
      "latitude": 46.455187500000001,
      "precinct": "MI_CHIPPEWA_SOO TOWNSHIP_001",
      "longitude": -84.3778125000000045,
      "address_line_1": "639 W. 3 1/2 Mile Rd.",
      "address_line_2": null
    },
    {
      "zip": "49793",
      "city": "Trout Lake",
      "name": "Trout Lake Township Hall",
      "state": "MI",
      "latitude": 46.1925625000000011,
      "precinct": "MI_CHIPPEWA_TROUT LAKE TOWNSHIP_001",
      "longitude": -85.0454375000000056,
      "address_line_1": "32686 W. H-40",
      "address_line_2": null
    },
    {
      "zip": "48625",
      "city": "HARRISON",
      "name": "Greenwood Township Hall",
      "state": "MI",
      "latitude": 44.030562500000002,
      "precinct": "MI_CLARE_GREENWOOD TOWNSHIP_001",
      "longitude": -84.9188125000000014,
      "address_line_1": "3447 W. TEMPLE DR.",
      "address_line_2": null
    },
    {
      "zip": "49665",
      "city": "HARRISON",
      "name": "Redding Township Hall",
      "state": "MI",
      "latitude": 44.0308125000000032,
      "precinct": "MI_CLARE_REDDING TOWNSHIP_001",
      "longitude": -85.016437499999995,
      "address_line_1": "8391 W TEMPLE DR",
      "address_line_2": null
    },
    {
      "zip": "48879",
      "city": "SAINT JOHNS",
      "name": "First Baptist Church",
      "state": "MI",
      "latitude": 42.9965625000000031,
      "precinct": "MI_CLINTON_ST JOHNS CITY_001",
      "longitude": -84.5516874999999999,
      "address_line_1": "512 SOUTH US-27",
      "address_line_2": null
    },
    {
      "zip": "48837",
      "city": "Grand Ledge",
      "name": "Wallace Watts Community Center/Gym",
      "state": "MI",
      "latitude": 42.8304375000000022,
      "precinct": "MI_CLINTON_WATERTOWN TOWNSHIP_001",
      "longitude": -84.699687499999996,
      "address_line_1": "12803 S. Wacousta Rd.",
      "address_line_2": null
    },
    {
      "zip": "48837",
      "city": "Grand Ledge",
      "name": "Wallace Watts Community Center/Gym",
      "state": "MI",
      "latitude": 42.8304375000000022,
      "precinct": "MI_CLINTON_WATERTOWN TOWNSHIP_002",
      "longitude": -84.699687499999996,
      "address_line_1": "12803 S. Wacousta Rd.",
      "address_line_2": null
    },
    {
      "zip": "49837",
      "city": "PERKINS",
      "name": "Baldwin Township Hal",
      "state": "MI",
      "latitude": 45.977937500000003,
      "precinct": "MI_DELTA_BALDWIN TOWNSHIP_001",
      "longitude": -87.0685624999999987,
      "address_line_1": "5901 PERKINS 30.5 RD",
      "address_line_2": null
    },
    {
      "zip": "49878",
      "city": "RAPID RIVER",
      "name": "Stonington Community",
      "state": "MI",
      "latitude": 45.9266383000000005,
      "precinct": "MI_DELTA_BAY DE NOC TOWNSHIP_001",
      "longitude": -86.9670603,
      "address_line_1": "5870 CO 513 T RD",
      "address_line_2": null
    },
    {
      "zip": "49829",
      "city": "ESCANABA",
      "name": "Catherine Bonifas Civic Center",
      "state": "MI",
      "latitude": 45.7474374999999966,
      "precinct": "MI_DELTA_ESCANABA CITY_003",
      "longitude": -87.0776874999999961,
      "address_line_1": "225 NORTH 21ST STREET",
      "address_line_2": null
    },
    {
      "zip": "49829",
      "city": "GLADSTONE",
      "name": "Escanaba Twp Hall",
      "state": "MI",
      "latitude": 45.8261875000000032,
      "precinct": "MI_DELTA_ESCANABA TOWNSHIP_002",
      "longitude": -87.1359374999999972,
      "address_line_1": "4618 CO 416 20TH ROAD",
      "address_line_2": null
    },
    {
      "zip": "49829",
      "city": "GLADSTONE",
      "name": "Escanaba Twp Hall",
      "state": "MI",
      "latitude": 45.8261875000000032,
      "precinct": "MI_DELTA_ESCANABA TOWNSHIP_003",
      "longitude": -87.1359374999999972,
      "address_line_1": "4618 CO 416 20TH ROAD",
      "address_line_2": null
    },
    {
      "zip": "49878",
      "city": "RAPID RIVER",
      "name": "Nahma Town Hall",
      "state": "MI",
      "latitude": 45.8411874999999966,
      "precinct": "MI_DELTA_NAHMA TOWNSHIP_001",
      "longitude": -86.664187499999997,
      "address_line_1": "13751 WELLS 21.2 ST",
      "address_line_2": null
    },
    {
      "zip": "49684",
      "city": "TRAVERSE CITY",
      "name": "Kensington Church",
      "state": "MI",
      "latitude": 44.7183125000000032,
      "precinct": "MI_GRAND TRAVERSE_LONG LAKE TOWNSHIP_002",
      "longitude": -85.7133125000000007,
      "address_line_1": "6880 SECOR ROAD",
      "address_line_2": null
    },
    {
      "zip": "49684",
      "city": "T.C.",
      "name": "Health & Science Building (Northwestern Michigan College)",
      "state": "MI",
      "latitude": 44.7654374999999973,
      "precinct": "MI_GRAND TRAVERSE_TRAVERSE CITY_009",
      "longitude": -85.585812500000003,
      "address_line_1": "1705 E. Front St.",
      "address_line_2": null
    },
    {
      "zip": "49004",
      "city": "KALAMAZOO",
      "name": "Bethel Baptist Church Of Kalamazoo",
      "state": "MI",
      "latitude": 42.3420624999999973,
      "precinct": "MI_KALAMAZOO_COOPER TOWNSHIP_003",
      "longitude": -85.5520625000000052,
      "address_line_1": "5701 MT OLIVET RD",
      "address_line_2": null
    },
    {
      "zip": "49680",
      "city": "SOUTH BOARDMAN",
      "name": "Boardman Twp Hall",
      "state": "MI",
      "latitude": 44.6431875000000034,
      "precinct": "MI_KALKASKA_BOARDMAN TOWNSHIP_001",
      "longitude": -85.2795624999999973,
      "address_line_1": "4859 PINE ST SW",
      "address_line_2": null
    },
    {
      "zip": "49680",
      "city": "FIFE LAKE",
      "name": "Garfield Twp Hall",
      "state": "MI",
      "latitude": 44.5830624999999969,
      "precinct": "MI_KALKASKA_GARFIELD TOWNSHIP_001",
      "longitude": -85.1656875000000042,
      "address_line_1": "466 W SHARON RD",
      "address_line_2": null
    },
    {
      "zip": "49321",
      "city": "COMSTOCK PARK",
      "name": "Fire Station #2",
      "state": "MI",
      "latitude": 42.8304375000000022,
      "precinct": "MI_KENT_ALPINE TOWNSHIP_004",
      "longitude": -84.699687499999996,
      "address_line_1": "3859 SEVEN MILE ROAD NW",
      "address_line_2": null
    },
    {
      "zip": "49656",
      "city": "Luther",
      "name": "Newkirk Municipal Hall",
      "state": "MI",
      "latitude": 44.0374375000000029,
      "precinct": "MI_LAKE_NEWKIRK TOWNSHIP_008",
      "longitude": -85.682437500000006,
      "address_line_1": "301 N State St",
      "address_line_2": null
    },
    {
      "zip": "49853",
      "city": "MCMILLAN",
      "name": "Columbus Twp Hall",
      "state": "MI",
      "latitude": 46.3394375000000025,
      "precinct": "MI_LUCE_COLUMBUS TOWNSHIP_001",
      "longitude": -85.6886875000000003,
      "address_line_1": "7459 N. COUNTY ROAD 415",
      "address_line_2": null
    },
    {
      "zip": "49887",
      "city": "CEDAR RIVER",
      "name": "Cedarville Twp Hall",
      "state": "MI",
      "latitude": 45.409812500000001,
      "precinct": "MI_MENOMINEE_CEDARVILLE TOWNSHIP_001",
      "longitude": -87.3574375000000032,
      "address_line_1": "8235 OLD MILL LN",
      "address_line_2": null
    },
    {
      "zip": "49847",
      "city": "VULCAN",
      "name": "Faithorn Twp Hall",
      "state": "MI",
      "latitude": 45.6800624999999982,
      "precinct": "MI_MENOMINEE_FAITHORN TOWNSHIP_001",
      "longitude": -87.7586874999999935,
      "address_line_1": "W8508 COUNTY RD 577",
      "address_line_2": null
    },
    {
      "zip": "49812",
      "city": "WILSON",
      "name": "Township Hall",
      "state": "MI",
      "latitude": 45.5986874999999969,
      "precinct": "MI_MENOMINEE_GOURLEY TOWNSHIP_001",
      "longitude": -87.3680624999999935,
      "address_line_1": "N 13407 COUNTY ROAD 551",
      "address_line_2": null
    },
    {
      "zip": "49896",
      "city": "WILSON",
      "name": "Township Hall",
      "state": "MI",
      "latitude": 45.7031874999999985,
      "precinct": "MI_MENOMINEE_HARRIS TOWNSHIP_001",
      "longitude": -87.369937500000006,
      "address_line_1": "W905 US 2 & 41",
      "address_line_2": null
    },
    {
      "zip": "49821",
      "city": "DAGGETT",
      "name": "Township Hall",
      "state": "MI",
      "latitude": 45.5254375000000024,
      "precinct": "MI_MENOMINEE_HOLMES TOWNSHIP_001",
      "longitude": -87.6870624999999961,
      "address_line_1": "W7258 CHEESE FACTORY RD",
      "address_line_2": null
    },
    {
      "zip": "49893",
      "city": "WALLACE",
      "name": "Greenwoods Twsp Hall",
      "state": "MI",
      "latitude": 45.310437499999999,
      "precinct": "MI_MENOMINEE_INGALLSTON TOWNSHIP_001",
      "longitude": -87.5186874999999986,
      "address_line_1": "W3790 TOWN HALL RD",
      "address_line_2": null
    },
    {
      "zip": "49893",
      "city": "WALLACE",
      "name": "Township Hall",
      "state": "MI",
      "latitude": 45.3284374999999997,
      "precinct": "MI_MENOMINEE_MELLEN TOWNSHIP_001",
      "longitude": -87.6089374999999961,
      "address_line_1": "W5631 CO RD 342",
      "address_line_2": null
    },
    {
      "zip": "49847",
      "city": "HERMANSVILLE",
      "name": "Meyer Twp Hall",
      "state": "MI",
      "latitude": 45.7100624999999994,
      "precinct": "MI_MENOMINEE_MEYER TOWNSHIP_001",
      "longitude": -87.608562500000005,
      "address_line_1": "W 5480 FIRST ST.",
      "address_line_2": null
    },
    {
      "zip": "48227",
      "city": "DETROIT",
      "name": "Mary Mcleod Bethune Elementary School",
      "state": "MI",
      "latitude": 42.4093124999999986,
      "precinct": "MI_WAYNE_DETROIT CITY_W01_P254",
      "longitude": -83.1518125000000055,
      "address_line_1": "8145 PURITAN ST",
      "address_line_2": null
    },
    {
      "zip": "48227",
      "city": "DETROIT",
      "name": "Mary Mcleod Bethune Elementary School",
      "state": "MI",
      "latitude": 42.4093124999999986,
      "precinct": "MI_WAYNE_DETROIT CITY_W01_P322",
      "longitude": -83.1518125000000055,
      "address_line_1": "8145 PURITAN ST",
      "address_line_2": null
    },
    {
      "zip": "48174",
      "city": "ROMULUS",
      "name": "Summit High School",
      "state": "MI",
      "latitude": 42.1690625000000026,
      "precinct": "MI_WAYNE_HURON TOWNSHIP_006",
      "longitude": -83.3236875000000055,
      "address_line_1": "18601MIDDLEBELT RD",
      "address_line_2": null
    },
    {
      "zip": "49058",
      "city": "HASTINGS",
      "name": "Irving Twp Hall",
      "state": "MI",
      "latitude": 42.7181004999999985,
      "precinct": "MI_BARRY_IRVING TOWNSHIP_001",
      "longitude": -85.3577880999999934,
      "address_line_1": "3425 WING RD",
      "address_line_2": null
    },
    {
      "zip": "49720",
      "city": "CHARLEVOIX",
      "name": "City Hall",
      "state": "MI",
      "latitude": 45.3164707000000035,
      "precinct": "MI_CHARLEVOIX_CHARLEVOIX CITY_001",
      "longitude": -85.260401200000004,
      "address_line_1": "210 STATE STREET",
      "address_line_2": null
    },
    {
      "zip": "49720",
      "city": "CHARLEVOIX",
      "name": "City Hall",
      "state": "MI",
      "latitude": 45.3164707000000035,
      "precinct": "MI_CHARLEVOIX_CHARLEVOIX CITY_002",
      "longitude": -85.260401200000004,
      "address_line_1": "210 STATE STREET",
      "address_line_2": null
    },
    {
      "zip": "49720",
      "city": "CHARLEVOIX",
      "name": "City Hall",
      "state": "MI",
      "latitude": 45.3164707000000035,
      "precinct": "MI_CHARLEVOIX_CHARLEVOIX CITY_003",
      "longitude": -85.260401200000004,
      "address_line_1": "210 STATE STREET",
      "address_line_2": null
    },
    {
      "zip": "49720",
      "city": "CHARLEVOIX",
      "name": "Township Hall",
      "state": "MI",
      "latitude": 45.3345508000000024,
      "precinct": "MI_CHARLEVOIX_CHARLEVOIX TOWNSHIP_004",
      "longitude": -85.229942500000007,
      "address_line_1": "12491 WALLER ROAD",
      "address_line_2": null
    },
    {
      "zip": "49727",
      "city": "EAST JORDAN",
      "name": "City Hall",
      "state": "MI",
      "latitude": 45.1555207999999979,
      "precinct": "MI_CHARLEVOIX_EAST JORDAN CITY_021",
      "longitude": -85.1278264000000036,
      "address_line_1": "201 MAIN STREET",
      "address_line_2": null
    },
    {
      "zip": "49712",
      "city": "BOYNE CITY",
      "name": "Evangeline Township Hall",
      "state": "MI",
      "latitude": 45.2435647000000003,
      "precinct": "MI_CHARLEVOIX_EVANGELINE TOWNSHIP_005",
      "longitude": -84.9977561000000037,
      "address_line_1": "2746 WILDWOOD HARBOR ROAD",
      "address_line_2": null
    },
    {
      "zip": "49730",
      "city": "ELMIRA",
      "name": "Township Hall",
      "state": "MI",
      "latitude": 45.1313863000000026,
      "precinct": "MI_CHARLEVOIX_HUDSON TOWNSHIP_008",
      "longitude": -84.8188351999999952,
      "address_line_1": "7865 REYNOLDS ROAD",
      "address_line_2": null
    },
    {
      "zip": "49720",
      "city": "CHARLEVOIX",
      "name": "Township Hall",
      "state": "MI",
      "latitude": 45.2167900999999972,
      "precinct": "MI_CHARLEVOIX_NORWOOD TOWNSHIP_011",
      "longitude": -85.381455399999993,
      "address_line_1": "19759 LAKE STREET",
      "address_line_2": null
    },
    {
      "zip": "49782",
      "city": "BEAVER ISLAND",
      "name": "Township Hall",
      "state": "MI",
      "latitude": 45.7295275999999973,
      "precinct": "MI_CHARLEVOIX_PEAINE TOWNSHIP_012",
      "longitude": -85.5266500000000036,
      "address_line_1": "36825 KINGS HIGHWAY",
      "address_line_2": null
    },
    {
      "zip": "49782",
      "city": "BEAVER ISLAND",
      "name": "Townshp Hall",
      "state": "MI",
      "latitude": 45.7425811000000024,
      "precinct": "MI_CHARLEVOIX_ST JAMES TOWNSHIP_013",
      "longitude": -85.5095280999999972,
      "address_line_1": "37735 MICHIGAN AVENUE",
      "address_line_2": null
    },
    {
      "zip": "49721",
      "city": "CHEBOYGAN",
      "name": "Recreation Center",
      "state": "MI",
      "latitude": 45.6409601000000009,
      "precinct": "MI_CHEBOYGAN_CHEBOYGAN CITY_001",
      "longitude": -84.4738013999999993,
      "address_line_1": "400 CLEVELAND AVENUE",
      "address_line_2": null
    },
    {
      "zip": "49721",
      "city": "CHEBOYGAN",
      "name": "Recreation Center",
      "state": "MI",
      "latitude": 45.6409601000000009,
      "precinct": "MI_CHEBOYGAN_CHEBOYGAN CITY_002",
      "longitude": -84.4738013999999993,
      "address_line_1": "400 CLEVELAND AVENUE",
      "address_line_2": null
    },
    {
      "zip": "49721",
      "city": "CHEBOYGAN",
      "name": "Recreation Center",
      "state": "MI",
      "latitude": 45.6409601000000009,
      "precinct": "MI_CHEBOYGAN_CHEBOYGAN CITY_003",
      "longitude": -84.4738013999999993,
      "address_line_1": "400 CLEVELAND AVENUE",
      "address_line_2": null
    },
    {
      "zip": "49721",
      "city": "CHEBOYGAN",
      "name": "Aloha Townhall",
      "state": "MI",
      "latitude": 45.5035499999999971,
      "precinct": "MI_CHEBOYGAN_ALOHA TOWNSHIP_001",
      "longitude": -84.4523570000000063,
      "address_line_1": "3012 N M-33",
      "address_line_2": null
    },
    {
      "zip": "49721",
      "city": "CHEBOYGAN",
      "name": "Beaugrand Townhall",
      "state": "MI",
      "latitude": 45.6725890000000021,
      "precinct": "MI_CHEBOYGAN_BEAUGRAND TOWNSHIP_001",
      "longitude": -84.5283323000000024,
      "address_line_1": "1999 OLD MACKINAW ROAD",
      "address_line_2": null
    },
    {
      "zip": "49721",
      "city": "CHEBOYGAN",
      "name": "Benton Community Ctr",
      "state": "MI",
      "latitude": 45.5561829999999972,
      "precinct": "MI_CHEBOYGAN_BENTON TOWNSHIP_001",
      "longitude": -84.3883730000000014,
      "address_line_1": "5012 ORCHARD BEACH ROAD",
      "address_line_2": null
    },
    {
      "zip": "49721",
      "city": "CHEBOYGAN",
      "name": "Burt Townhall",
      "state": "MI",
      "latitude": 45.5423035999999968,
      "precinct": "MI_CHEBOYGAN_BURT TOWNSHIP_001",
      "longitude": -84.6315649999999948,
      "address_line_1": "7029 BIRCHWOOD ROAD",
      "address_line_2": null
    },
    {
      "zip": "49799",
      "city": "WOLVERINE",
      "name": "Ellis Townhall",
      "state": "MI",
      "latitude": 45.2728997999999976,
      "precinct": "MI_CHEBOYGAN_ELLIS TOWNSHIP_001",
      "longitude": -84.5972533999999996,
      "address_line_1": "9605 AFTON ROAD",
      "address_line_2": null
    },
    {
      "zip": "49721",
      "city": "CHEBOYGAN",
      "name": "Grant Townhall",
      "state": "MI",
      "latitude": 45.5278265999999974,
      "precinct": "MI_CHEBOYGAN_GRANT TOWNSHIP_001",
      "longitude": -84.3131750999999952,
      "address_line_1": "8908 TWIN LAKES ROAD",
      "address_line_2": null
    },
    {
      "zip": "49721",
      "city": "CHEBOYGAN",
      "name": "Inverness Townhall",
      "state": "MI",
      "latitude": 45.6134192000000027,
      "precinct": "MI_CHEBOYGAN_INVERNESS TOWNSHIP_001",
      "longitude": -84.5036795000000041,
      "address_line_1": "734 VFW ROAD",
      "address_line_2": null
    },
    {
      "zip": "49705",
      "city": "AFTON",
      "name": "Koehler Townhall",
      "state": "MI",
      "latitude": 45.4066886000000025,
      "precinct": "MI_CHEBOYGAN_KOEHLER TOWNSHIP_001",
      "longitude": -84.446097899999998,
      "address_line_1": "2227 STONEY CREEK ROAD",
      "address_line_2": null
    },
    {
      "zip": "49701",
      "city": "MACKINAW CITY",
      "name": "Mackinaw Township Hall",
      "state": "MI",
      "latitude": 45.7587410000000006,
      "precinct": "MI_CHEBOYGAN_MACKINAW TOWNSHIP_001",
      "longitude": -84.7040685000000053,
      "address_line_1": "10595 WALLICK ROAD",
      "address_line_2": null
    },
    {
      "zip": "49749",
      "city": "INDIAN RIVER",
      "name": "Mentor Townhall",
      "state": "MI",
      "latitude": 45.3426168000000018,
      "precinct": "MI_CHEBOYGAN_MENTOR TOWNSHIP_001",
      "longitude": -84.6328922000000006,
      "address_line_1": "8240 SOUTH STRAITS HIGHWAY",
      "address_line_2": null
    },
    {
      "zip": "49755",
      "city": "LEVERING",
      "name": "Munro Townhall",
      "state": "MI",
      "latitude": 45.6218349999999973,
      "precinct": "MI_CHEBOYGAN_MUNRO TOWNSHIP_001",
      "longitude": -84.6511066999999997,
      "address_line_1": "8016 BRANDAU ROAD",
      "address_line_2": null
    },