{
  "id": 161,
  "name": "Texas General Election",
  "updated_at": "2020-10-31T14:22:41.249289+00:00",
  "election_day": "2020-11-03",
  "polling_places": [
    {
      "zip": "75801",
      "city": "PALESTINE",
      "name": "PALESTINE HIGH SCHOOL",
      "state": "TX",
      "latitude": 31.7380932999999992,
      "precinct": "TX_ANDERSON_1",
      "longitude": -95.6049062999999961,
      "address_line_1": "1600 N LOOP 256",
      "address_line_2": null
    },
    {
      "zip": "75803",
      "city": "PALESTINE",
      "name": "HARMONY BAPTIST CHURCH",
      "state": "TX",
      "latitude": 31.7568933999999992,
      "precinct": "TX_ANDERSON_10",
      "longitude": -95.7944155999999936,
      "address_line_1": "8848 FM 645",
      "address_line_2": null
    },
    {
      "zip": "75861",
      "city": "TENN COLONY",
      "name": "TENN COLONY COMMUNITY CENTER",
      "state": "TX",
      "latitude": 31.8363033000000009,
      "precinct": "TX_ANDERSON_11",
      "longitude": -95.8347444000000053,
      "address_line_1": "6900 W FM 321",
      "address_line_2": null
    },
    {
      "zip": "75801",
      "city": "PALESTINE",
      "name": "PISD ADMINISTRATION OFFICE",
      "state": "TX",
      "latitude": 31.7583944000000002,
      "precinct": "TX_ANDERSON_13",
      "longitude": -95.6184846999999962,
      "address_line_1": "1007 E. PARK",
      "address_line_2": null
    },
    {
      "zip": "75801",
      "city": "PALESTINE",
      "name": "ANTIOCH BAPTIST CHURCH BOX 15",
      "state": "TX",
      "latitude": 31.7075625000000016,
      "precinct": "TX_ANDERSON_15",
      "longitude": -95.6008125000000035,
      "address_line_1": "139 ANDERSON CR 389",
      "address_line_2": null
    },
    {
      "zip": "75803",
      "city": "NECHES",
      "name": "FIRST BAPTIST NECHES",
      "state": "TX",
      "latitude": 31.8652474000000012,
      "precinct": "TX_ANDERSON_16",
      "longitude": -95.4978798000000069,
      "address_line_1": "200 ANDERSON",
      "address_line_2": null
    },
    {
      "zip": "75803",
      "city": "PALESTINE",
      "name": "DAV POST",
      "state": "TX",
      "latitude": 31.7892381999999998,
      "precinct": "TX_ANDERSON_17",
      "longitude": -95.618081200000006,
      "address_line_1": "917 GARDNER",
      "address_line_2": null
    },
    {
      "zip": "75763",
      "city": "FRANKSTON",
      "name": "FRANKSTON COURTHOUSE ANNEX",
      "state": "TX",
      "latitude": 32.0499069999999975,
      "precinct": "TX_ANDERSON_18",
      "longitude": -95.5073414000000014,
      "address_line_1": "320 S. COMMERCE",
      "address_line_2": null
    },
    {
      "zip": "75803",
      "city": "PALESTINE",
      "name": "WESTWOOD JR. HIGH",
      "state": "TX",
      "latitude": 31.7304037000000001,
      "precinct": "TX_ANDERSON_19",
      "longitude": -95.682355599999994,
      "address_line_1": "1801 PANTHER BLVD.",
      "address_line_2": null
    },
    {
      "zip": "75839",
      "city": "ELKHART",
      "name": "1ST BAPTIST CHURCH-ELKHART",
      "state": "TX",
      "latitude": 31.6213332999999999,
      "precinct": "TX_ANDERSON_2",
      "longitude": -95.5849237000000045,
      "address_line_1": "424 W PARKER",
      "address_line_2": null
    },
    {
      "zip": "75803",
      "city": "PALESTINE",
      "name": "FREEDOM FELLOWSHIP CHURCH",
      "state": "TX",
      "latitude": 31.7753772999999988,
      "precinct": "TX_ANDERSON_20",
      "longitude": -95.6317892000000001,
      "address_line_1": "125 KICKAPOO ST",
      "address_line_2": null
    },
    {
      "zip": "75803",
      "city": "PALESTINE",
      "name": "PALESTINE CIVIC CENTER",
      "state": "TX",
      "latitude": 31.7721231000000017,
      "precinct": "TX_ANDERSON_21",
      "longitude": -95.6573044999999951,
      "address_line_1": "1819 W SPRING ST",
      "address_line_2": null
    },
    {
      "zip": "75482",
      "city": "MONTALBA",
      "name": "MONTALBA COMM. CENTER",
      "state": "TX",
      "latitude": 33.0010005000000035,
      "precinct": "TX_ANDERSON_22",
      "longitude": -95.710274499999997,
      "address_line_1": "9590 N ST HWY 19",
      "address_line_2": null
    },
    {
      "zip": "75803",
      "city": "PALESTINE",
      "name": "PISGAH BAPTIST CHURCH",
      "state": "TX",
      "latitude": 31.9578124999999993,
      "precinct": "TX_ANDERSON_23",
      "longitude": -95.6205625000000055,
      "address_line_1": "11401 E FM 837",
      "address_line_2": null
    },
    {
      "zip": "75861",
      "city": "CAYUGA",
      "name": "CAYUGA HIGH SCHOOL",
      "state": "TX",
      "latitude": 31.9224934000000005,
      "precinct": "TX_ANDERSON_24",
      "longitude": -95.923140200000006,
      "address_line_1": "17750 N US HWY 287",
      "address_line_2": null
    },
    {
      "zip": "75801",
      "city": "PALESTINE",
      "name": "SWANSON HILL COMMUNITY",
      "state": "TX",
      "latitude": 31.7267176000000006,
      "precinct": "TX_ANDERSON_3",
      "longitude": -95.5711706999999961,
      "address_line_1": "3258 E. FM 323",
      "address_line_2": null
    },
    {
      "zip": "75839",
      "city": "ELKHART",
      "name": "1ST BAPTIST CHURCH-SLOCUM",
      "state": "TX",
      "latitude": 31.6314850000000014,
      "precinct": "TX_ANDERSON_4",
      "longitude": -95.461112700000001,
      "address_line_1": "5875 E ST HWY 294",
      "address_line_2": null
    },
    {
      "zip": "75839",
      "city": "ELKHART",
      "name": "DENSON SPRINGS COMMUNITY CENTER",
      "state": "TX",
      "latitude": 31.6216691999999995,
      "precinct": "TX_ANDERSON_5",
      "longitude": -95.561984300000006,
      "address_line_1": "11460 E. ST. HWY 294",
      "address_line_2": null
    },
    {
      "zip": "75801",
      "city": "PALESTINE",
      "name": "NEW FELLOWSHIP CHRISTIAN CHRCH",
      "state": "TX",
      "latitude": 31.7517910999999984,
      "precinct": "TX_ANDERSON_6",
      "longitude": -95.6429401999999982,
      "address_line_1": "1500 W REAGAN",
      "address_line_2": null
    },
    {
      "zip": "75803",
      "city": "PALESTINE",
      "name": "PALESTINE HEAD START",
      "state": "TX",
      "latitude": 31.7566570000000006,
      "precinct": "TX_ANDERSON_7",
      "longitude": -95.6538058000000007,
      "address_line_1": "1020 W. HAMLETT ST.",
      "address_line_2": null
    },
    {
      "zip": "75801",
      "city": "PALESTINE",
      "name": "ANTIOCH BAPTIST CHURCH BOX 8",
      "state": "TX",
      "latitude": 31.7670439999999985,
      "precinct": "TX_ANDERSON_8",
      "longitude": -95.6235762000000022,
      "address_line_1": "907 E MURCHISON",
      "address_line_2": null
    },
    {
      "zip": "75801",
      "city": "PALESTINE",
      "name": "TUCKER COMMUNITY CENTER",
      "state": "TX",
      "latitude": 31.6719073000000009,
      "precinct": "TX_ANDERSON_9",
      "longitude": -95.7487280999999939,
      "address_line_1": "10621 S. US HWY 79",
      "address_line_2": null
    },
    {
      "zip": "79714",
      "city": "ANDREWS",
      "name": "JAMES ROBERTS CENTER",
      "state": "TX",
      "latitude": 32.3221065999999979,
      "precinct": "TX_ANDREWS_1",
      "longitude": -102.531009100000006,
      "address_line_1": "855 EAST BROADWAY",
      "address_line_2": null
    },
    {
      "zip": "75901",
      "city": "LUFKIN",
      "name": "LIFE GATE CHURCH GT (GLAD TIDINGS)",
      "state": "TX",
      "latitude": 31.3383353999999983,
      "precinct": "TX_ANGELINA_1",
      "longitude": -94.6883389999999991,
      "address_line_1": "2511 E LUFKIN AVE",
      "address_line_2": null
    },
    {
      "zip": "75901",
      "city": "LUFKIN",
      "name": "DENMAN AVE BAPTIST CHURCH",
      "state": "TX",
      "latitude": 31.3204311000000004,
      "precinct": "TX_ANGELINA_10",
      "longitude": -94.7011628000000059,
      "address_line_1": "1807 E DENMAN AVE",
      "address_line_2": null
    },
    {
      "zip": "75949",
      "city": "HUNTINGTON",
      "name": "FIRST BAPTIST CHURCH FAMILY LIFE CENTER",
      "state": "TX",
      "latitude": 31.2833766000000004,
      "precinct": "TX_ANGELINA_11B",
      "longitude": -94.5731932999999998,
      "address_line_1": "802 N. MAIN",
      "address_line_2": null
    },
    {
      "zip": "75901",
      "city": "LUFKIN",
      "name": "FULLER SPRINGS BAPTIST CHURCH",
      "state": "TX",
      "latitude": 31.2885978000000016,
      "precinct": "TX_ANGELINA_12",
      "longitude": -94.6796133999999938,
      "address_line_1": "5003 FULLER SPRINGS DR",
      "address_line_2": null
    },
    {
      "zip": "75901",
      "city": "LUFKIN",
      "name": "FIRST CHRISTIAN CHURCH",
      "state": "TX",
      "latitude": 31.3233077999999985,
      "precinct": "TX_ANGELINA_13",
      "longitude": -94.7285207999999983,
      "address_line_1": "1300 S 1ST ST",
      "address_line_2": null
    },
    {
      "zip": "75904",
      "city": "LUFKIN",
      "name": "ST PAUL'S METHODIST CHURCH",
      "state": "TX",
      "latitude": 31.3148109999999988,
      "precinct": "TX_ANGELINA_14",
      "longitude": -94.7485838999999999,
      "address_line_1": "1505 S. JOHN REDDITT DR",
      "address_line_2": null
    },
    {
      "zip": "75941",
      "city": "DIBOLL",
      "name": "BURKE COMMUNITY CENTER",
      "state": "TX",
      "latitude": 31.2325307999999993,
      "precinct": "TX_ANGELINA_15",
      "longitude": -94.7713834000000048,
      "address_line_1": "3770 TIDWELL RD",
      "address_line_2": null
    },
    {
      "zip": "75980",
      "city": "ZAVALLA",
      "name": "ZAVALLA FIRST BAPTIST CHURCH FAMILY LIFE CENTER",
      "state": "TX",
      "latitude": 31.1538706999999988,
      "precinct": "TX_ANGELINA_17",
      "longitude": -94.4122603999999939,
      "address_line_1": "1034 E. MAIN ST",
      "address_line_2": null
    },
    {
      "zip": "75980",
      "city": "ZAVALLA",
      "name": "ZAVALLA FIRST BAPTIST CHURCH FAMILY LIFE CENTER",
      "state": "TX",
      "latitude": 31.1538706999999988,
      "precinct": "TX_ANGELINA_17B",
      "longitude": -94.4122603999999939,
      "address_line_1": "1034 E. MAIN ST",
      "address_line_2": null
    },
    {
      "zip": "75901",
      "city": "LUFKIN",
      "name": "ANGELINA COLLEGE",
      "state": "TX",
      "latitude": 31.2871142000000013,
      "precinct": "TX_ANGELINA_18",
      "longitude": -94.7318130999999966,
      "address_line_1": "3500 S FIRST ST",
      "address_line_2": null
    },
    {
      "zip": "75904",
      "city": "LUFKIN",
      "name": "CHURCH OF JESUS CHRIST OF LATTER DAY SAINTS",
      "state": "TX",
      "latitude": 31.3080719999999992,
      "precinct": "TX_ANGELINA_19",
      "longitude": -94.7585373999999945,
      "address_line_1": "606 BENDING OAK",
      "address_line_2": null
    },
    {
      "zip": "75901",
      "city": "LUFKIN",
      "name": "EMANUEL ASSEMBLY OF GOD",
      "state": "TX",
      "latitude": 31.3566587000000006,
      "precinct": "TX_ANGELINA_2",
      "longitude": -94.7161533999999961,
      "address_line_1": "1818 N TIMBERLAND DR",
      "address_line_2": null
    },
    {
      "zip": "75904",
      "city": "LUFKIN",
      "name": "BRANDON COMMUNITY CENTER",
      "state": "TX",
      "latitude": 31.3532639999999994,
      "precinct": "TX_ANGELINA_20",
      "longitude": -94.7366762000000051,
      "address_line_1": "1612 KELTYS ST",
      "address_line_2": null
    },
    {
      "zip": "75901",
      "city": "LUFKIN",
      "name": "LUFKIN SHRINE CLUB",
      "state": "TX",
      "latitude": 31.3058322000000011,
      "precinct": "TX_ANGELINA_21",
      "longitude": -94.6741214000000042,
      "address_line_1": "3906 US HWY 69 NORTH",
      "address_line_2": null
    },
    {
      "zip": "75969",
      "city": "POLLOK",
      "name": "POLLOK BAPTIST CHURCH",
      "state": "TX",
      "latitude": 31.4469461999999993,
      "precinct": "TX_ANGELINA_22",
      "longitude": -94.8700333000000029,
      "address_line_1": "1053 PAUL TOWNSEND RD (HWY 7)",
      "address_line_2": null
    },
    {
      "zip": "75904",
      "city": "LUFKIN",
      "name": "BETHEL ASSEMBLY OF GOD",
      "state": "TX",
      "latitude": 31.3259678999999984,
      "precinct": "TX_ANGELINA_23",
      "longitude": -94.7903206000000011,
      "address_line_1": "3863 TED TROUT DR",
      "address_line_2": null
    },
    {
      "zip": "75904",
      "city": "LUFKIN",
      "name": "BETHEL ASSEMBLY OF GOD",
      "state": "TX",
      "latitude": 31.3259678999999984,
      "precinct": "TX_ANGELINA_24",
      "longitude": -94.7903206000000011,
      "address_line_1": "3863 TED TROUT DR",
      "address_line_2": null
    },
    {
      "zip": "75904",
      "city": "LUFKIN",
      "name": "WOODLAWN BAPTIST CHURCH",
      "state": "TX",
      "latitude": 31.3662972000000018,
      "precinct": "TX_ANGELINA_25",
      "longitude": -94.7845197000000041,
      "address_line_1": "4172 HWY 103 WEST",
      "address_line_2": null
    },
    {
      "zip": "75901",
      "city": "LUFKIN",
      "name": "BALD HILL BAPTIST CHURCH",
      "state": "TX",
      "latitude": 31.2393201000000005,
      "precinct": "TX_ANGELINA_26",
      "longitude": -94.6462192000000044,
      "address_line_1": "128 LEON TILLMAN RD",
      "address_line_2": null
    },
    {
      "zip": "75901",
      "city": "LUFKIN",
      "name": "FAIRVIEW BAPTIST CHURCH",
      "state": "TX",
      "latitude": 31.2611205000000005,
      "precinct": "TX_ANGELINA_27",
      "longitude": -94.7107045000000056,
      "address_line_1": "3742 FM 2108",
      "address_line_2": null
    },
    {
      "zip": "75901",
      "city": "LUFKIN",
      "name": "FAIRVIEW BAPTIST CHURCH",
      "state": "TX",
      "latitude": 31.2611205000000005,
      "precinct": "TX_ANGELINA_28",
      "longitude": -94.7107045000000056,
      "address_line_1": "3742 FM 2108",
      "address_line_2": null
    },
    {
      "zip": "75969",
      "city": "POLLOK",
      "name": "O'QUINN BAPTIST CHURCH",
      "state": "TX",
      "latitude": 31.426943099999999,
      "precinct": "TX_ANGELINA_29",
      "longitude": -94.809496100000004,
      "address_line_1": "7433 US HWY 69 NORTH",
      "address_line_2": null
    },
    {
      "zip": "75901",
      "city": "LUFKIN",
      "name": "LUFKIN RESTORATION CENTER",
      "state": "TX",
      "latitude": 31.3488386000000006,
      "precinct": "TX_ANGELINA_3",
      "longitude": -94.6452409999999986,
      "address_line_1": "5574 E HWY 103",
      "address_line_2": null
    },
    {
      "zip": "75949",
      "city": "HUNTINGTON",
      "name": "FIRST ORA MISSIONARY BAPTIST CHURCH",
      "state": "TX",
      "latitude": 31.2770526999999987,
      "precinct": "TX_ANGELINA_30",
      "longitude": -94.4272854999999964,
      "address_line_1": "110 FAYE JONES RD",
      "address_line_2": null
    },
    {
      "zip": "75941",
      "city": "DIBOLL",
      "name": "LOTTIE & ARTHUR TEMPLE CIVIC CENTER",
      "state": "TX",
      "latitude": 31.1809584000000015,
      "precinct": "TX_ANGELINA_31",
      "longitude": -94.7793285999999995,
      "address_line_1": "601 DENNIS",
      "address_line_2": null
    },
    {
      "zip": "75980",
      "city": "ZAVALLA",
      "name": "ZAVALLA FIRST BAPTIST CHURCH FAMILY LIFE CENTER",
      "state": "TX",
      "latitude": 31.1538706999999988,
      "precinct": "TX_ANGELINA_32",
      "longitude": -94.4122603999999939,
      "address_line_1": "1034 E. MAIN ST",
      "address_line_2": null
    },
    {
      "zip": "75949",
      "city": "HUNTINGTON",
      "name": "SALEM BAPTIST CHURCH",
      "state": "TX",
      "latitude": 31.2484895999999992,
      "precinct": "TX_ANGELINA_33",
      "longitude": -94.571031000000005,
      "address_line_1": "965 RALPH NERREN RD",
      "address_line_2": null
    },
    {
      "zip": "75901",
      "city": "LUFKIN",
      "name": "ANGELINA COLLEGE",
      "state": "TX",
      "latitude": 31.2871142000000013,
      "precinct": "TX_ANGELINA_34",
      "longitude": -94.7318130999999966,
      "address_line_1": "3500 S FIRST ST",
      "address_line_2": null
    },
    {
      "zip": "75901",
      "city": "LUFKIN",
      "name": "HARMONY HILL BAPTIST CHURCH",
      "state": "TX",
      "latitude": 31.3077614000000004,
      "precinct": "TX_ANGELINA_35",
      "longitude": -94.7086778000000038,
      "address_line_1": "2708 S CHESTNUT DR",
      "address_line_2": null
    },
    {
      "zip": "75904",
      "city": "LUFKIN",
      "name": "CHAMBERS PARK COMMUNITY CENTER",
      "state": "TX",
      "latitude": 31.3288058000000014,
      "precinct": "TX_ANGELINA_36",
      "longitude": -94.734011499999994,
      "address_line_1": "500 PERSHING AVE",
      "address_line_2": null
    },
    {
      "zip": "75901",
      "city": "LUFKIN",
      "name": "FULLER SPRINGS BAPTIST CHURCH",
      "state": "TX",
      "latitude": 31.2885978000000016,
      "precinct": "TX_ANGELINA_37",
      "longitude": -94.6796133999999938,
      "address_line_1": "5003 FULLER SPRINGS DR",
      "address_line_2": null
    },
    {
      "zip": "75941",
      "city": "DIBOLL",
      "name": "BURKE COMMUNITY CENTER",
      "state": "TX",
      "latitude": 31.2325307999999993,
      "precinct": "TX_ANGELINA_38",
      "longitude": -94.7713834000000048,
      "address_line_1": "3770 TIDWELL RD",
      "address_line_2": null
    },
    {
      "zip": "75904",
      "city": "LUFKIN",
      "name": "CHURCH OF JESUS CHRIST OF LATTER DAY SAINTS",
      "state": "TX",
      "latitude": 31.3080719999999992,
      "precinct": "TX_ANGELINA_39",
      "longitude": -94.7585373999999945,
      "address_line_1": "606 BENDING OAK",
      "address_line_2": null
    },
    {
      "zip": "75904",
      "city": "LUFKIN",
      "name": "REDLAND SCHOOL ACE CAMPUS",
      "state": "TX",
      "latitude": 31.4090695000000011,
      "precinct": "TX_ANGELINA_4",
      "longitude": -94.7255162000000013,
      "address_line_1": "1121 WINSTON 8 RANCH RD",
      "address_line_2": null
    },
    {
      "zip": "75901",
      "city": "LUFKIN",
      "name": "SOUTHSIDE BAPTIST CHURCH",
      "state": "TX",
      "latitude": 31.3169700000000013,
      "precinct": "TX_ANGELINA_40",
      "longitude": -94.7215280000000064,
      "address_line_1": "1615 TULANE DR",
      "address_line_2": null
    },
    {
      "zip": "75904",
      "city": "LUFKIN",
      "name": "CHAMBERS PARK COMMUNITY CENTER",
      "state": "TX",
      "latitude": 31.3288058000000014,
      "precinct": "TX_ANGELINA_5",
      "longitude": -94.734011499999994,
      "address_line_1": "500 PERSHING AVE",
      "address_line_2": null
    },
    {
      "zip": "75969",
      "city": "POLLOK",
      "name": "O'QUINN BAPTIST CHURCH",
      "state": "TX",
      "latitude": 31.426943099999999,
      "precinct": "TX_ANGELINA_6",
      "longitude": -94.809496100000004,
      "address_line_1": "7433 US HWY 69 NORTH",
      "address_line_2": null
    },
    {
      "zip": "75904",
      "city": "LUFKIN",
      "name": "LIFE POINT CHURCH",
      "state": "TX",
      "latitude": 31.3240674000000006,
      "precinct": "TX_ANGELINA_7",
      "longitude": -94.804321299999998,
      "address_line_1": "4737 TED TROUT DR",
      "address_line_2": null
    },
    {
      "zip": "75904",
      "city": "LUFKIN",
      "name": "CROSS ROAD BAPTIST CHURCH",
      "state": "TX",
      "latitude": 31.3025690999999995,
      "precinct": "TX_ANGELINA_8",
      "longitude": -94.7988796000000065,
      "address_line_1": "5714 OLD UNION ROAD",
      "address_line_2": null
    },
    {
      "zip": "75901",
      "city": "LUFKIN",
      "name": "FIRST CHRISTIAN CHURCH",
      "state": "TX",
      "latitude": 31.3233077999999985,
      "precinct": "TX_ANGELINA_9",
      "longitude": -94.7285207999999983,
      "address_line_1": "1300 S 1ST ST",
      "address_line_2": null
    },
    {
      "zip": "79019",
      "city": "CLAUDE",
      "name": "ARMSTRONG COUNTY COURTHOUSE",
      "state": "TX",
      "latitude": 35.1093367000000001,
      "precinct": "TX_ARMSTRONG_101",
      "longitude": -101.358929399999994,
      "address_line_1": "100 TRICE ST",
      "address_line_2": null
    },
    {
      "zip": "79019",
      "city": "CLAUDE",
      "name": "ARMSTRONG COUNTY COURTHOUSE",
      "state": "TX",
      "latitude": 35.1093367000000001,
      "precinct": "TX_ARMSTRONG_201",
      "longitude": -101.358929399999994,
      "address_line_1": "100 TRICE ST",
      "address_line_2": null
    },
    {
      "zip": "79019",
      "city": "CLAUDE",
      "name": "ARMSTRONG COUNTY COURTHOUSE",
      "state": "TX",
      "latitude": 35.1093367000000001,
      "precinct": "TX_ARMSTRONG_202",
      "longitude": -101.358929399999994,
      "address_line_1": "100 TRICE ST",
      "address_line_2": null
    },
    {
      "zip": "79019",
      "city": "CLAUDE",
      "name": "ARMSTRONG COUNTY COURTHOUSE",
      "state": "TX",
      "latitude": 35.1093367000000001,
      "precinct": "TX_ARMSTRONG_301",
      "longitude": -101.358929399999994,
      "address_line_1": "100 TRICE ST",
      "address_line_2": null
    },
    {
      "zip": "79094",
      "city": "WAYSIDE",
      "name": "WAYSIDE FIRE STATION",
      "state": "TX",
      "latitude": 34.7939374999999984,
      "precinct": "TX_ARMSTRONG_303",
      "longitude": -101.546687500000004,
      "address_line_1": "3407 CO RD 5",
      "address_line_2": null
    },
    {
      "zip": "79019",
      "city": "CLAUDE",
      "name": "ARMSTRONG COUNTY COURTHOUSE",
      "state": "TX",
      "latitude": 35.1093367000000001,
      "precinct": "TX_ARMSTRONG_401",
      "longitude": -101.358929399999994,
      "address_line_1": "100 TRICE ST",
      "address_line_2": null
    },
    {
      "zip": "79019",
      "city": "WASHUBURN",
      "name": "WASHBURN COMMUNITY CENTER",
      "state": "TX",
      "latitude": 35.1743124999999992,
      "precinct": "TX_ARMSTRONG_402",
      "longitude": -101.570562499999994,
      "address_line_1": "201 DUNCAN AVE",
      "address_line_2": null
    },
    {
      "zip": "79019",
      "city": "WASHUBURN",
      "name": "WASHBURN COMMUNITY CENTER",
      "state": "TX",
      "latitude": 35.1743124999999992,
      "precinct": "TX_ARMSTRONG_403",
      "longitude": -101.570562499999994,
      "address_line_1": "201 DUNCAN AVE",
      "address_line_2": null
    },
    {
      "zip": "79019",
      "city": "CLAUDE",
      "name": "ARMSTRONG COUNTY COURTHOUSE",
      "state": "TX",
      "latitude": 35.1093367000000001,
      "precinct": "TX_ARMSTRONG_404",
      "longitude": -101.358929399999994,
      "address_line_1": "100 TRICE ST",
      "address_line_2": null
    },
    {
      "zip": "77418",
      "city": "BELLVILLE",
      "name": "ST PETER & PAUL CATHOLIC CHURCH",
      "state": "TX",
      "latitude": 29.9373590000000007,
      "precinct": "TX_AUSTIN_101",
      "longitude": -96.2520260000000007,
      "address_line_1": "936 S FRONT ST",
      "address_line_2": null
    },
    {
      "zip": "77418",
      "city": "BELLVILLE",
      "name": "BELLVILLE AMERICAN LEGION POST 115",
      "state": "TX",
      "latitude": 29.9458677000000009,
      "precinct": "TX_AUSTIN_102",
      "longitude": -96.2465260000000029,
      "address_line_1": "988 E MAIN ST (FM 529)",
      "address_line_2": null
    },
    {
      "zip": "77418",
      "city": "BELLVILLE",
      "name": "ST JOHN LUTHERAN RETREAT CENTER",
      "state": "TX",
      "latitude": 29.9919699999999985,
      "precinct": "TX_AUSTIN_103",
      "longitude": -96.298294999999996,
      "address_line_1": "4740 HWY 36 N",
      "address_line_2": null
    },
    {
      "zip": "77474",
      "city": "SEALY",
      "name": "CHRISTIAN CITY FELLOWSHIP",
      "state": "TX",
      "latitude": 29.8440009999999987,
      "precinct": "TX_AUSTIN_104",
      "longitude": -96.1759370999999987,
      "address_line_1": "5243 HWY 36",
      "address_line_2": null
    },
    {
      "zip": "77418",
      "city": "BELLVILLE",
      "name": "SENS ACTIVITY CENTER",
      "state": "TX",
      "latitude": 29.9605761000000008,
      "precinct": "TX_AUSTIN_205",
      "longitude": -96.2775543999999996,
      "address_line_1": "200 BRIAR RIDGE DR",
      "address_line_2": null
    },
    {
      "zip": "77418",
      "city": "KENNEY",
      "name": "KENNEY AGRICULTURAL SOCIETY HALL",
      "state": "TX",
      "latitude": 30.0476972999999994,
      "precinct": "TX_AUSTIN_206",
      "longitude": -96.3233067000000034,
      "address_line_1": "444 KENNEY HALL RD",
      "address_line_2": null
    },
    {
      "zip": "78931",
      "city": "Bleiberville",
      "name": "BLEIBLERVILLE VFD",
      "state": "TX",
      "latitude": 30.0042359999999988,
      "precinct": "TX_AUSTIN_207",
      "longitude": -96.441434000000001,
      "address_line_1": "3342 FM 2502",
      "address_line_2": null
    },
    {
      "zip": "78931",
      "city": "Bleiberville",
      "name": "BLEIBLERVILLE VFD",
      "state": "TX",
      "latitude": 30.0042359999999988,
      "precinct": "TX_AUSTIN_208",
      "longitude": -96.441434000000001,
      "address_line_1": "3342 FM 2502",
      "address_line_2": null
    },
    {
      "zip": "77418",
      "city": "ULM",
      "name": "NEW ULM VOLUNTEER FIRE DEPT",
      "state": "TX",
      "latitude": 29.8906470000000013,
      "precinct": "TX_AUSTIN_209",
      "longitude": -96.4885024000000016,
      "address_line_1": "550 TAYLOR ST NEW",
      "address_line_2": null
    },
    {
      "zip": "78944",
      "city": "INDUSTRY",
      "name": "INDUSTRY CITY BLDG",
      "state": "TX",
      "latitude": 29.9731017999999985,
      "precinct": "TX_AUSTIN_210",
      "longitude": -96.4889397000000031,
      "address_line_1": "725 MAIN ST",
      "address_line_2": null
    },
    {
      "zip": "78933",
      "city": "CAT SPRING",
      "name": "ST JOHN LUTHERAN CHURCH",
      "state": "TX",
      "latitude": 29.8433649999999986,
      "precinct": "TX_AUSTIN_211",
      "longitude": -96.3251410999999962,
      "address_line_1": "480 ROSS ST",
      "address_line_2": null
    },
    {
      "zip": "78933",
      "city": "CAT SPRING",
      "name": "ST JOHN LUTHERAN CHURCH",
      "state": "TX",
      "latitude": 29.8433649999999986,
      "precinct": "TX_AUSTIN_312",
      "longitude": -96.3251410999999962,
      "address_line_1": "480 ROSS ST",
      "address_line_2": null
    },
    {
      "zip": "77474",
      "city": "SEALY",
      "name": "CHURCH OF CHRIST OF SEALY",
      "state": "TX",
      "latitude": 29.7781883000000001,
      "precinct": "TX_AUSTIN_313",
      "longitude": -96.155826200000007,
      "address_line_1": "201 6TH ST",
      "address_line_2": null
    },
    {
      "zip": "77474",
      "city": "SEALY",
      "name": "W E HILL COMMUNITY CENTER",
      "state": "TX",
      "latitude": 29.7795166999999985,
      "precinct": "TX_AUSTIN_314",
      "longitude": -96.1669363999999973,
      "address_line_1": "1000 MAIN ST",
      "address_line_2": null
    },
    {
      "zip": "77485",
      "city": "WALLIS",
      "name": "WALLIS COLUMBUS CLUB HALL",
      "state": "TX",
      "latitude": 29.6376190000000008,
      "precinct": "TX_AUSTIN_415",
      "longitude": -96.0607631999999967,
      "address_line_1": "703 COLUMBUS RD",
      "address_line_2": null
    },
    {
      "zip": "77474",
      "city": "SEALY",
      "name": "SEALY AMERICAN LEGION POST 442",
      "state": "TX",
      "latitude": 29.7673340000000017,
      "precinct": "TX_AUSTIN_416",
      "longitude": -96.1533198999999996,
      "address_line_1": "1630 MEYER ST",
      "address_line_2": null
    },
    {
      "zip": "77474",
      "city": "SAN FELIPE",
      "name": "SAN FELIPE FIRE STATION",
      "state": "TX",
      "latitude": 29.7965228999999994,
      "precinct": "TX_AUSTIN_417",
      "longitude": -96.1003807999999964,
      "address_line_1": "15023 FM 1458 N",
      "address_line_2": null
    },
    {
      "zip": "77474",
      "city": "SEALY",
      "name": "FATHER BERNARD SNOCK RELIGIOUS EDUCATION CENTER",
      "state": "TX",
      "latitude": 29.7539452000000004,
      "precinct": "TX_AUSTIN_418",
      "longitude": -96.0866410000000002,
      "address_line_1": "10471 GROTTO RD",
      "address_line_2": null
    },
    {
      "zip": "79347",
      "city": "MULESHOE",
      "name": "Bailey County Coliseum",
      "state": "TX",
      "latitude": 34.2396997999999968,
      "precinct": "TX_BAILEY_1",
      "longitude": -102.748223300000006,
      "address_line_1": "2206 WEST AMERICAN BOULIVARD",
      "address_line_2": null
    },
    {
      "zip": "78003",
      "city": "BANDERA",
      "name": "BANDERA HIGH SCHOOL",
      "state": "TX",
      "latitude": 29.7333886000000014,
      "precinct": "TX_BANDERA_101",
      "longitude": -99.0618450999999993,
      "address_line_1": "474 OLD SAN ANTONIO HWY.",
      "address_line_2": null
    },
    {
      "zip": "78063",
      "city": "Pipe Creek",
      "name": "Pipe Creek VFD",
      "state": "TX",
      "latitude": 29.7067200999999983,
      "precinct": "TX_BANDERA_102",
      "longitude": -98.9416590000000014,
      "address_line_1": "1331 FM 1283",
      "address_line_2": null
    },
    {
      "zip": "78063",
      "city": "LAKEHILLS",
      "name": "LAKEHILLS AREA LIBRARY",
      "state": "TX",
      "latitude": 29.6349763000000017,
      "precinct": "TX_BANDERA_203",
      "longitude": -98.938290699999996,
      "address_line_1": "7200 FM 1283",
      "address_line_2": null
    },
    {
      "zip": "78063",
      "city": "LAKEHILLS",
      "name": "LAKEHILLS CIVIC CENTER",
      "state": "TX",
      "latitude": 29.5891480999999992,
      "precinct": "TX_BANDERA_204",
      "longitude": -98.9456009999999964,
      "address_line_1": "11225 PARK RD. 37",
      "address_line_2": null
    },
    {
      "zip": "78003",
      "city": "BANDERA",
      "name": "RAY MAUER ANNEX",
      "state": "TX",
      "latitude": 29.7259367999999995,
      "precinct": "TX_BANDERA_305",
      "longitude": -99.0711258999999984,
      "address_line_1": "403 12TH STREET",
      "address_line_2": null
    },
    {
      "zip": "78055",
      "city": "MEDINA",
      "name": "MEDINA TAX OFFICE ANNEX",
      "state": "TX",
      "latitude": 29.7977875999999995,
      "precinct": "TX_BANDERA_306",
      "longitude": -99.2477480999999955,
      "address_line_1": "161 E PARKER ST",
      "address_line_2": null
    },
    {
      "zip": "78003",
      "city": "BANDERA",
      "name": "BANDERA ISD BUS BARN",
      "state": "TX",
      "latitude": 29.7058104000000007,
      "precinct": "TX_BANDERA_407",
      "longitude": -99.0610420000000005,
      "address_line_1": "1576 HWY 173 S.",
      "address_line_2": null
    },
    {
      "zip": "78883",
      "city": "TARPLEY",
      "name": "TARPLEY COMM. CENTER",
      "state": "TX",
      "latitude": 29.658781900000001,
      "precinct": "TX_BANDERA_408",
      "longitude": -99.2794035000000008,
      "address_line_1": "232 VALENTINE LANE",
      "address_line_2": null
    },
    {
      "zip": "78003",
      "city": "BANDERA",
      "name": "LAKESHORE V.F.D.",
      "state": "TX",
      "latitude": 29.6347261999999994,
      "precinct": "TX_BANDERA_409",
      "longitude": -98.9800680000000028,
      "address_line_1": "9019 WHARTON DOCK RD.",
      "address_line_2": null
    },
    {
      "zip": "78885",
      "city": "VANDERPOOL",
      "name": "VANDERPOOL V.F.D.",
      "state": "TX",
      "latitude": 29.7469816999999992,
      "precinct": "TX_BANDERA_410",
      "longitude": -99.5578567000000021,
      "address_line_1": "32647 FM 187",
      "address_line_2": null
    },
    {
      "zip": "78602",
      "city": "BASTROP",
      "name": "BASTROP FIRE DEPARTMENT STATION 2 (TAHITIAN)",
      "state": "TX",
      "latitude": 30.1006740999999991,
      "precinct": "TX_BASTROP_1001",
      "longitude": -97.2871631000000008,
      "address_line_1": "120 CORPORATE DR.",
      "address_line_2": null
    },
    {
      "zip": "78602",
      "city": "BASTROP",
      "name": "FIRST BAPTIST CHURCH",
      "state": "TX",
      "latitude": 30.1129862000000017,
      "precinct": "TX_BASTROP_1002",
      "longitude": -97.3183262000000013,
      "address_line_1": "1201 WATER ST.",
      "address_line_2": null
    },
    {
      "zip": "78602",
      "city": "BASTROP",
      "name": "RIVER VALLEY CHRISTIAN FELLOWSHIP",
      "state": "TX",
      "latitude": 30.1131500999999986,
      "precinct": "TX_BASTROP_1003",
      "longitude": -97.4122591,
      "address_line_1": "1224 HWY 71 W.",
      "address_line_2": null
    },
    {
      "zip": "78602",
      "city": "BASTROP",
      "name": "BASTROP COUNTY PCT. 1 ROAD BARN",
      "state": "TX",
      "latitude": 30.2056000000000004,
      "precinct": "TX_BASTROP_1004",
      "longitude": -97.3007029999999986,
      "address_line_1": "601 COOL WATER DR.",
      "address_line_2": null
    },
    {
      "zip": "78602",
      "city": "BASTROP",
      "name": "BASTROP CHURCH OF CHRIST",
      "state": "TX",
      "latitude": 30.0985624999999999,
      "precinct": "TX_BASTROP_1022",
      "longitude": -97.3789375000000064,
      "address_line_1": "287 HWY 20",
      "address_line_2": null
    },
    {
      "zip": "78957",
      "city": "SMITHVILLE",
      "name": "SMITHVILLE CITY HALL",
      "state": "TX",
      "latitude": 30.0091351999999993,
      "precinct": "TX_BASTROP_2005",
      "longitude": -97.1595997000000011,
      "address_line_1": "317 MAIN ST.",
      "address_line_2": null
    },
    {
      "zip": "78957",
      "city": "SMITHVILLE",
      "name": "LAKE THUNDERBIRD COMMUNITY CENTER",
      "state": "TX",
      "latitude": 30.0563585999999994,
      "precinct": "TX_BASTROP_2006",
      "longitude": -97.1090882000000022,
      "address_line_1": "104 THUNDERBIRD DR.",
      "address_line_2": null
    },
    {
      "zip": "78957",
      "city": "ROSANKY",
      "name": "ROSANKY COMMUNITY CENTER",
      "state": "TX",
      "latitude": 29.9320467000000008,
      "precinct": "TX_BASTROP_2007",
      "longitude": -97.2959539999999947,
      "address_line_1": "135 MAIN ST.",
      "address_line_2": null
    },
    {
      "zip": "78602",
      "city": "SMITHVILLE",
      "name": "HEART OF THE PINES VFD",
      "state": "TX",
      "latitude": 30.0719391999999992,
      "precinct": "TX_BASTROP_2008",
      "longitude": -97.234968600000002,
      "address_line_1": "109 GREEN ACRES LOOP",
      "address_line_2": null
    },
    {
      "zip": "78602",
      "city": "BASTROP",
      "name": "CALVARY BAPTIST CHURCH",
      "state": "TX",
      "latitude": 30.1101740000000007,
      "precinct": "TX_BASTROP_2009",
      "longitude": -97.2932591000000002,
      "address_line_1": "3001 LOOP 150 E.",
      "address_line_2": null
    },
    {
      "zip": "78659",
      "city": "PAIGE",
      "name": "PAIGE COMMUNITY CENTER",
      "state": "TX",
      "latitude": 30.2108811000000017,
      "precinct": "TX_BASTROP_2010",
      "longitude": -97.1125138999999962,
      "address_line_1": "107 S. MAIN ST.",
      "address_line_2": null
    },
    {
      "zip": "78602",
      "city": "BASTROP",
      "name": "BASTROP FIRE DEPARTMENT STATION #3 (CIRCLE D)",
      "state": "TX",
      "latitude": 30.173798399999999,
      "precinct": "TX_BASTROP_2011",
      "longitude": -97.256477899999993,
      "address_line_1": "926 FM 1441",
      "address_line_2": null
    },
    {
      "zip": "78602",
      "city": "BASTROP",
      "name": "HILLS PRAIRIE BAPTIST CHURCH",
      "state": "TX",
      "latitude": 30.0386060999999991,
      "precinct": "TX_BASTROP_3012",
      "longitude": -97.3205406999999951,
      "address_line_1": "1338 HWY 304",
      "address_line_2": null
    },
    {
      "zip": "78662",
      "city": "RED ROCK",
      "name": "RED ROCK COMMUNITY CENTER",
      "state": "TX",
      "latitude": 29.9618247000000011,
      "precinct": "TX_BASTROP_3013",
      "longitude": -97.4442140000000023,
      "address_line_1": "114 RED ROCK RD.",
      "address_line_2": null
    },
    {
      "zip": "78612",
      "city": "CEDAR CREEK",
      "name": "BASTROP COUNTY ESD #1 STATION 5",
      "state": "TX",
      "latitude": 30.0246904000000008,
      "precinct": "TX_BASTROP_3014",
      "longitude": -97.5425374999999946,
      "address_line_1": "1525 FM 812",
      "address_line_2": null
    },
    {
      "zip": "78612",
      "city": "CEDAR CREEK",
      "name": "CEDAR CREEK UNITED METHODIST CHURCH",
      "state": "TX",
      "latitude": 30.0884698999999998,
      "precinct": "TX_BASTROP_3015",
      "longitude": -97.5011425999999943,
      "address_line_1": "5630 FM 535",
      "address_line_2": null
    },
    {
      "zip": "78612",
      "city": "CEDAR CREEK",
      "name": "WYLDWOOD BAPTIST CHURCH",
      "state": "TX",
      "latitude": 30.1264676999999992,
      "precinct": "TX_BASTROP_3016",
      "longitude": -97.4420642000000043,
      "address_line_1": "398 UNION CHAPEL RD.",
      "address_line_2": null
    },
    {
      "zip": "78621",
      "city": "ELGIN",
      "name": "ELGIN PUBLIC LIBRARY",
      "state": "TX",
      "latitude": 30.3507897,
      "precinct": "TX_BASTROP_4017",
      "longitude": -97.3719990999999965,
      "address_line_1": "404 N. MAIN ST.",
      "address_line_2": null
    },
    {
      "zip": "78621",
      "city": "ELGIN",
      "name": "LOST PINES COWBOY CHURCH",
      "state": "TX",
      "latitude": 30.3842770000000009,
      "precinct": "TX_BASTROP_4018",
      "longitude": -97.3527227000000011,
      "address_line_1": "334 ROEMER RD.",
      "address_line_2": null
    },
    {
      "zip": "78621",
      "city": "ELGIN",
      "name": "FAMILY WORSHIP CENTER",
      "state": "TX",
      "latitude": 30.2550571999999995,
      "precinct": "TX_BASTROP_4019",
      "longitude": -97.4154915999999957,
      "address_line_1": "2425 FM 1704",
      "address_line_2": null
    },
    {
      "zip": "78621",
      "city": "ELGIN",
      "name": "NEW LIFE BAPTIST FELLOWSHIP",
      "state": "TX",
      "latitude": 30.3309169999999995,
      "precinct": "TX_BASTROP_4020",
      "longitude": -97.3601589999999959,
      "address_line_1": "175 HWY 95 S.",
      "address_line_2": null
    },
    {
      "zip": "78650",
      "city": "MCDADE",
      "name": "FAITH LUTHERAN CHURCH",
      "state": "TX",
      "latitude": 30.2893511000000011,
      "precinct": "TX_BASTROP_4021",
      "longitude": -97.236358800000005,
      "address_line_1": "230 WACO ST.",
      "address_line_2": null
    },
    {
      "zip": "76380",
      "city": "SEYMOUR",
      "name": "BAYLOR COUNTY COURTHOUSE",
      "state": "TX",
      "latitude": 33.5874521000000001,
      "precinct": "TX_BAYLOR_1",
      "longitude": -99.2610777999999954,
      "address_line_1": "101 S. WASHINGTON ST.",
      "address_line_2": null
    },
    {
      "zip": "76380",
      "city": "SEYMOUR",
      "name": "BAYLOR COUNTY COURTHOUSE",
      "state": "TX",
      "latitude": 33.5874521000000001,
      "precinct": "TX_BAYLOR_2",
      "longitude": -99.2610777999999954,
      "address_line_1": "101 S WASHINGTON",
      "address_line_2": null
    },
    {
      "zip": "76380",
      "city": "SEYMOUR",
      "name": "BAYLOR COUNTY COURTHOUSE",
      "state": "TX",
      "latitude": 33.5874521000000001,
      "precinct": "TX_BAYLOR_3",
      "longitude": -99.2610777999999954,
      "address_line_1": "101 S WASHINGTON ST",
      "address_line_2": null
    },
    {
      "zip": "76380",
      "city": "SEYMOUR",
      "name": "BAYLOR COUNTY COURTHOUSE",
      "state": "TX",
      "latitude": 33.5874521000000001,
      "precinct": "TX_BAYLOR_4",
      "longitude": -99.2610777999999954,
      "address_line_1": "101 S WASHINGTON",
      "address_line_2": null
    },
    {
      "zip": "78606",
      "city": "BLANCO",
      "name": "FIRST BAPTIST CHURCH - FELLOWSHIP HALL",
      "state": "TX",
      "latitude": 30.1010314000000001,
      "precinct": "TX_BLANCO_102",
      "longitude": -98.4304403999999948,
      "address_line_1": "1200 4TH STREET",
      "address_line_2": null
    },
    {
      "zip": "78636",
      "city": "JOHNSON CITY",
      "name": "GOOD SHEPHERD CATHOLIC CHURCH",
      "state": "TX",
      "latitude": 30.2663592000000001,
      "precinct": "TX_BLANCO_201",
      "longitude": -98.3925114000000036,
      "address_line_1": "285 281 LOOP RD",
      "address_line_2": null
    },
    {
      "zip": "78636",
      "city": "JOHNSON CITY",
      "name": "BLANCO COUNTY COURTHOUSE ANNEX (HOPPE ROOM)",
      "state": "TX",
      "latitude": 30.2788842000000002,
      "precinct": "TX_BLANCO_302",
      "longitude": -98.4113119999999952,
      "address_line_1": "101 E. CYPRESS ST",
      "address_line_2": null
    },
    {
      "zip": "78663",
      "city": "ROUND MOUNTAIN",
      "name": "COMMISSIONER PRECINCT 3 BARN",
      "state": "TX",
      "latitude": 30.4287762999999991,
      "precinct": "TX_BLANCO_303",
      "longitude": -98.3332925999999929,
      "address_line_1": "862 RANCH RD 962 EAST",
      "address_line_2": null
    },
    {
      "zip": "78663",
      "city": "CYPRESS MILL",
      "name": "ST. LUKE'S EPISCOPAL CHURCH - PARISH HALL",
      "state": "TX",
      "latitude": 30.3805624999999999,
      "precinct": "TX_BLANCO_304",
      "longitude": -98.2530624999999986,
      "address_line_1": "263 SPUR RANCH RD 962 EAST",
      "address_line_2": null
    },
    {
      "zip": "78606",
      "city": "BLANCO",
      "name": "BLANCO COUNTY SOUTH ANNEX",
      "state": "TX",
      "latitude": 30.0888793999999997,
      "precinct": "TX_BLANCO_401",
      "longitude": -98.4184544999999957,
      "address_line_1": "402 BLANCO AVE",
      "address_line_2": null
    },
    {
      "zip": "79738",
      "city": "GAIL",
      "name": "FIRST BAPTIST CHURCH",
      "state": "TX",
      "latitude": 32.7693513999999979,
      "precinct": "TX_BORDEN_1A",
      "longitude": -101.445804800000005,
      "address_line_1": "324 W Wilbourn",
      "address_line_2": null
    },
    {
      "zip": "79373",
      "city": "O'DONNELL",
      "name": "PLAINS COMMUNITY ROOM",
      "state": "TX",
      "latitude": 33.077812999999999,
      "precinct": "TX_BORDEN_1B",
      "longitude": -101.666690399999993,
      "address_line_1": "2300 FM 1054",
      "address_line_2": null
    },
    {
      "zip": "79738",
      "city": "GAIL",
      "name": "BORDEN COUNTY COURTHOUSE",
      "state": "TX",
      "latitude": 32.7683194000000029,
      "precinct": "TX_BORDEN_2A",
      "longitude": -101.452703200000002,
      "address_line_1": "117 E. WASSON",
      "address_line_2": null
    },
    {
      "zip": "79720",
      "city": "BIG SPRING",
      "name": "VEALMOOR ELECTION BUILDING",
      "state": "TX",
      "latitude": 32.5609020999999998,
      "precinct": "TX_BORDEN_2B",
      "longitude": -101.596522199999995,
      "address_line_1": "651 CR 236",
      "address_line_2": null
    },
    {
      "zip": "79527",
      "city": "IRA",
      "name": "FAIRVIEW ELECTION BUILDING",
      "state": "TX",
      "latitude": 32.6318125000000023,
      "precinct": "TX_BORDEN_3B",
      "longitude": -101.221312499999996,
      "address_line_1": "100 CR 383",
      "address_line_2": null
    },
    {
      "zip": "79738",
      "city": "GAIL",
      "name": "BORDEN COUNTY COURTHOUSE",
      "state": "TX",
      "latitude": 32.7683194000000029,
      "precinct": "TX_BORDEN_4",
      "longitude": -101.452703200000002,
      "address_line_1": "117 E. WASSON",
      "address_line_2": null
    },
    {
      "zip": "76649",
      "city": "IREDELL",
      "name": "IREDELL CITY HALL (01)",
      "state": "TX",
      "latitude": 31.9826726000000008,
      "precinct": "TX_BOSQUE_1",
      "longitude": -97.8699110000000019,
      "address_line_1": "218 S. EASTLAND ST",
      "address_line_2": null
    },
    {
      "zip": "76689",
      "city": "VALLEY MILLS",
      "name": "VALLEY MILLS OLD CITY HALL (10)",
      "state": "TX",
      "latitude": 31.6596875000000004,
      "precinct": "TX_BOSQUE_10",
      "longitude": -97.4716875000000016,
      "address_line_1": "107 S 4TH ST",
      "address_line_2": null
    },
    {
      "zip": "76634",
      "city": "VALLEY MILLS",
      "name": "CAYOTE COMMUNITY CENTER (11)",
      "state": "TX",
      "latitude": 31.7683874000000017,
      "precinct": "TX_BOSQUE_11",
      "longitude": -97.4582146999999992,
      "address_line_1": "3339 FM 56",
      "address_line_2": null
    },
    {
      "zip": "76690",
      "city": "WALNUT SPRINGS",
      "name": "WALNUT SPRINGS CITY HALL (02)",
      "state": "TX",
      "latitude": 32.0575000999999986,
      "precinct": "TX_BOSQUE_2",
      "longitude": -97.7489274999999935,
      "address_line_1": "4126 THIRD STREET",
      "address_line_2": null
    },
    {
      "zip": "76665",
      "city": "MERIDIAN",
      "name": "MERIDIAN CIVIC CENTER (03)",
      "state": "TX",
      "latitude": 31.9218653000000003,
      "precinct": "TX_BOSQUE_3",
      "longitude": -97.6578776000000062,
      "address_line_1": "309 W RIVER ST",
      "address_line_2": null
    },
    {
      "zip": "76665",
      "city": "MERIDIAN",
      "name": "MERIDIAN CIVIC CENTER (04)",
      "state": "TX",
      "latitude": 31.9218653000000003,
      "precinct": "TX_BOSQUE_4",
      "longitude": -97.6578776000000062,
      "address_line_1": "309 WEST RIVER ST",
      "address_line_2": null
    },
    {
      "zip": "76671",
      "city": "LAKESIDE",
      "name": "LAKESIDE COMMUNITY CENTER (5)",
      "state": "TX",
      "latitude": 32.0204374999999999,
      "precinct": "TX_BOSQUE_5",
      "longitude": -97.4968125000000043,
      "address_line_1": "136 CR 1275",
      "address_line_2": null
    },
    {
      "zip": "76634",
      "city": "CLIFTON",
      "name": "WEST SHORE COMMUNITY CENTER (6)",
      "state": "TX",
      "latitude": 31.8675624999999982,
      "precinct": "TX_BOSQUE_6",
      "longitude": -97.3961874999999964,
      "address_line_1": "560 FM 3118",
      "address_line_2": null
    },
    {
      "zip": "76637",
      "city": "CRANFILLS GAP",
      "name": "CRANFILLS GAP COMMUNITY CENTER (07)",
      "state": "TX",
      "latitude": 31.7746408000000002,
      "precinct": "TX_BOSQUE_7",
      "longitude": -97.8270859000000002,
      "address_line_1": "312 N. THIRD ST",
      "address_line_2": null
    },
    {
      "zip": "76634",
      "city": "CLIFTON",
      "name": "CLIFTON CIVIC CENTER (08)",
      "state": "TX",
      "latitude": 31.7842921999999994,
      "precinct": "TX_BOSQUE_8",
      "longitude": -97.5759761000000054,
      "address_line_1": "403 W. THIRD ST",
      "address_line_2": null
    },
    {
      "zip": "76634",
      "city": "CLIFTON",
      "name": "CLIFTON CIVIC CENTER (9)",
      "state": "TX",
      "latitude": 31.7842921999999994,
      "precinct": "TX_BOSQUE_9",
      "longitude": -97.5759761000000054,
      "address_line_1": "403 W 3RD ST",
      "address_line_2": null
    },
    {
      "zip": "75503",
      "city": "TEXARKANA",
      "name": "(10) PG VOLUNTEER FIRE DEPT",
      "state": "TX",
      "latitude": 33.5032033999999967,
      "precinct": "TX_BOWIE_10",
      "longitude": -94.1262229000000019,
      "address_line_1": "3123 FM 559",
      "address_line_2": null
    },
    {
      "zip": "75501",
      "city": "TEXARKANA",
      "name": "(11) C-5 VOLUNTEER FIRE DEPARTMENT",
      "state": "TX",
      "latitude": 33.4590057999999999,
      "precinct": "TX_BOWIE_11",
      "longitude": -94.2024080999999995,
      "address_line_1": "9534 W NEW BOSTON RD",
      "address_line_2": null
    },
    {
      "zip": "75501",
      "city": "TEXARKANA",
      "name": "(12) RED SPRINGS BAPTIST CHURCH",
      "state": "TX",
      "latitude": 33.4065171000000021,
      "precinct": "TX_BOWIE_12",
      "longitude": -94.1858849000000049,
      "address_line_1": "1101 FM 991",
      "address_line_2": null
    },
    {
      "zip": "75561",
      "city": "HOOKS",
      "name": "(13/30) HOOKS SCHOOL",
      "state": "TX",
      "latitude": 33.4678609999999992,
      "precinct": "TX_BOWIE_13",
      "longitude": -94.2843038999999976,
      "address_line_1": "401 E AVE A",
      "address_line_2": null
    },
    {
      "zip": "75570",
      "city": "NEW BOSTON",
      "name": "(14) BOWIE COUNTY COURTHOUSE",
      "state": "TX",
      "latitude": 33.472527399999997,
      "precinct": "TX_BOWIE_14",
      "longitude": -94.4058318999999955,
      "address_line_1": "710 JAMES BOWIE DR",
      "address_line_2": null
    },
    {
      "zip": "75559",
      "city": "DEKALB",
      "name": "(15) MALTA BAPTIST CHURCH",
      "state": "TX",
      "latitude": 33.4891734999999997,
      "precinct": "TX_BOWIE_15",
      "longitude": -94.5210225000000008,
      "address_line_1": "23 PRIVATE RD 27891",
      "address_line_2": null
    },
    {
      "zip": "75573",
      "city": "REDWATER",
      "name": "(16) REDWATER CITY HALL",
      "state": "TX",
      "latitude": 33.3631999999999991,
      "precinct": "TX_BOWIE_16",
      "longitude": -94.2525030000000044,
      "address_line_1": "120 REDWATER BLVD W",
      "address_line_2": null
    },
    {
      "zip": "75567",
      "city": "MAUD",
      "name": "(17) MAUD COMMUNITY CENTER",
      "state": "TX",
      "latitude": 33.3324725000000015,
      "precinct": "TX_BOWIE_17",
      "longitude": -94.3434680000000014,
      "address_line_1": "135 MAIN ST",
      "address_line_2": null
    },
    {
      "zip": "75570",
      "city": "NEW BOSTON",
      "name": "(18) FIRST BAPTIST CHURCH",
      "state": "TX",
      "latitude": 33.4516559999999998,
      "precinct": "TX_BOWIE_18",
      "longitude": -94.4097660000000047,
      "address_line_1": "506 S MCCOY BLVD",
      "address_line_2": null
    },
    {
      "zip": "75574",
      "city": "BOSTON",
      "name": "(19) OLD SALEM BAPTIST CHURCH",
      "state": "TX",
      "latitude": 33.4506657000000018,
      "precinct": "TX_BOWIE_19",
      "longitude": -94.5327312999999947,
      "address_line_1": "6199 FM 1840 NEW",
      "address_line_2": null
    },
    {
      "zip": "75503",
      "city": "TEXARKANA",
      "name": "(1A/4E) GOREE ACADEMIC LEARNING CENTER",
      "state": "TX",
      "latitude": 33.4464564000000024,
      "precinct": "TX_BOWIE_1A",
      "longitude": -94.0633813000000032,
      "address_line_1": "3201 LINCOLN ST",
      "address_line_2": null
    },
    {
      "zip": "75501",
      "city": "TEXARKANA",
      "name": "(2A /1B) ST. PAUL'S MISSIONARY BAPTIST CHURCH",
      "state": "TX",
      "latitude": 33.4057879,
      "precinct": "TX_BOWIE_1B",
      "longitude": -94.0768560000000065,
      "address_line_1": "2921 NORRIS COOLEY DR",
      "address_line_2": null
    },
    {
      "zip": "75559",
      "city": "DEKALB",
      "name": "(20) DEKALB MASONIC LODGE",
      "state": "TX",
      "latitude": 33.5099323999999967,
      "precinct": "TX_BOWIE_20",
      "longitude": -94.615439699999996,
      "address_line_1": "101 N BOWIE ST",
      "address_line_2": null
    },
    {
      "zip": "75559",
      "city": "DEKALB",
      "name": "(22/21) OAKGROVE LIGHTHOUSE CHURCH",
      "state": "TX",
      "latitude": 33.5385624999999976,
      "precinct": "TX_BOWIE_21",
      "longitude": -94.6860625000000056,
      "address_line_1": "194 FM 1326 N",
      "address_line_2": null
    },
    {
      "zip": "75559",
      "city": "DEKALB",
      "name": "(22/21) OAKGROVE LIGHTHOUSE CHURCH",
      "state": "TX",
      "latitude": 33.5385624999999976,
      "precinct": "TX_BOWIE_22",
      "longitude": -94.6860625000000056,
      "address_line_1": "194 FM 1326 N",
      "address_line_2": null
    },
    {
      "zip": "75559",
      "city": "DEKALB",
      "name": "(24) HUBBARD ISD",
      "state": "TX",
      "latitude": 33.4688001000000028,
      "precinct": "TX_BOWIE_24",
      "longitude": -94.6369586999999939,
      "address_line_1": "3347 S US HIGHWAY 259",
      "address_line_2": null
    },
    {
      "zip": "75559",
      "city": "DEKALB",
      "name": "(25) DEKALB HIGH SCHOOL",
      "state": "TX",
      "latitude": 33.5091751000000002,
      "precinct": "TX_BOWIE_25",
      "longitude": -94.6211574000000013,
      "address_line_1": "152 SW MAPLE ST",
      "address_line_2": null
    },
    {
      "zip": "75574",
      "city": "SIMMS",
      "name": "(27) SIMMS BAPTIST CHURCH",
      "state": "TX",
      "latitude": 33.350187499999997,
      "precinct": "TX_BOWIE_27",
      "longitude": -94.5144374999999997,
      "address_line_1": "105 COUNTY RD 561",
      "address_line_2": null
    },
    {
      "zip": "75574",
      "city": "SIMMS",
      "name": "(28) CROSSROADS COMMUNITY CTR",
      "state": "TX",
      "latitude": 33.3663466,
      "precinct": "TX_BOWIE_28",
      "longitude": -94.625774100000001,
      "address_line_1": "10650 FM 561",
      "address_line_2": null
    },
    {
      "zip": "75574",
      "city": "DEKALB",
      "name": "(29) WARDS CREEK BAPTIST CHURCH",
      "state": "TX",
      "latitude": 33.3671232000000018,
      "precinct": "TX_BOWIE_29",
      "longitude": -94.6196458999999948,
      "address_line_1": "17 COUNTY RD 4239",
      "address_line_2": null
    },
    {
      "zip": "75501",
      "city": "TEXARKANA",
      "name": "(2A /1B) ST. PAUL'S MISSIONARY BAPTIST CHURCH",
      "state": "TX",
      "latitude": 33.4057879,
      "precinct": "TX_BOWIE_2A",
      "longitude": -94.0768560000000065,
      "address_line_1": "2921 NORRIS COOLEY DR",
      "address_line_2": null
    },
    {
      "zip": "75501",
      "city": "TEXARKANA",
      "name": "(2B/4D/5A) WESTLAWN ELEMENTARY",
      "state": "TX",
      "latitude": 33.4370049999999992,
      "precinct": "TX_BOWIE_2B",
      "longitude": -94.085965299999998,
      "address_line_1": "410 WESTLAWN DR",
      "address_line_2": null
    },
    {
      "zip": "75501",
      "city": "TEXARKANA",
      "name": "(2C) THERON JONES EARLY LEARNING CTR",
      "state": "TX",
      "latitude": 33.4314784000000031,
      "precinct": "TX_BOWIE_2C",
      "longitude": -94.0729410999999942,
      "address_line_1": "2600 W 15TH ST",
      "address_line_2": null
    },
    {
      "zip": "75501",
      "city": "TEXARKANA",
      "name": "(2D/4A/5B) TEXARKANA COLLEGE",
      "state": "TX",
      "latitude": 33.4433690999999982,
      "precinct": "TX_BOWIE_2D",
      "longitude": -94.0793699999999973,
      "address_line_1": "2500 N ROBISON RD",
      "address_line_2": null
    },
    {
      "zip": "75561",
      "city": "HOOKS",
      "name": "(13/30) HOOKS SCHOOL",
      "state": "TX",
      "latitude": 33.4678609999999992,
      "precinct": "TX_BOWIE_30",
      "longitude": -94.2843038999999976,
      "address_line_1": "401 E AVE A",
      "address_line_2": null
    },
    {
      "zip": "75503",
      "city": "TEXARKANA",
      "name": "(3A) COLLINS MEMORIAL BUILDING",
      "state": "TX",
      "latitude": 33.445787799999998,
      "precinct": "TX_BOWIE_3A",
      "longitude": -94.0522787000000022,
      "address_line_1": "3000 TEXAS BLVD",
      "address_line_2": null
    },
    {
      "zip": "75503",
      "city": "TEXARKANA",
      "name": "(3B) TEXARKANA CITY HALL",
      "state": "TX",
      "latitude": 33.4212616000000011,
      "precinct": "TX_BOWIE_3B",
      "longitude": -94.0453164000000044,
      "address_line_1": "220 TEXAS BLVD",
      "address_line_2": null
    },
    {
      "zip": "75501",
      "city": "TEXARKANA",
      "name": "(2D/4A/5B) TEXARKANA COLLEGE",
      "state": "TX",
      "latitude": 33.4433690999999982,
      "precinct": "TX_BOWIE_4A",
      "longitude": -94.0793699999999973,
      "address_line_1": "2500 N ROBISON RD",
      "address_line_2": null
    },
    {
      "zip": "75503",
      "city": "TEXARKANA",
      "name": "(4B) SPRINGLAKE PARK SCHOOL",
      "state": "TX",
      "latitude": 33.4601688999999993,
      "precinct": "TX_BOWIE_4B",
      "longitude": -94.0522207000000066,
      "address_line_1": "4324 GHIO-FISH BLVD",
      "address_line_2": null
    },
    {
      "zip": "75503",
      "city": "TEXARKANA",
      "name": "(4C) TEXAS MIDDLE SCHOOL",
      "state": "TX",
      "latitude": 33.4497703999999985,
      "precinct": "TX_BOWIE_4C",
      "longitude": -94.0681081000000034,
      "address_line_1": "2100 COLLEGE DR",
      "address_line_2": null
    },
    {
      "zip": "75501",
      "city": "TEXARKANA",
      "name": "(2B/4D/5A) WESTLAWN ELEMENTARY",
      "state": "TX",
      "latitude": 33.4370049999999992,
      "precinct": "TX_BOWIE_4D",
      "longitude": -94.085965299999998,
      "address_line_1": "410 WESTLAWN DR",
      "address_line_2": null
    },
    {
      "zip": "75503",
      "city": "TEXARKANA",
      "name": "(1A/4E) GOREE ACADEMIC LEARNING CENTER",
      "state": "TX",
      "latitude": 33.4464564000000024,
      "precinct": "TX_BOWIE_4E",
      "longitude": -94.0633813000000032,
      "address_line_1": "3201 LINCOLN ST",
      "address_line_2": null
    },
    {
      "zip": "75501",
      "city": "TEXARKANA",
      "name": "(2B/4D/5A) WESTLAWN ELEMENTARY",
      "state": "TX",
      "latitude": 33.4370049999999992,
      "precinct": "TX_BOWIE_5A",
      "longitude": -94.085965299999998,
      "address_line_1": "410 WESTLAWN DR",
      "address_line_2": null
    },
    {
      "zip": "75501",
      "city": "TEXARKANA",
      "name": "(2D/4A/5B) TEXARKANA COLLEGE",
      "state": "TX",
      "latitude": 33.4433690999999982,
      "precinct": "TX_BOWIE_5B",
      "longitude": -94.0793699999999973,
      "address_line_1": "2500 N ROBISON RD",
      "address_line_2": null
    },
    {
      "zip": "75503",
      "city": "TEXARKANA",
      "name": "(5C) RICHMOND ROAD BAPTIST CHURCH",
      "state": "TX",
      "latitude": 33.4754888000000008,
      "precinct": "TX_BOWIE_5C",
      "longitude": -94.1022145000000023,
      "address_line_1": "5805 RICHMOND RD",
      "address_line_2": null
    },
    {
      "zip": "75503",
      "city": "TEXARKANA",
      "name": "(6A) FIRST BAPTIST CHURCH",
      "state": "TX",
      "latitude": 33.4701749000000035,
      "precinct": "TX_BOWIE_6A",
      "longitude": -94.0804061999999988,
      "address_line_1": "3015 MOORES LN",
      "address_line_2": null
    },
    {
      "zip": "75503",
      "city": "TEXARKANA",
      "name": "(6B) PLEASANT GROVE MIDDLE SCHOOL",
      "state": "TX",
      "latitude": 33.4736872000000005,
      "precinct": "TX_BOWIE_6B",
      "longitude": -94.0847451000000063,
      "address_line_1": "5605 COOKS LN",
      "address_line_2": null
    },
    {
      "zip": "75501",
      "city": "WAKE VILLAGE",
      "name": "(7) WAKE VILLAGE CITY HALL",
      "state": "TX",
      "latitude": 33.4260846000000029,
      "precinct": "TX_BOWIE_7",
      "longitude": -94.1056702999999999,
      "address_line_1": "624 BURMA RD",
      "address_line_2": null
    },
    {
      "zip": "75501",
      "city": "TEXARKANA",
      "name": "(8A) LIBERTY EYLAU SCHOOL OF SUCCESS",
      "state": "TX",
      "latitude": 33.4145082000000002,
      "precinct": "TX_BOWIE_8A",
      "longitude": -94.127256200000005,
      "address_line_1": "766 MACEDONIA RD",
      "address_line_2": null
    },
    {
      "zip": "75501",
      "city": "TEXARKANA",
      "name": "(8B) EYLAU METHODIST CHURCH",
      "state": "TX",
      "latitude": 33.3833725000000001,
      "precinct": "TX_BOWIE_8B",
      "longitude": -94.1145151000000055,
      "address_line_1": "5214 S US HIGHWAY 59",
      "address_line_2": null
    },
    {
      "zip": "75501",
      "city": "TEXARKANA",
      "name": "(8C) BUCHANAN BAPTIST CHURCH",
      "state": "TX",
      "latitude": 33.3507382000000021,
      "precinct": "TX_BOWIE_8C",
      "longitude": -94.0852694000000014,
      "address_line_1": "3635 BUCHANAN LOOP RD",
      "address_line_2": null
    },
    {
      "zip": "75569",
      "city": "NASH",
      "name": "(9) NASH SCHOOL",
      "state": "TX",
      "latitude": 33.4467215999999965,
      "precinct": "TX_BOWIE_9",
      "longitude": -94.1306725999999969,
      "address_line_1": "100 BURTON ST",
      "address_line_2": null
    },
    {
      "zip": "79830",
      "city": "ALPINE",
      "name": "BREWSTER COUNTY OFFICES - OLD FOOD BANK",
      "state": "TX",
      "latitude": 30.3556774999999988,
      "precinct": "TX_BREWSTER_1",
      "longitude": -103.685245499999994,
      "address_line_1": "2209 W HWY 90",
      "address_line_2": null
    },
    {
      "zip": "79830",
      "city": "ALPINE",
      "name": "JUDGE VAL CLARK BEARD OFFICE COMPLEX",
      "state": "TX",
      "latitude": 30.3580499999999986,
      "precinct": "TX_BREWSTER_2",
      "longitude": -103.664061000000004,
      "address_line_1": "203 N 7TH STREET",
      "address_line_2": null
    },
    {
      "zip": "79842",
      "city": "MARATHON",
      "name": "MARATHON COMMUNITY CENTER",
      "state": "TX",
      "latitude": 30.2043125000000003,
      "precinct": "TX_BREWSTER_3",
      "longitude": -103.2458125,
      "address_line_1": "103 EAST 2ND STREET",
      "address_line_2": null
    },
    {
      "zip": "79830",
      "city": "ALPINE",
      "name": "ALPINE CIVIC CENTER - COUNCIL CHAMBERS",
      "state": "TX",
      "latitude": 30.3556142000000015,
      "precinct": "TX_BREWSTER_4",
      "longitude": -103.669083499999999,
      "address_line_1": "803 WEST HOLLAND",
      "address_line_2": null
    },
    {
      "zip": "79834",
      "city": "BBNP",
      "name": "PANTHER JUNCTION visitor center",
      "state": "TX",
      "latitude": 29.3278125000000003,
      "precinct": "TX_BREWSTER_5",
      "longitude": -103.205937500000005,
      "address_line_1": "1 BIG BEND NATIONAL PARK",
      "address_line_2": null
    },
    {
      "zip": "79852",
      "city": "TERLINGUA",
      "name": "J.W. RED\" PATTILLO COMMUNITY CENTER\"",
      "state": "TX",
      "latitude": 29.3323953999999993,
      "precinct": "TX_BREWSTER_6",
      "longitude": -103.534540800000002,
      "address_line_1": "100 HWY 118",
      "address_line_2": null
    },
    {
      "zip": "79852",
      "city": "TERLINGUA",
      "name": "J.W. RED\" PATTILLO COMMUNITY CENTER\"",
      "state": "TX",
      "latitude": 29.3323953999999993,
      "precinct": "TX_BREWSTER_7",
      "longitude": -103.534540800000002,
      "address_line_1": "100 HWY 118",
      "address_line_2": null
    },
    {
      "zip": "79830",
      "city": "ALPINE",
      "name": "SRSU BRYAN WILDENTHAL MEMORIAL LIBRARY",
      "state": "TX",
      "latitude": 30.3639067999999988,
      "precinct": "TX_BREWSTER_8",
      "longitude": -103.647426400000001,
      "address_line_1": "400 N HARRISON ST",
      "address_line_2": null
    },
    {
      "zip": "79257",
      "city": "SILVERTON",
      "name": "SILVERTON PUBLIC LIBRARY",
      "state": "TX",
      "latitude": 34.4741985,
      "precinct": "TX_BRISCOE_1",
      "longitude": -101.302569099999999,
      "address_line_1": "400 BROADWAY",
      "address_line_2": null
    },
    {
      "zip": "79255",
      "city": "QUITAQUE",
      "name": "HOPE COMMUNITY CENTER",
      "state": "TX",
      "latitude": 34.3656846000000016,
      "precinct": "TX_BRISCOE_2",
      "longitude": -101.060705100000007,
      "address_line_1": "117 W. MAIN",
      "address_line_2": null
    },
    {
      "zip": "79257",
      "city": "SILVERTON",
      "name": "HAPPY STATE BANK SILVERTON PIONEER ROOM",
      "state": "TX",
      "latitude": 34.4728235999999981,
      "precinct": "TX_BRISCOE_3",
      "longitude": -101.304415800000001,
      "address_line_1": "500 MAIN ST",
      "address_line_2": null
    },
    {
      "zip": "79257",
      "city": "SILVERTON",
      "name": "FIRST BAPTIST CHURCH",
      "state": "TX",
      "latitude": 34.4726764999999986,
      "precinct": "TX_BRISCOE_4",
      "longitude": -101.308468599999998,
      "address_line_1": "500 LORETTA ST",
      "address_line_2": null
    },
    {
      "zip": "79255",
      "city": "QUITAQUE",
      "name": "HOPE COMMUNITY CENTER",
      "state": "TX",
      "latitude": 34.3656846000000016,
      "precinct": "TX_BRISCOE_6",
      "longitude": -101.060705100000007,
      "address_line_1": "117 W. MAIN",
      "address_line_2": null
    },
    {
      "zip": "78355",
      "city": "FALFURRIAS",
      "name": "ED RACHAL MEMORIAL LIBRARY",
      "state": "TX",
      "latitude": 27.2255879999999983,
      "precinct": "TX_BROOKS_1",
      "longitude": -98.1429088000000007,
      "address_line_1": "203 CALIXTO MORA AVE.",
      "address_line_2": null
    },
    {
      "zip": "78355",
      "city": "FALFURRIAS",
      "name": "VFW HALL",
      "state": "TX",
      "latitude": 27.2217175000000005,
      "precinct": "TX_BROOKS_2",
      "longitude": -98.1329948000000059,
      "address_line_1": "1310 E. HWY 285",
      "address_line_2": null
    },
    {
      "zip": "78355",
      "city": "FALFURRIAS",
      "name": "LASATER SCHOOL CAFETERIA",
      "state": "TX",
      "latitude": 27.2227320000000006,
      "precinct": "TX_BROOKS_3",
      "longitude": -98.1462594000000053,
      "address_line_1": "500 S CALDWELL",
      "address_line_2": null
    },
    {
      "zip": "78355",
      "city": "FALFURRIAS",
      "name": "LOS ENCINOS ELDERLY HOUSING",
      "state": "TX",
      "latitude": 27.2148621000000013,
      "precinct": "TX_BROOKS_4",
      "longitude": -98.1513723999999996,
      "address_line_1": "1310 S. CENTER",
      "address_line_2": null
    },
    {
      "zip": "76801",
      "city": "BROWNWOOD",
      "name": "CHURCH OF THE LIVING GOD",
      "state": "TX",
      "latitude": 31.6904670999999993,
      "precinct": "TX_BROWN_101",
      "longitude": -98.9755075000000062,
      "address_line_1": "1800 GOOD SHEPHERD",
      "address_line_2": null
    },
    {
      "zip": "76801",
      "city": "BROWNWOOD",
      "name": "SOUTHSIDE BAPTIST CHURCH",
      "state": "TX",
      "latitude": 31.6819550999999997,
      "precinct": "TX_BROWN_105",
      "longitude": -98.9616249000000039,
      "address_line_1": "1219 INDIAN CREEK DR",
      "address_line_2": null
    },
    {
      "zip": "76827",
      "city": "BROOKESMITH",
      "name": "BROOKESMITH ISD",
      "state": "TX",
      "latitude": 31.5480665999999985,
      "precinct": "TX_BROWN_109",
      "longitude": -99.1192934999999977,
      "address_line_1": "13400 FM586 S",
      "address_line_2": null
    },
    {
      "zip": "76801",
      "city": "BROWNWOOD",
      "name": "NEW LIFE ASSEMBLY OF GOD",
      "state": "TX",
      "latitude": 31.6694206999999999,
      "precinct": "TX_BROWN_113",
      "longitude": -98.9652911000000017,
      "address_line_1": "1910 INDIAN CREEK DR",
      "address_line_2": null
    },
    {
      "zip": "76801",
      "city": "BROWNWOOD",
      "name": "BROWN COUNTY ELECTIONS OFFICE - ED",
      "state": "TX",
      "latitude": 31.7240655999999994,
      "precinct": "TX_BROWN_202",
      "longitude": -98.9802212999999966,
      "address_line_1": "613 N FISK ST SUITE 200",
      "address_line_2": null
    },
    {
      "zip": "76801",
      "city": "BROWNWOOD",
      "name": "BROWN COUNTY ELECTIONS OFFICE - ED",
      "state": "TX",
      "latitude": 31.7240655999999994,
      "precinct": "TX_BROWN_204",
      "longitude": -98.9802212999999966,
      "address_line_1": "613 N FISK ST SUITE 200",
      "address_line_2": null
    },
    {
      "zip": "76857",
      "city": "MAY",
      "name": "MAY COMMUNITY CENTER",
      "state": "TX",
      "latitude": 31.9824374999999996,
      "precinct": "TX_BROWN_212",
      "longitude": -98.9201874999999973,
      "address_line_1": "19150 HWY 183 N",
      "address_line_2": null
    },
    {
      "zip": "76801",
      "city": "BROWNWOOD",
      "name": "PLEASANT GROVE BAPTIST CHURCH",
      "state": "TX",
      "latitude": 31.7101875,
      "precinct": "TX_BROWN_214",
      "longitude": -98.9800625000000025,
      "address_line_1": "1451 CR 405 N",
      "address_line_2": null
    },
    {
      "zip": "76801",
      "city": "BROWNWOOD",
      "name": "CROSSROADS BAPTIST CHURCH",
      "state": "TX",
      "latitude": 31.8691460999999983,
      "precinct": "TX_BROWN_215",
      "longitude": -99.1165148999999985,
      "address_line_1": "6400 PARK ROAD 15",
      "address_line_2": null
    },
    {
      "zip": "76801",
      "city": "BROWNWOOD",
      "name": "BROWNWOOD ISD ADMINISTRATION BLDG.",
      "state": "TX",
      "latitude": 31.6909634999999987,
      "precinct": "TX_BROWN_303",
      "longitude": -98.9730155999999965,
      "address_line_1": "2707 SOUTHSIDE",
      "address_line_2": null
    },
    {
      "zip": "76802",
      "city": "EARLY",
      "name": "EARLY VISITORS AND EVENT CENTER",
      "state": "TX",
      "latitude": 31.7379670000000011,
      "precinct": "TX_BROWN_306",
      "longitude": -98.9374497000000019,
      "address_line_1": "419 GARMON DR",
      "address_line_2": null
    },
    {
      "zip": "76432",
      "city": "BLANKET",
      "name": "FIRST UNITED METHODIST CHURCH",
      "state": "TX",
      "latitude": 31.8264405000000004,
      "precinct": "TX_BROWN_307",
      "longitude": -98.7872904999999975,
      "address_line_1": "517 MAIN",
      "address_line_2": null
    },
    {
      "zip": "76890",
      "city": "ZEPHYR",
      "name": "ZEPHYR COMMUNTIY CENTER",
      "state": "TX",
      "latitude": 31.6795064000000011,
      "precinct": "TX_BROWN_308",
      "longitude": -98.7964668000000046,
      "address_line_1": "11275 CR 281",
      "address_line_2": null
    },
    {
      "zip": "76802",
      "city": "EARLY",
      "name": "NORTHRIDGE BAPTIST CHURCH",
      "state": "TX",
      "latitude": 31.7718124999999993,
      "precinct": "TX_BROWN_316",
      "longitude": -98.9530625000000015,
      "address_line_1": "4875 HIGHWAY 183 N",
      "address_line_2": null
    },
    {
      "zip": "76802",
      "city": "EARLY",
      "name": "NORTHRIDGE BAPTIST CHURCH",
      "state": "TX",
      "latitude": 31.7718124999999993,
      "precinct": "TX_BROWN_318",
      "longitude": -98.9530625000000015,
      "address_line_1": "4875 HIGHWAY 183 N",
      "address_line_2": null
    },
    {
      "zip": "76823",
      "city": "BANGS",
      "name": "BANGS COMMUNITY CENTER",
      "state": "TX",
      "latitude": 31.7144459000000012,
      "precinct": "TX_BROWN_410",
      "longitude": -99.1286434000000014,
      "address_line_1": "406 SPENCER",
      "address_line_2": null
    },
    {
      "zip": "76801",
      "city": "BROWNWOOD",
      "name": "COGGIN AVENUE BAPTIST CHURCH",
      "state": "TX",
      "latitude": 31.7036735999999983,
      "precinct": "TX_BROWN_411",
      "longitude": -98.9836767000000037,
      "address_line_1": "1806 COGGIN AVENUE",
      "address_line_2": null
    },
    {
      "zip": "76801",
      "city": "BROWNWOOD",
      "name": "ROCKY CREEK BAPTIST CHURCH",
      "state": "TX",
      "latitude": 31.7695624999999993,
      "precinct": "TX_BROWN_417",
      "longitude": -99.0848124999999982,
      "address_line_1": "4301 CR 557 & 279",
      "address_line_2": null
    },
    {
      "zip": "77852",
      "city": "DEANVILLE",
      "name": "DEANVILLE HALL",
      "state": "TX",
      "latitude": 30.4296949999999988,
      "precinct": "TX_BURLESON_113",
      "longitude": -96.7591256000000044,
      "address_line_1": "6785 FM 111",
      "address_line_2": null
    },
    {
      "zip": "77836",
      "city": "CALDWELL",
      "name": "ASSEMBLY OF GOD CHURCH",
      "state": "TX",
      "latitude": 30.524875999999999,
      "precinct": "TX_BURLESON_114",
      "longitude": -96.7001925,
      "address_line_1": "107 S TEMPLE ST",
      "address_line_2": null
    },
    {
      "zip": "77836",
      "city": "CALDWELL",
      "name": "COOKS POINT COMMUNITY CENTER",
      "state": "TX",
      "latitude": 30.5978780000000015,
      "precinct": "TX_BURLESON_203",
      "longitude": -96.6239451000000003,
      "address_line_1": "300 FM 1362 S",
      "address_line_2": null
    },
    {
      "zip": "77836",
      "city": "CALDWELL",
      "name": "SPJST NEW TABOR HALL",
      "state": "TX",
      "latitude": 30.5506829000000018,
      "precinct": "TX_BURLESON_204",
      "longitude": -96.6295238999999953,
      "address_line_1": "2674 CR 225",
      "address_line_2": null
    },
    {
      "zip": "77836",
      "city": "CALDWELL",
      "name": "OLD BETHLEHEM CHURCH",
      "state": "TX",
      "latitude": 30.5348645999999988,
      "precinct": "TX_BURLESON_207",
      "longitude": -96.518982500000007,
      "address_line_1": "5306 FM 2039",
      "address_line_2": null
    },
    {
      "zip": "77879",
      "city": "SNOOK",
      "name": "SNOOK COMMUNITY CENTER",
      "state": "TX",
      "latitude": 30.4866874999999986,
      "precinct": "TX_BURLESON_211",
      "longitude": -96.4595625000000041,
      "address_line_1": "2145 FM 2155",
      "address_line_2": null
    },
    {
      "zip": "77836",
      "city": "CALDWELL",
      "name": "BEAVER CREEK GOSPEL CHURCH",
      "state": "TX",
      "latitude": 30.4646048,
      "precinct": "TX_BURLESON_215",
      "longitude": -96.551464100000004,
      "address_line_1": "727 BEAVER CREEK DR.",
      "address_line_2": null
    },
    {
      "zip": "77836",
      "city": "CALDWELL",
      "name": "BURLESON COUNTY COURTHOUSE",
      "state": "TX",
      "latitude": 30.5320411999999983,
      "precinct": "TX_BURLESON_301",
      "longitude": -96.6931780000000032,
      "address_line_1": "100 W. BUCK ST.",
      "address_line_2": null
    },
    {
      "zip": "77836",
      "city": "CALDWELL",
      "name": "BLACK JACK BAPTIST CHURCH",
      "state": "TX",
      "latitude": 30.5340984999999989,
      "precinct": "TX_BURLESON_305",
      "longitude": -96.6952684000000033,
      "address_line_1": "7866 CR 301",
      "address_line_2": null
    },
    {
      "zip": "77836",
      "city": "CALDWELL",
      "name": "MACEDONIA HIX BAPTIST CHURCH",
      "state": "TX",
      "latitude": 30.6983212999999999,
      "precinct": "TX_BURLESON_308",
      "longitude": -96.6586329000000006,
      "address_line_1": "10822 FM 2000",
      "address_line_2": null
    },
    {
      "zip": "77836",
      "city": "CALDWELL",
      "name": "CHRIESMAN COMMUNITY CENTER",
      "state": "TX",
      "latitude": 30.5995625000000011,
      "precinct": "TX_BURLESON_309",
      "longitude": -96.770687499999994,
      "address_line_1": "404 FM 1363",
      "address_line_2": null
    },
    {
      "zip": "77879",
      "city": "SOMERVILLE",
      "name": "YEGUA CENTER",
      "state": "TX",
      "latitude": 30.3414503999999994,
      "precinct": "TX_BURLESON_406",
      "longitude": -96.535519800000003,
      "address_line_1": "616 8TH STREET",
      "address_line_2": null
    },
    {
      "zip": "77879",
      "city": "SOMERVILLE",
      "name": "COMMUNITY CHAPEL",
      "state": "TX",
      "latitude": 30.3765269999999994,
      "precinct": "TX_BURLESON_410",
      "longitude": -96.5557349000000045,
      "address_line_1": "14805 SH 36 S",
      "address_line_2": null
    },
    {
      "zip": "78644",
      "city": "LOCKHART",
      "name": "FIRST LOCKHART BAPTIST CHURCH HALL",
      "state": "TX",
      "latitude": 29.8828817999999998,
      "precinct": "TX_CALDWELL_100",
      "longitude": -97.6743330000000043,
      "address_line_1": "305 WEST PRAIRIE LEA ST.",
      "address_line_2": null
    },
    {
      "zip": "78644",
      "city": "LOCKHART",
      "name": "LOCKHART HIGH SCHOOL GYM FOYER",
      "state": "TX",
      "latitude": 29.8713763999999991,
      "precinct": "TX_CALDWELL_101",
      "longitude": -97.6771940999999941,
      "address_line_1": "906 CENTER ST",
      "address_line_2": null
    },
    {
      "zip": "78644",
      "city": "LOCKHART",
      "name": "LOCKHART EVENING LIONS CLUB",
      "state": "TX",
      "latitude": 29.8659037000000005,
      "precinct": "TX_CALDWELL_102",
      "longitude": -97.6639243999999991,
      "address_line_1": "220 BUFKIN LANE",
      "address_line_2": null
    },
    {
      "zip": "78644",
      "city": "LOCKHART",
      "name": "LOCKHART JR. HIGH SCHOOL GIRL'S GYM",
      "state": "TX",
      "latitude": 29.8728270999999985,
      "precinct": "TX_CALDWELL_103",
      "longitude": -97.7016201999999936,
      "address_line_1": "500 CITY LINE RD",
      "address_line_2": null
    },
    {
      "zip": "78644",
      "city": "LOCKHART",
      "name": "VFW POST 8927",
      "state": "TX",
      "latitude": 29.8177337000000016,
      "precinct": "TX_CALDWELL_104",
      "longitude": -97.674682599999997,
      "address_line_1": "7007 S. U.S. HIGHWAY 183",
      "address_line_2": null
    },
    {
      "zip": "78644",
      "city": "LOCKHART",
      "name": "ST. MARK'S METHODIST CHURCH HALL",
      "state": "TX",
      "latitude": 29.8827072999999999,
      "precinct": "TX_CALDWELL_105",
      "longitude": -97.6669767000000064,
      "address_line_1": "602 E. LIVEOAK ST",
      "address_line_2": null
    },
    {
      "zip": "78644",
      "city": "LOCKHART",
      "name": "ST. MARY'S CATHOLIC CHURCH HALL",
      "state": "TX",
      "latitude": 29.8864842999999993,
      "precinct": "TX_CALDWELL_108",
      "longitude": -97.6742473999999987,
      "address_line_1": "205 W. PECAN ST",
      "address_line_2": null
    },
    {
      "zip": "78644",
      "city": "LOCKHART",
      "name": "ST. MARK'S METHODIST CHURCH HALL",
      "state": "TX",
      "latitude": 29.8827072999999999,
      "precinct": "TX_CALDWELL_109",
      "longitude": -97.6669767000000064,
      "address_line_1": "602 E. LIVEOAK ST",
      "address_line_2": null
    },
    {
      "zip": "78644",
      "city": "LOCKHART",
      "name": "LOCKHART EVENING LIONS CLUB",
      "state": "TX",
      "latitude": 29.8659037000000005,
      "precinct": "TX_CALDWELL_110",
      "longitude": -97.6639243999999991,
      "address_line_1": "220 BUFKIN LANE",
      "address_line_2": null
    },
    {
      "zip": "78644",
      "city": "LOCKHART",
      "name": "LOCKHART EVENING LIONS CLUB",
      "state": "TX",
      "latitude": 29.8659037000000005,
      "precinct": "TX_CALDWELL_111",
      "longitude": -97.6639243999999991,
      "address_line_1": "220 BUFKIN LANE",
      "address_line_2": null
    },
    {
      "zip": "78644",
      "city": "LOCKHART",
      "name": "LOCKHART JR. HIGH SCHOOL GIRL'S GYM",
      "state": "TX",
      "latitude": 29.8728270999999985,
      "precinct": "TX_CALDWELL_118",
      "longitude": -97.7016201999999936,
      "address_line_1": "500 CITY LINE RD",
      "address_line_2": null
    },
    {
      "zip": "78648",
      "city": "LULING",
      "name": "SOUTHSIDE CLUBHOUSE",
      "state": "TX",
      "latitude": 29.6665826000000017,
      "precinct": "TX_CALDWELL_201",
      "longitude": -97.6503586000000041,
      "address_line_1": "1000 SOUTH MAGNOLIA ST.",
      "address_line_2": null
    },
    {
      "zip": "78648",
      "city": "LULING",
      "name": "SOUTHSIDE CLUBHOUSE",
      "state": "TX",
      "latitude": 29.6665826000000017,
      "precinct": "TX_CALDWELL_202",
      "longitude": -97.6503586000000041,
      "address_line_1": "1000 SOUTH MAGNOLIA ST.",
      "address_line_2": null
    },
    {
      "zip": "78648",
      "city": "LULING",
      "name": "LULING FIRST BAPTIST CHURCH HALL",
      "state": "TX",
      "latitude": 29.6830190999999992,
      "precinct": "TX_CALDWELL_203",
      "longitude": -97.6468852999999939,
      "address_line_1": "218 NORTH MAGNOLIA ST",
      "address_line_2": null
    },
    {
      "zip": "78616",
      "city": "DALE",
      "name": "MCMAHAN WOMEN'S CLUB",
      "state": "TX",
      "latitude": 29.8518170000000005,
      "precinct": "TX_CALDWELL_204",
      "longitude": -97.5245974000000047,
      "address_line_1": "6022 FM 713",
      "address_line_2": null
    },
    {
      "zip": "78616",
      "city": "DALE",
      "name": "MCMAHAN WOMEN'S CLUB",
      "state": "TX",
      "latitude": 29.8518170000000005,
      "precinct": "TX_CALDWELL_205",
      "longitude": -97.5245974000000047,
      "address_line_1": "6022 FM 713",
      "address_line_2": null
    },
    {
      "zip": "78648",
      "city": "LULING",
      "name": "LULING CIVIC CENTER",
      "state": "TX",
      "latitude": 29.6838398000000012,
      "precinct": "TX_CALDWELL_206",
      "longitude": -97.6527209999999997,
      "address_line_1": "300 E. AUSTIN STREET",
      "address_line_2": null
    },
    {
      "zip": "78655",
      "city": "MARTINDALE",
      "name": "THREE RIVERS COMMUNITY CHURCH",
      "state": "TX",
      "latitude": 29.8413792999999998,
      "precinct": "TX_CALDWELL_301",
      "longitude": -97.844754199999997,
      "address_line_1": "103 MAIN ST",
      "address_line_2": null
    },
    {
      "zip": "78656",
      "city": "MAXWELL",
      "name": "MAXWELL FIRE STATION",
      "state": "TX",
      "latitude": 29.877129,
      "precinct": "TX_CALDWELL_302",
      "longitude": -97.795799400000007,
      "address_line_1": "9655 TX-142",
      "address_line_2": null
    },
    {
      "zip": "78640",
      "city": "UHLAND",
      "name": "UHLAND COMMUNITY CENTER",
      "state": "TX",
      "latitude": 29.9562136999999993,
      "precinct": "TX_CALDWELL_303",
      "longitude": -97.7860570999999936,
      "address_line_1": "15 N OLD SPANISH TRAIL",
      "address_line_2": null
    },
    {
      "zip": "78622",
      "city": "FENTRESS",
      "name": "FENTRESS COMMUNITY CHURCH",
      "state": "TX",
      "latitude": 29.7560624999999987,
      "precinct": "TX_CALDWELL_305",
      "longitude": -97.776187500000006,
      "address_line_1": "HWY 20/BARBER ST",
      "address_line_2": null
    },
    {
      "zip": "78616",
      "city": "DALE",
      "name": "LYTTON SPRINGS BAPTIST CHURCH",
      "state": "TX",
      "latitude": 30.0023525999999983,
      "precinct": "TX_CALDWELL_306",
      "longitude": -97.6112310999999977,
      "address_line_1": "8511 FM 1854",
      "address_line_2": null
    },
    {
      "zip": "78644",
      "city": "LOCKHART",
      "name": "ST. MARY'S CATHOLIC CHURCH HALL",
      "state": "TX",
      "latitude": 29.8864842999999993,
      "precinct": "TX_CALDWELL_400",
      "longitude": -97.6742473999999987,
      "address_line_1": "205 W. PECAN ST",
      "address_line_2": null
    },
    {
      "zip": "78644",
      "city": "LOCKHART",
      "name": "ST. MARK'S METHODIST CHURCH HALL",
      "state": "TX",
      "latitude": 29.8827072999999999,
      "precinct": "TX_CALDWELL_401",
      "longitude": -97.6669767000000064,
      "address_line_1": "602 E. LIVEOAK ST",
      "address_line_2": null
    },
    {
      "zip": "78644",
      "city": "LOCKHART",
      "name": "ST. MARY'S CATHOLIC CHURCH HALL",
      "state": "TX",
      "latitude": 29.8864842999999993,
      "precinct": "TX_CALDWELL_402",
      "longitude": -97.6742473999999987,
      "address_line_1": "205 W. PECAN ST",
      "address_line_2": null
    },
    {
      "zip": "78616",
      "city": "DALE",
      "name": "LYTTON SPRINGS BAPTIST CHURCH",
      "state": "TX",
      "latitude": 30.0023525999999983,
      "precinct": "TX_CALDWELL_404",
      "longitude": -97.6112310999999977,
      "address_line_1": "8511 FM 1854",
      "address_line_2": null
    },
    {
      "zip": "78616",
      "city": "DALE",
      "name": "DALE COMMUNITY CENTER",
      "state": "TX",
      "latitude": 29.9289145000000012,
      "precinct": "TX_CALDWELL_405",
      "longitude": -97.562618999999998,
      "address_line_1": "47 CIVIC DRIVE",
      "address_line_2": null
    },
    {
      "zip": "78644",
      "city": "LOCKHART",
      "name": "ST. MARY'S CATHOLIC CHURCH HALL",
      "state": "TX",
      "latitude": 29.8864842999999993,
      "precinct": "TX_CALDWELL_407",
      "longitude": -97.6742473999999987,
      "address_line_1": "205 W. PECAN ST",
      "address_line_2": null
    },
    {
      "zip": "78644",
      "city": "LOCKHART",
      "name": "ST. MARY'S CATHOLIC CHURCH HALL",
      "state": "TX",
      "latitude": 29.8864842999999993,
      "precinct": "TX_CALDWELL_408",
      "longitude": -97.6742473999999987,
      "address_line_1": "205 W. PECAN ST",
      "address_line_2": null
    },
    {
      "zip": "78644",
      "city": "LOCKHART",
      "name": "ST. MARY'S CATHOLIC CHURCH HALL",
      "state": "TX",
      "latitude": 29.8864842999999993,
      "precinct": "TX_CALDWELL_409",
      "longitude": -97.6742473999999987,
      "address_line_1": "205 W. PECAN ST",
      "address_line_2": null
    },
    {
      "zip": "78644",
      "city": "LOCKHART",
      "name": "ST. MARY'S CATHOLIC CHURCH HALL",
      "state": "TX",
      "latitude": 29.8864842999999993,
      "precinct": "TX_CALDWELL_412",
      "longitude": -97.6742473999999987,
      "address_line_1": "205 W. PECAN ST",
      "address_line_2": null
    },
    {
      "zip": "77979",
      "city": "PORT LAVACA",
      "name": "CALHOUN COUNTY LIBRARY",
      "state": "TX",
      "latitude": 28.6153763999999988,
      "precinct": "TX_CALHOUN_1",
      "longitude": -96.628532100000001,
      "address_line_1": "200 W. MAHAN ST",
      "address_line_2": null
    },
    {
      "zip": "77979",
      "city": "PORT LAVACA",
      "name": "CALHOUN COUNTY ANNEX",
      "state": "TX",
      "latitude": 28.6120896000000009,
      "precinct": "TX_CALHOUN_10",
      "longitude": -96.6252929000000051,
      "address_line_1": "201 W. AUSTIN ST",
      "address_line_2": null
    },
    {
      "zip": "77979",
      "city": "PORT LAVACA",
      "name": "SALEM LUTHERAN CHURCH",
      "state": "TX",
      "latitude": 28.6303485000000002,
      "precinct": "TX_CALHOUN_11",
      "longitude": -96.6405960000000022,
      "address_line_1": "2101 N. VIRGINIA ST",
      "address_line_2": null
    },
    {
      "zip": "77979",
      "city": "PORT LAVACA",
      "name": "SIX MILE VOLUNTEER FIRE DEPT.",
      "state": "TX",
      "latitude": 28.6817442999999983,
      "precinct": "TX_CALHOUN_12",
      "longitude": -96.6829840000000047,
      "address_line_1": "34 ROYAL RD",
      "address_line_2": null
    },
    {
      "zip": "77979",
      "city": "PORT LAVACA",
      "name": "JACKSON ELEMENTARY SCHOOL",
      "state": "TX",
      "latitude": 28.5995464999999989,
      "precinct": "TX_CALHOUN_13",
      "longitude": -96.6284069000000017,
      "address_line_1": "1512 JACKSON ST",
      "address_line_2": null
    },
    {
      "zip": "77979",
      "city": "PORT LAVACA",
      "name": "PORT LAVACA CITY HALL",
      "state": "TX",
      "latitude": 28.616006500000001,
      "precinct": "TX_CALHOUN_14",
      "longitude": -96.6267789999999991,
      "address_line_1": "202 N. VIRGINIA ST",
      "address_line_2": null
    },
    {
      "zip": "77979",
      "city": "PORT LAVACA",
      "name": "PORT LAVACA CITY HALL",
      "state": "TX",
      "latitude": 28.616006500000001,
      "precinct": "TX_CALHOUN_15",
      "longitude": -96.6267789999999991,
      "address_line_1": "202 N. VIRGINIA ST",
      "address_line_2": null
    },
    {
      "zip": "77979",
      "city": "PORT LAVACA",
      "name": "BAUER COMMUNITY CTR",
      "state": "TX",
      "latitude": 28.6364693000000017,
      "precinct": "TX_CALHOUN_16",
      "longitude": -96.6174718999999982,
      "address_line_1": "2300 N HWY 35",
      "address_line_2": null
    },
    {
      "zip": "77979",
      "city": "PORT LAVACA",
      "name": "BAUER COMMUNITY CTR",
      "state": "TX",
      "latitude": 28.6364693000000017,
      "precinct": "TX_CALHOUN_17",
      "longitude": -96.6174718999999982,
      "address_line_1": "2300 N HWY 35",
      "address_line_2": null
    },
    {
      "zip": "77978",
      "city": "POINT COMFORT",
      "name": "RICK BRUSH BLDG",
      "state": "TX",
      "latitude": 28.6773124999999993,
      "precinct": "TX_CALHOUN_18",
      "longitude": -96.5551875000000024,
      "address_line_1": "110 JONES ST",
      "address_line_2": null
    },
    {
      "zip": "77979",
      "city": "PORT LAVACA",
      "name": "OLIVIA VOL FIRE STATION",
      "state": "TX",
      "latitude": 28.6767073000000003,
      "precinct": "TX_CALHOUN_19",
      "longitude": -96.4520581999999962,
      "address_line_1": "61 CO. RD. 318",
      "address_line_2": null
    },
    {
      "zip": "77979",
      "city": "PORT LAVACA",
      "name": "THE HERITAGE CENTER",
      "state": "TX",
      "latitude": 28.5994378000000005,
      "precinct": "TX_CALHOUN_2",
      "longitude": -96.6371311000000048,
      "address_line_1": "2104 W. AUSTIN ST",
      "address_line_2": null
    },
    {
      "zip": "77979",
      "city": "PORT LAVACA",
      "name": "CALHOUN COUNTY EMS STATION",
      "state": "TX",
      "latitude": 28.5993360999999986,
      "precinct": "TX_CALHOUN_20",
      "longitude": -96.6470300000000009,
      "address_line_1": "705 HENRY BARBER WAY",
      "address_line_2": null
    },
    {
      "zip": "77979",
      "city": "PORT LAVACA",
      "name": "CALHOUN COUNTY EMS STATION",
      "state": "TX",
      "latitude": 28.5993360999999986,
      "precinct": "TX_CALHOUN_21",
      "longitude": -96.6470300000000009,
      "address_line_1": "705 HENRY BARBER WAY",
      "address_line_2": null
    },
    {
      "zip": "77979",
      "city": "PORT LAVACA",
      "name": "CALHOUN COUNTY EMS STATION",
      "state": "TX",
      "latitude": 28.5993360999999986,
      "precinct": "TX_CALHOUN_22",
      "longitude": -96.6470300000000009,
      "address_line_1": "705 HENRY BARBER WAY",
      "address_line_2": null
    },
    {
      "zip": "77979",
      "city": "PORT LAVACA",
      "name": "CALHOUN COUNTY EMS STATION",
      "state": "TX",
      "latitude": 28.5993360999999986,
      "precinct": "TX_CALHOUN_23",
      "longitude": -96.6470300000000009,
      "address_line_1": "705 HENRY BARBER WAY",
      "address_line_2": null
    },
    {
      "zip": "77983",
      "city": "SEADRIFT",
      "name": "SEADRIFT CITY HALL",
      "state": "TX",
      "latitude": 28.4108009000000017,
      "precinct": "TX_CALHOUN_24",
      "longitude": -96.7103390000000047,
      "address_line_1": "501 S MAIN ST",
      "address_line_2": null
    },
    {
      "zip": "77982",
      "city": "PORT O'CONNOR",
      "name": "PORT O'CONNOR LIBRARY",
      "state": "TX",
      "latitude": 28.4464499999999987,
      "precinct": "TX_CALHOUN_25",
      "longitude": -96.4086820999999929,
      "address_line_1": "506 W. MAIN ST",
      "address_line_2": null
    },
    {
      "zip": "77979",
      "city": "PORT LAVACA",
      "name": "THE HERITAGE CENTER",
      "state": "TX",
      "latitude": 28.5994378000000005,
      "precinct": "TX_CALHOUN_3",
      "longitude": -96.6371311000000048,
      "address_line_1": "2104 W. AUSTIN ST",
      "address_line_2": null
    },
    {
      "zip": "77979",
      "city": "PORT LAVACA",
      "name": "THE HERITAGE CENTER",
      "state": "TX",
      "latitude": 28.5994378000000005,
      "precinct": "TX_CALHOUN_4",
      "longitude": -96.6371311000000048,
      "address_line_1": "2104 W. AUSTIN ST",
      "address_line_2": null
    },
    {
      "zip": "77979",
      "city": "PORT LAVACA",
      "name": "MAGNOLIA BEACH VOL FD",
      "state": "TX",
      "latitude": 28.5598132999999983,
      "precinct": "TX_CALHOUN_5",
      "longitude": -96.543210099999996,
      "address_line_1": "873 MARGIE TEWMEY RD",
      "address_line_2": null
    },
    {
      "zip": "77979",
      "city": "PORT LAVACA",
      "name": "MAGNOLIA BEACH VOL FD",
      "state": "TX",
      "latitude": 28.5598132999999983,
      "precinct": "TX_CALHOUN_6",
      "longitude": -96.543210099999996,
      "address_line_1": "873 MARGIE TEWMEY RD",
      "address_line_2": null
    },
    {
      "zip": "77979",
      "city": "PORT LAVACA",
      "name": "JACKSON ELEMENTARY SCHOOL",
      "state": "TX",
      "latitude": 28.5995464999999989,
      "precinct": "TX_CALHOUN_7",
      "longitude": -96.6284069000000017,
      "address_line_1": "1512 JACKSON ST",
      "address_line_2": null
    },
    {
      "zip": "77979",
      "city": "PORT LAVACA",
      "name": "CALHOUN COUNTY ANNEX",
      "state": "TX",
      "latitude": 28.6120896000000009,
      "precinct": "TX_CALHOUN_8",
      "longitude": -96.6252929000000051,
      "address_line_1": "201 W. AUSTIN ST",
      "address_line_2": null
    },
    {
      "zip": "77979",
      "city": "PORT LAVACA",
      "name": "CALHOUN COUNTY ANNEX",
      "state": "TX",
      "latitude": 28.6120896000000009,
      "precinct": "TX_CALHOUN_9",
      "longitude": -96.6252929000000051,
      "address_line_1": "201 W. AUSTIN ST",
      "address_line_2": null
    },
    {
      "zip": "78578",
      "city": "Port Isabel",
      "name": "Port Isabel Event and Cultural Center",
      "state": "TX",
      "latitude": 26.0759332999999991,
      "precinct": "TX_CAMERON_1",
      "longitude": -97.2075042000000025,
      "address_line_1": "309 E. Railroad St",
      "address_line_2": null
    },
    {
      "zip": "78521",
      "city": "Brownsville",
      "name": "Cromack Elementary School",
      "state": "TX",
      "latitude": 25.9043522000000017,
      "precinct": "TX_CAMERON_10",
      "longitude": -97.4634953999999993,
      "address_line_1": "3200 E. 30th St",
      "address_line_2": null
    },
    {
      "zip": "78526",
      "city": "Brownsville",
      "name": "Olmito Elementary School",
      "state": "TX",
      "latitude": 26.0084045999999987,
      "precinct": "TX_CAMERON_100",
      "longitude": -97.5228170999999975,
      "address_line_1": "2500 Arroyo Blvd.",
      "address_line_2": null
    },
    {
      "zip": "78521",
      "city": "Brownsville",
      "name": "Hanna High School",
      "state": "TX",
      "latitude": 25.9376998000000007,
      "precinct": "TX_CAMERON_101",
      "longitude": -97.4793868999999944,
      "address_line_1": "2615 Price Rd.",
      "address_line_2": null
    },
    {
      "zip": "78526",
      "city": "Brownsville",
      "name": "Raquel Pena Elementary School",
      "state": "TX",
      "latitude": 25.9541874999999997,
      "precinct": "TX_CAMERON_102",
      "longitude": -97.438187499999998,
      "address_line_1": "4975 Salida de la Luna",
      "address_line_2": null
    },
    {
      "zip": "78552",
      "city": "Harlingen",
      "name": "Bonita Park Community Bldg",
      "state": "TX",
      "latitude": 26.1685879999999997,
      "precinct": "TX_CAMERON_103",
      "longitude": -97.7030781999999931,
      "address_line_1": "601 S. Rangerville Rd.",
      "address_line_2": null
    },
    {
      "zip": "78550",
      "city": "Harlingen",
      "name": "Harlingen Outreach Center",
      "state": "TX",
      "latitude": 26.1809322999999985,
      "precinct": "TX_CAMERON_104",
      "longitude": -97.6854323999999963,
      "address_line_1": "1102 S. Commerce",
      "address_line_2": null
    },
    {
      "zip": "78575",
      "city": "Olmito",
      "name": "Villareal Elementary School",
      "state": "TX",
      "latitude": 26.014679000000001,
      "precinct": "TX_CAMERON_105",
      "longitude": -97.5349345000000056,
      "address_line_1": "7770 E. Lakeside Blvd.",
      "address_line_2": null
    },
    {
      "zip": "78526",
      "city": "Brownsville",
      "name": "Hudson Elementary School",
      "state": "TX",
      "latitude": 25.9465460000000014,
      "precinct": "TX_CAMERON_106",
      "longitude": -97.4750580000000042,
      "address_line_1": "2980 FM 802",
      "address_line_2": null
    },
    {
      "zip": "78520",
      "city": "Brownsville",
      "name": "Stell Middle School",
      "state": "TX",
      "latitude": 25.9334311,
      "precinct": "TX_CAMERON_107",
      "longitude": -97.5050970000000063,
      "address_line_1": "1105 Los Ebanos St.",
      "address_line_2": null
    },
    {
      "zip": "78521",
      "city": "Brownsville",
      "name": "Bob Clark Social Service Center",
      "state": "TX",
      "latitude": 25.8963204000000005,
      "precinct": "TX_CAMERON_108",
      "longitude": -97.3902408999999949,
      "address_line_1": "9901 California Rd.",
      "address_line_2": null
    },
    {
      "zip": "78586",
      "city": "San Benito",
      "name": "Ed Downs Elementary School",
      "state": "TX",
      "latitude": 26.1396945999999986,
      "precinct": "TX_CAMERON_109",
      "longitude": -97.6206566000000038,
      "address_line_1": "1302 N. Dick Dowling",
      "address_line_2": null
    },
    {
      "zip": "78520",
      "city": "Brownsville",
      "name": "Skinner Elementary School",
      "state": "TX",
      "latitude": 25.9109076000000016,
      "precinct": "TX_CAMERON_11",
      "longitude": -97.5117374999999953,
      "address_line_1": "411 W. St. Charles St.",
      "address_line_2": null
    },
    {
      "zip": "78520",
      "city": "Brownsville",
      "name": "Russell Elementary School",
      "state": "TX",
      "latitude": 25.9244734000000001,
      "precinct": "TX_CAMERON_12",
      "longitude": -97.5149099000000064,
      "address_line_1": "800 Lakeside Blvd.",
      "address_line_2": null
    },
    {
      "zip": "78520",
      "city": "Brownsville",
      "name": "Central Administration Building",
      "state": "TX",
      "latitude": 25.9105889000000005,
      "precinct": "TX_CAMERON_13",
      "longitude": -97.5072540000000032,
      "address_line_1": "708 Palm Blvd.",
      "address_line_2": null
    },
    {
      "zip": "78521",
      "city": "Brownsville",
      "name": "Bob Clark Social Service Center",
      "state": "TX",
      "latitude": 25.8963204000000005,
      "precinct": "TX_CAMERON_14",
      "longitude": -97.3902408999999949,
      "address_line_1": "9901 California Rd.",
      "address_line_2": null
    },
    {
      "zip": "78520",
      "city": "Brownsville",
      "name": "R.L. Martin Elementary School",
      "state": "TX",
      "latitude": 25.9273203000000017,
      "precinct": "TX_CAMERON_15",
      "longitude": -97.4963378000000063,
      "address_line_1": "1701 Stanford St.",
      "address_line_2": null
    },
    {
      "zip": "78520",
      "city": "Brownsville",
      "name": "Villa Nueva Elementary School",
      "state": "TX",
      "latitude": 25.9769760000000005,
      "precinct": "TX_CAMERON_16",
      "longitude": -97.5936272000000002,
      "address_line_1": "7455 Old Military Road",
      "address_line_2": null
    },
    {
      "zip": "78586",
      "city": "San Benito",
      "name": "La Encantada Elementary School",
      "state": "TX",
      "latitude": 26.0297152999999994,
      "precinct": "TX_CAMERON_17",
      "longitude": -97.6282302000000044,
      "address_line_1": "35001 FM 1577",
      "address_line_2": null
    },
    {
      "zip": "78586",
      "city": "San Benito",
      "name": "San Benito Fire Station 1",
      "state": "TX",
      "latitude": 26.1220341000000005,
      "precinct": "TX_CAMERON_18",
      "longitude": -97.640131199999999,
      "address_line_1": "1205 S. Sam Houston",
      "address_line_2": null
    },
    {
      "zip": "78586",
      "city": "San Benito",
      "name": "San Benito Community Bldg.",
      "state": "TX",
      "latitude": 26.1323034000000014,
      "precinct": "TX_CAMERON_19",
      "longitude": -97.6294266999999962,
      "address_line_1": "210 E. Heywood St.",
      "address_line_2": null
    },
    {
      "zip": "78583",
      "city": "Las Yescas",
      "name": "Las Yescas Elementary School",
      "state": "TX",
      "latitude": 26.2188768000000003,
      "precinct": "TX_CAMERON_2",
      "longitude": -97.5057429000000013,
      "address_line_1": "23413 FM 803",
      "address_line_2": null
    },